
mintime: 1322697600 maxtime: 1322755185.23
numimgs: 268
total pages: 2
visiting only 2 pages ( up to 500 images)
photo: 6436709691 14ff3da477 7035
owner: 39866320@N04
title: Kingdom Centre, Al Mamlake Tower -Riyadh - Saudi Arabia
originalsecret: null
originalformat: null
o_height: null
o_width: null
datetaken: 2010-06-17 19:06:29
dateupload: 1322754671
tags: night skyscraper canon cityscape hdr hdri lighttrail sigma1020mm kingdomcentre eos500d t1i almamlaketowerriyadhsaudiarabia
license: 0
latitude: 24.710034
longitude: 46.674771
accuracy: 13
views: 277
interestingness: 1 out of 268

photo: 6390780493 08b0454bca 6112
owner: 35110249@N05
title: Grapes Berceau in Autumn
originalsecret: 4238e1d673
originalformat: jpg
o_height: 699
o_width: 1050
datetaken: 2011-11-08 15:16:14
dateupload: 1322729460
tags: autumn holland fall netherlands dutch state herfst nederland tunnel villa niederlande berceau burcht landhuis najaar stins provincefriesland a550 loofgang jelsum dekemastate martienuiterweerd carlzeisssony1680 martienarnhem sonyalpha550 mygearandme martienholland fotomartien formerstronghold
license: 0
latitude: 53.233269
longitude: 5.782005
accuracy: 10
views: 246
interestingness: 2 out of 268

photo: 6435086461 12e4f1fe44 7030
owner: 52316539@N07
title: Bee on the thornless blackberry blossoms in the late afternoon sun. Canberra, Australia.
originalsecret: null
originalformat: null
o_height: null
o_width: null
datetaken: 2011-12-01 15:50:25
dateupload: 1322723018
tags: blackberry blossoms australia bee canberra afternoonsun blackberryblossoms thornlessblackberry tomcrossanphotography chesterrubusulmifolius
license: 0
latitude: -35.373514
longitude: 149.034118
accuracy: 11
views: 146
interestingness: 3 out of 268

photo: 6435882481 842aa598b0 7021
owner: 64724719@N03
title: Warm Grand Canyon [Explore]
originalsecret: fc5258f0b0
originalformat: jpg
o_height: 1944
o_width: 2592
datetaken: 2011-08-11 19:22:53
dateupload: 1322741284
tags: arizona orange hot tree warm dusk grand canyon
license: 0
latitude: 36.061172
longitude: -112.108075
accuracy: 14
views: 26122
interestingness: 4 out of 268

photo: 6434711141 17c8b7d069 7156
owner: 49031479@N04
title: Startrails & light...
originalsecret: 94184525c6
originalformat: jpg
o_height: 1280
o_width: 954
datetaken: 2011-12-01 04:58:42
dateupload: 1322715579
tags: uk longexposure england orange lightpainting colour night canon photography evening streetlights spin gothic orb moonlit nighttime sphere lighttrails nightscene canon1740mmf4lusm ott hardwick startrails lightpolution lightpainted lapp northeastengland lenser canoneos5dmarkii hardwickcountrypark lenserv24 iluminatte fellwalker1 lensert7 seemedlikeagoodideathetime
license: 0
latitude: 54.65591
longitude: -1.463284
accuracy: 15
views: 208
interestingness: 5 out of 268

photo: 6434660773 b163db9220 7034
owner: 46005412@N05
title: The Winter Awaits
originalsecret: 8222115528
originalformat: jpg
o_height: 1808
o_width: 1200
datetaken: 2011-11-30 15:36:42
dateupload: 1322715599
tags: ny newyork longisland fisheye hdr sandspoint handheldhdr sandspointpreserve bower8mmfisheye
license: 0
latitude: 40.863724
longitude: -73.698788
accuracy: 16
views: 135
interestingness: 6 out of 268

photo: 6436241679 f724f8debc 7147
owner: 34584939@N04
title: Manti Utah LDS Temple
originalsecret: null
originalformat: null
o_height: null
o_width: null
datetaken: 2011-11-23 12:57:12
dateupload: 1322747843
tags: travel sky building clouds landscape temple utah hill mormon lds manti lightroom mormontemple artisticphotography thechurchofjesuschristoflatterdaysaints latterdaysaint jimboud canoneos60d jamesboud canonefs1585mmf3556isusm canon1585mm
license: 0
latitude: 39.27286
longitude: -111.633701
accuracy: 15
views: 178
interestingness: 7 out of 268

photo: 6436659619 f529575898 7028
owner: 46345924@N06
title: ?????????
originalsecret: afa6e6d678
originalformat: jpg
o_height: 3744
o_width: 5616
datetaken: 2011-11-30 21:34:56
dateupload: 1322754001
tags: church saint canon lens greek mark 15 andrew noflash christian fisheye holy indoors greece ii l 5d mm orthodox ef 815 dimitris patras patra christianism dimitrios ???????? ????? ????? ??????? 815mm tsortanidis
license: 0
latitude: 38.240337
longitude: 21.727695
accuracy: 14
views: 174
interestingness: 8 out of 268

photo: 6435640341 8acdc1be23 7175
owner: 35100935@N04
title: rollover, rollover
originalsecret: null
originalformat: null
o_height: null
o_width: null
datetaken: 2011-11-27 11:22:30
dateupload: 1322736257
tags: sea game cute nature water animal fun play wildlife mother reserve seal pup splash playtime halichoerusgrypus greyseal donnanook adourable
license: 0
latitude: 53.472926
longitude: 0.14368
accuracy: 11
views: 1744
interestingness: 9 out of 268

photo: 6435252549 9bcc6d61d9 7160
owner: 48814374@N00
title: After the Game of Love :))
originalsecret: null
originalformat: null
o_height: null
o_width: null
datetaken: 2011-11-24 15:11:35
dateupload: 1322726809
tags: lighting light sunlight macro nature sunshine butterfly wings dof natural bokeh details insects yellowbutterfly backlighitng b??mb??m blinkagain
license: 0
latitude: 10.787653
longitude: 106.705924
accuracy: 15
views: 123
interestingness: 10 out of 268

photo: 6434249937 2097dfc59d 7012
owner: 58376470@N05
title: higher after
originalsecret: 29cf1cb5d4
originalformat: jpg
o_height: 694
o_width: 1024
datetaken: 2011-11-30 19:18:08
dateupload: 1322708716
tags: city nyc newyorkcity bw building night buildings manhattan worldfinancialcenter blackanwhite flickraward
license: 0
latitude: 40.709881
longitude: -74.011502
accuracy: 15
views: 122
interestingness: 11 out of 268

photo: 6435486413 e65ff86b9b 7160
owner: 67478335@N07
title: The Sanctuary
originalsecret: 4dc3874271
originalformat: jpg
o_height: 853
o_width: 1280
datetaken: 2011-09-03 20:09:29
dateupload: 1322732450
tags: ocean travel light sunset sea summer wallpaper sky sun art nature clouds photoshop canon landscape photography photo spain europe mediterranean fisheye dslr hdr sanctuary calador photomatix 600d colorefexpro calaesmeralda
license: 0
latitude: 39.369208
longitude: 3.229122
accuracy: 16
views: 324
interestingness: 12 out of 268

photo: 6428235583 bec8463703 6055
owner: 25868826@N05
title: Sunset View in HDR
originalsecret: null
originalformat: null
o_height: null
o_width: null
datetaken: 2011-06-04 19:18:38
dateupload: 1322719191
tags: chicago buildings reflections landscapes illinois nikon midwest skyscrapers searstower cities cityscapes sunsets lakemichigan trumptower southloop hdr highdynamicrange pinoy downtownchicago johnhancockbuilding cookcounty chicagoskyline shedaquarium chicagoist cityskylines d90 puddlereflections wetreflections lowpov alderplanetarium handheldshot cityofchicago pseudohdr singlefilehdr solidaritydrive hdrimages aperturef110 iso159 perfectsunsetssunrisesandskys manualmodeexposure willistower setholiver1 1100secondexposure 1024mmtamronuwalens straightenedincamera urbanscspes
license: 0
latitude: 41.86678
longitude: -87.607308
accuracy: 16
views: 219
interestingness: 13 out of 268

photo: 6433695007 8f38f76b2e 7027
owner: 45577491@N08
title: Before the storm
originalsecret: null
originalformat: null
o_height: null
o_width: null
datetaken: 2011-11-30 16:51:39
dateupload: 1322700501
tags: sunset clouds colorado mygearandme mygearandmepremium
license: 0
latitude: 39.844394
longitude: -105.091094
accuracy: 8
views: 95
interestingness: 14 out of 268

photo: 6434845123 526e34a940 7027
owner: 38108318@N00
title: Headlights And Taillights Under The Stars
originalsecret: null
originalformat: null
o_height: null
o_width: null
datetaken: 2011-11-29 22:04:11
dateupload: 1322718053
tags: longexposure sky mountain mountains cold nature water weather night stars colorado headlights alpine rockymountains lighttrails cupid taillights allrightsreserved lovelandpass summitcounty continentaldivide lightpollution arapahoebasin grizzlypeak blendedexposures deepskystacker coloradocaptures copyright2011bymikeberenson
license: 0
latitude: 39.654572
longitude: -105.875501
accuracy: 13
views: 118
interestingness: 15 out of 268

photo: 6357418269 249c5817c4 6112
owner: 14206443@N05
title: ...
originalsecret: null
originalformat: null
o_height: null
o_width: null
datetaken: 2011-11-18 10:12:07
dateupload: 1322733653
tags: trip portrait india darkroom zeiss mediumformat bath asia kodak trix iso hasselblad journey 400 varanasi shiva bagno ritratto viaggio planar benares 80mm gange uttarpradesh cameraoscura indianpeople medioformato fotografiaanalogica durstm800 toleaveacommentisnotanoffence holygange shivasfollower
license: 0
latitude: 25.308959
longitude: 83.009605
accuracy: 11
views: 160
interestingness: 16 out of 268

photo: 6433192551 12d77874ac 7021
owner: 7383661@N08
title: one week later .......
originalsecret: null
originalformat: null
o_height: null
o_width: null
datetaken: 2011-11-30 15:39:33
dateupload: 1322725200
tags: portrait toronto wednesday lens photography movement downtown library photojournalism police peaceful gazebo beercan yurt stjamespark civildisobedience resistance global socialdocumentary eviction kingst officers thefaceof analeesmith minoltaaf70210mm sonyalphaa33 occupytoronto occupyingtoronto nov23rd2011 metropolitantorontopoliceforce
license: 0
latitude: 43.650686
longitude: -79.373012
accuracy: 16
views: 143
interestingness: 17 out of 268

photo: 6436512111 0928d0e55b 7011
owner: 65294944@N05
title: Stranger Portrait No. 44
originalsecret: 2bb9616cc2
originalformat: jpg
o_height: 500
o_width: 1000
datetaken: 2011-11-24 15:24:43
dateupload: 1322751887
tags: street portrait girl smile scarf canon photography 50mm dof bokeh streetphotography stranger browneyes w?rzburg brownhair strangerportrait 50d 50mmf12
license: 3
latitude: 49.793178
longitude: 9.930095
accuracy: 16
views: 161
interestingness: 18 out of 268

photo: 6435328833 5eff707d90 7161
owner: 42645785@N04
title: Hintersee
originalsecret: null
originalformat: null
o_height: null
o_width: null
datetaken: 2011-11-13 12:13:44
dateupload: 1322728579
tags: november autumn light sun mist mountain lake tree water berg fog bayern bavaria see licht wasser frost nebel hoarfrost herbst sonne b?ume baum raureif hintersee ramsau 2011 berchtesgadnerland bestcapturesaoi dorenawm
license: 0
latitude: 47.607725
longitude: 12.852416
accuracy: 14
views: 160
interestingness: 19 out of 268

photo: 6435607219 020b9ed745 7006
owner: 40084825@N07
title: Linville Falls   335/365
originalsecret: null
originalformat: null
o_height: null
o_width: null
datetaken: 2011-11-29 12:28:27
dateupload: 1322735506
tags: usa canon landscape rebel nc trails ridge gorge wilderness burke 2011 ?blue county? parkway? area? ?canon falls? ?north ?water carolina? ?project fall? xti? 365? blinkagain ?burke ?linville 28mm135mm?
license: 0
latitude: 35.949436
longitude: -81.925971
accuracy: 15
views: 196
interestingness: 20 out of 268

photo: 6433765175 c1f17dd908 7017
owner: 42201852@N05
title: first light on the Lone Pine Peak
originalsecret: null
originalformat: null
o_height: null
o_width: null
datetaken: 2011-11-22 10:12:37
dateupload: 1322701571
tags: california sunrise nikon mtwhitney lonepine easternsierra alabamahills lonepinepeak 70200mmvr mobiusarch
license: 0
latitude: 36.611256
longitude: -118.124742
accuracy: 13
views: 100
interestingness: 21 out of 268

photo: 6436635867 dcd5f7367b 7147
owner: 52048818@N06
title: Driving Into the Distance
originalsecret: 140940e8c0
originalformat: jpg
o_height: 3458
o_width: 4288
datetaken: 2010-10-15 21:38:40
dateupload: 1322753681
tags: longexposure nightphotography night nikon trails kitlens motionblur lighttrails hyderabad flyover andhrapradesh d90 hitechcity cybertowers nikond90
license: 0
latitude: 17.439915
longitude: 78.371658
accuracy: 11
views: 159
interestingness: 22 out of 268

photo: 6434259843 3dd7ee6061 7034
owner: 44124372679@N01
title: Silent Night Christmas card
originalsecret: null
originalformat: null
o_height: null
o_width: null
datetaken: 2010-01-03 14:07:57
dateupload: 1322708865
tags: christmas decorations church architecture missionsangabriel
license: 0
latitude: 34.097927
longitude: -118.107451
accuracy: 14
views: 94
interestingness: 23 out of 268

photo: 6435681729 7d172f434e 7158
owner: 49927055@N08
title: ugly
originalsecret: 1c45746ef9
originalformat: jpg
o_height: 1900
o_width: 1267
datetaken: 2011-12-01 14:29:41
dateupload: 1322737127
tags: light brick film window set movie studio fire photography war shanghai bokeh burnt odc songjiang mimokhair
license: 0
latitude: 30.997181
longitude: 121.235389
accuracy: 11
views: 73
interestingness: 24 out of 268

photo: 6435827625 b6d2b727c4 7028
owner: 40832502@N06
title: Flowers
originalsecret: null
originalformat: null
o_height: null
o_width: null
datetaken: 2011-11-20 15:15:25
dateupload: 1322740137
tags: flowers
license: 0
latitude: 44.416003
longitude: 7.413539
accuracy: 16
views: 127
interestingness: 25 out of 268

photo: 6436076347 6c23f2d371 7169
owner: 26713910@N05
title: lembran?as do Brasil, Calhetas
originalsecret: null
originalformat: null
o_height: null
o_width: null
datetaken: 2011-12-01 05:09:21
dateupload: 1322744961
tags: 
license: 0
latitude: -8.139785
longitude: -34.900474
accuracy: 11
views: 110
interestingness: 26 out of 268

photo: 6436219517 5792dafb8a 7160
owner: 59303791@N00
title: Caribbean sunset swim
originalsecret: 2be7e9e664
originalformat: jpg
o_height: 5000
o_width: 4993
datetaken: 2011-11-22 22:26:42
dateupload: 1322747459
tags: ocean sunset sea west reflection beach water girl silhouette lady swim sand waves ripple bikini swimmer footsteps caribbean ripples stlucia indies johndalkin heavensgatejohn eastwindsinn
license: 0
latitude: 14.060655
longitude: -60.976524
accuracy: 11
views: 180
interestingness: 27 out of 268

photo: 6373187295 7a67f34a75 6045
owner: 40682521@N04
title: Western Gull and Rainbow
originalsecret: 0274d85893
originalformat: jpg
o_height: 1933
o_width: 2703
datetaken: 2011-11-20 16:38:04
dateupload: 1322701002
tags: 
license: 0
latitude: 37.809402
longitude: -122.469781
accuracy: 16
views: 78
interestingness: 28 out of 268

photo: 6436326129 7cdebfe976 7175
owner: 58975350@N06
title: The grape thief!
originalsecret: null
originalformat: null
o_height: null
o_width: null
datetaken: 2011-01-17 07:31:47
dateupload: 1322749153
tags: animal rainbow grapes colourful rainbowlorikeet pest trichoglossushaematodus avianexcellence animalinvasiveinvasive
license: 0
latitude: -31.83892
longitude: 115.777873
accuracy: 16
views: 90
interestingness: 29 out of 268

photo: 6434764717 f262458b0a 7163
owner: 15451984@N00
title: End of an Era - The Village Coffee Shop Closes today, after 35 years in Business. Photo of Milton, the Chef.
originalsecret: null
originalformat: null
o_height: null
o_width: null
datetaken: 2011-11-30 18:28:18
dateupload: 1322716527
tags: leica portrait man kitchen digital lumix restaurant cafe closed cook lastday panasonic chef hollywood milton hollywoodhills beachwood lx3 villagecoffeeshop p1100672
license: 0
latitude: 34.096652
longitude: -118.321159
accuracy: 15
views: 136
interestingness: 30 out of 268

photo: 6435912739 557dffd1ef 7151
owner: 57181139@N03
title: Kazma Meteor
originalsecret: 98a045966e
originalformat: jpg
o_height: 664
o_width: 999
datetaken: 2011-11-24 12:31:17
dateupload: 1322741891
tags: mountains star kuwait starts meteor ???? ???? ???? kazma ???? ????? ???? ???? ?????????
license: 1
latitude: 29.449503
longitude: 47.718681
accuracy: 11
views: 152
interestingness: 31 out of 268

photo: 6433668863 151d61cdf4 7159
owner: 42852007@N07
title: 334/365 - 11/30/2011 [explore]
originalsecret: null
originalformat: null
o_height: null
o_width: null
datetaken: 2011-11-30 18:49:32
dateupload: 1322700135
tags: macro photoshop toys shark comic bruce jaws 1975 comicstrip matchbox greatwhiteshark greatwhite favoritemovie day334 johnwilliams stephenspielberg youregonnaneedabiggerboat royscheider carcharodoncarcharias peterbenchley chiefbrody round14 day334365 d7000 amitypolice 3652011 365the2011edition getpushed 11302011 getpushedround14
license: 0
latitude: 41.457651
longitude: -70.587844
accuracy: 10
views: 166
interestingness: 32 out of 268

photo: 6435517037 25e1ca5a88 7031
owner: 8324258@N06
title: Giant Swing (Sao Ching Cha) #1 | Bangkok
originalsecret: null
originalformat: null
o_height: null
o_width: null
datetaken: 2011-10-28 08:55:47
dateupload: 1322753075
tags: heritage giant thailand religious raw bangkok ceremony swing unesco historical pillars hindu teak brahmin watsuthat phranakhon saochingcha
license: 0
latitude: 13.753662
longitude: 100.498595
accuracy: 14
views: 137
interestingness: 33 out of 268

photo: 6435092447 20fcec09eb 7170
owner: 56803013@N02
title: 'Shongololo' ~ a Spiral of Nature...
originalsecret: 77a1241399
originalformat: jpg
o_height: 1626
o_width: 1626
datetaken: 2011-11-30 09:55:47
dateupload: 1322723152
tags: interesting ngc millipede textured arthropod diplopoda bodysegments osolev ellenvd
license: 0
latitude: -29.747416
longitude: 30.839889
accuracy: 15
views: 51
interestingness: 34 out of 268

photo: 6423876183 09c5de7461 7151
owner: 36326099@N05
title: Around and Down, Down and Around
originalsecret: null
originalformat: null
o_height: null
o_width: null
datetaken: 2011-09-17 15:57:07
dateupload: 1322751720
tags: city uk greatbritain england people urban blackandwhite bw building london glass lines architecture modern spiral blackwhite office europe unitedkingdom cityhall sony curves perspective line normanfoster staircase gb alpha curve offices officeblock sirnormanfoster fosterandpartners a700 openhouselondon tamronspaf1750mmf28xrdiii sonyalpha700 dslra700 silverefexpro2
license: 0
latitude: 51.504722
longitude: -0.078333
accuracy: 16
views: 94
interestingness: 35 out of 268

photo: 6435296305 964d5ba1e4 7034
owner: 53825985@N02
title: Follow the Light
originalsecret: 0f56218933
originalformat: jpg
o_height: 1709
o_width: 2365
datetaken: 2011-12-01 08:22:51
dateupload: 1322727771
tags: besubsequentto chase comeafter comefrom comenext displace ensue goafter gonext postdate proceedfrom pursue replace result springfrom succeed supersede supervene supplant ablaze aglow bright brilliant burnished clear cloudless flashing fluorescent glossy glowing lambent lucent luminous lustrous phosphorescent polished radiant refulgent resplendent rich scintillant shining shiny sunny unclouded unobscured vivid welllighted welllit forest hardwood pulp sapling seedling shrub softwood stock timber topiary wood woods abigfave
license: 3
latitude: 53.271064
longitude: -1.051168
accuracy: 13
views: 95
interestingness: 36 out of 268

photo: 6436192177 3138129e7f 7017
owner: 32193001@N03
title: Stormy Morning
originalsecret: null
originalformat: null
o_height: null
o_width: null
datetaken: 2011-11-27 07:43:57
dateupload: 1322746987
tags: storm mupesunrise
license: 0
latitude: 50.616659
longitude: -2.221212
accuracy: 13
views: 145
interestingness: 37 out of 268

photo: 6436174625 eea96c9f7d 7174
owner: 37995657@N00
title: Pinhole: The Only True Products of War -- The Survivors, The Missing, The Dead
originalsecret: null
originalformat: null
o_height: null
o_width: null
datetaken: 2011-11-30 22:06:42
dateupload: 1322746683
tags: travel people color film analog washingtondc dc washington xpro memorial war fuji kodak vet crossprocess honor pinhole vietnam velvia korean hero series 6x9 analogue fujichrome portra vietnamveteransmemorial zeroimage veteransday zero69 epsonperfectionv500 squarepegpinhole
license: 0
latitude: 38.889291
longitude: -77.048395
accuracy: 16
views: 130
interestingness: 38 out of 268

photo: 6436640557 cbd6f90934 7155
owner: 40999618@N05
title: Happy National Day, Romania!
originalsecret: b773fe2799
originalformat: jpg
o_height: 1323
o_width: 980
datetaken: 2010-07-14 05:24:50
dateupload: 1322753746
tags: flag romania december1 nationalday romanianflag 1decembrie ziuanationala
license: 3
latitude: 45.946949
longitude: 24.9804
accuracy: 2
views: 54
interestingness: 39 out of 268

photo: 6434295835 68741bd72e 7012
owner: 22402785@N04
title: Griffen in the Fading Light
originalsecret: null
originalformat: null
o_height: null
o_width: null
datetaken: 2011-11-30 16:50:33
dateupload: 1322709391
tags: 
license: 0
latitude: 43.423206
longitude: -124.281495
accuracy: 15
views: 21
interestingness: 40 out of 268

photo: 6434081121 7e29511875 7151
owner: 43749513@N08
title: let's say goodbye one last time
originalsecret: 6b9d92b471
originalformat: jpg
o_height: 1752
o_width: 1988
datetaken: 2011-11-30 13:54:01
dateupload: 1322706211
tags: flower nature rose pinkflower rosehips darrensroses darrenmikesgarden
license: 0
latitude: 40.171329
longitude: -75.109916
accuracy: 11
views: 47
interestingness: 41 out of 268

photo: 6435189373 385d1e2153 7027
owner: 68460387@N07
title: Comana Monastery
originalsecret: null
originalformat: null
o_height: null
o_width: null
datetaken: 2011-05-22 17:22:01
dateupload: 1322725295
tags: church landscape europe religion medieval christian monastery romania fortress vlad est tepes ortodox manastirea comana
license: 0
latitude: 43.904076
longitude: 25.983009
accuracy: 11
views: 24
interestingness: 42 out of 268

photo: 6434887889 e05fbe0350 7158
owner: 62417547@N06
title: Pismo Beach Pier
originalsecret: null
originalformat: null
o_height: null
o_width: null
datetaken: 2011-11-28 17:00:28
dateupload: 1322718858
tags: ocean white black beach long exposure f22 18mm
license: 0
latitude: 35.138405
longitude: -120.644259
accuracy: 13
views: 58
interestingness: 43 out of 268

photo: 6435351925 a5ab0194d0 7015
owner: 27610886@N03
title: Sunset at Rhyd
originalsecret: null
originalformat: null
o_height: null
o_width: null
datetaken: 2011-12-01 08:46:33
dateupload: 1322729193
tags: 
license: 0
latitude: 52.956291
longitude: -4.037132
accuracy: 11
views: 76
interestingness: 44 out of 268

photo: 6435188669 8805ceab51 7015
owner: 68460387@N07
title: Comana Monastery
originalsecret: null
originalformat: null
o_height: null
o_width: null
datetaken: 2011-05-22 17:13:18
dateupload: 1322725276
tags: church landscape europe religion medieval christian monastery romania fortress vlad est tepes ortodox manastirea comana
license: 0
latitude: 43.900984
longitude: 25.982666
accuracy: 11
views: 28
interestingness: 45 out of 268

photo: 6435749133 48849dbd0d 7148
owner: 43385244@N07
title: fire!
originalsecret: 13b51431be
originalformat: jpg
o_height: 2848
o_width: 4288
datetaken: 2011-11-19 08:08:59
dateupload: 1322738506
tags: fire incoming ringoffire etcetc steelwool spinningfire lightmyfire firedownbelow anyonerememberbeevisandbutthead
license: 0
latitude: 34.479957
longitude: -114.402179
accuracy: 13
views: 65
interestingness: 46 out of 268

photo: 6435485027 e798f2e13b 7162
owner: 94941181@N00
title: Zorki 2-S
originalsecret: f57171e20e
originalformat: jpg
o_height: 542
o_width: 800
datetaken: 2011-11-27 16:05:37
dateupload: 1322732594
tags: zorki2s
license: 0
latitude: 39.932923
longitude: 32.834658
accuracy: 15
views: 120
interestingness: 47 out of 268

photo: 6435556793 d623126015 7015
owner: 88704109@N00
title: Tokugawaen
originalsecret: d051672d59
originalformat: jpg
o_height: 3240
o_width: 4320
datetaken: 2011-12-01 14:31:23
dateupload: 1322734221
tags: japan nagoya tokugawaen
license: 0
latitude: 35.14986
longitude: 136.926223
accuracy: 11
views: 42
interestingness: 48 out of 268

photo: 6435257739 152b1d8814 7023
owner: 57596918@N03
title: Forth Rail Bridge
originalsecret: null
originalformat: null
o_height: null
o_width: null
datetaken: 2011-11-30 13:59:50
dateupload: 1322726927
tags: train scotland rocks edinburgh girders paintjob forthrailbridge railbridge seawater silkywater longexposurephotography longexposuresetup scotlandseascape lorenzodalberto ldphoto scotlandlandmark
license: 0
latitude: 55.990124
longitude: -3.392195
accuracy: 16
views: 59
interestingness: 49 out of 268

photo: 6434841121 5acbdf4486 7012
owner: 59061468@N07
title: Clouds Are Rolling
originalsecret: 0d0a177ae1
originalformat: jpg
o_height: 2854
o_width: 1914
datetaken: 2011-11-12 13:47:34
dateupload: 1322717974
tags: sky house clouds missouri hdr rolling chesterfield faustpark tenuouslink nikond40 111211 gregbizzle
license: 0
latitude: 38.653629
longitude: -90.55352
accuracy: 11
views: 64
interestingness: 50 out of 268

photo: 5432328176 879b55de9a 5100
owner: 10839729@N08
title: Mother Maybelle's Place
originalsecret: null
originalformat: null
o_height: null
o_width: null
datetaken: 2009-01-10 11:57:23
dateupload: 1322742474
tags: house virginia identified nationalregisterofhistoricplaces scottcounty
license: 0
latitude: 36.673508
longitude: -82.402278
accuracy: 16
views: 67
interestingness: 51 out of 268

photo: 6436223405 eee49f2eac 7003
owner: 37156896@N07
title: After the rain...
originalsecret: null
originalformat: null
o_height: null
o_width: null
datetaken: 2011-11-24 11:08:12
dateupload: 1322747529
tags: street trees sky brown lake black water rain grey sweden streetlamps bergslagen skinnskatteberg vestmanland
license: 0
latitude: 59.827348
longitude: 15.691952
accuracy: 14
views: 29
interestingness: 52 out of 268

photo: 6434636475 665ff47c58 7151
owner: 41687112@N06
title: Personal Update !!!
originalsecret: feae18bc23
originalformat: jpg
o_height: 990
o_width: 1485
datetaken: 2011-11-20 11:52:00
dateupload: 1322714384
tags: 
license: 0
latitude: 12.935261
longitude: 77.628268
accuracy: 16
views: 161
interestingness: 53 out of 268

photo: 6433722903 b143009c95 7022
owner: 61176154@N00
title: Morning glory
originalsecret: null
originalformat: null
o_height: null
o_width: null
datetaken: 2011-09-20 08:07:32
dateupload: 1322700931
tags: ontario canada sunrise michigan detroit flare windsor span detroitriver bordercrossing notkalvin ambaassadorbridge
license: 0
latitude: 42.313115
longitude: -83.075523
accuracy: 11
views: 50
interestingness: 54 out of 268

photo: 6433958649 795b6bf915 7171
owner: 54530258@N02
title: Night traffic on the bridge -   Trafico de noche en el puente
originalsecret: b2f51c07c4
originalformat: jpg
o_height: 1867
o_width: 2800
datetaken: 2011-11-26 06:13:19
dateupload: 1322704441
tags: bridge puente pasadena suicidebridge coloradostreetbridge pas1 pasadebridge puentesuicida
license: 0
latitude: 34.14359
longitude: -118.168677
accuracy: 15
views: 30
interestingness: 55 out of 268

photo: 6434814645 f7653ec87c 7165
owner: 8833997@N08
title: Maple Syrup
originalsecret: null
originalformat: null
o_height: null
o_width: null
datetaken: 2011-10-14 11:30:55
dateupload: 1322717460
tags: mountain color green fall vermont railway trains chester vt railroads 308 vtr emd gp402 cummingshardware
license: 0
latitude: 43.267596
longitude: -72.589502
accuracy: 14
views: 69
interestingness: 56 out of 268

photo: 6434355573 5da3a0809f 7146
owner: 25272548@N02
title: Down the hatch!
originalsecret: 4072d29ef6
originalformat: jpg
o_height: 816
o_width: 1224
datetaken: 2011-11-20 08:38:26
dateupload: 1322710275
tags: yellowrumpedwarbler riparianpreserveatwaterranch
license: 0
latitude: 33.361426
longitude: -111.732405
accuracy: 16
views: 73
interestingness: 57 out of 268

photo: 6436463227 bc9488c943 7166
owner: 31138867@N08
title: 1938 Mercedes 540K - Long-hidden, very rare & valuable
originalsecret: null
originalformat: null
o_height: null
o_width: null
datetaken: 2011-06-15 14:38:14
dateupload: 1322751154
tags: cars june mercedes michigan oldcars canon1740l 2011 gilmorecarmuseum barrycounty hickorycorners june2011 1930scars fullclassiccars 1938mercedes
license: 0
latitude: 42.439317
longitude: -85.422756
accuracy: 16
views: 34
interestingness: 58 out of 268

photo: 6435594849 06b71c979c 7157
owner: 10881108@N06
title: HERRING HEYDAY
originalsecret: null
originalformat: null
o_height: null
o_width: null
datetaken: 2011-12-01 10:26:39
dateupload: 1322735199
tags: england norfolk greatyarmouth stipple penink rapidograph pointillism southquay originaldrawing silverdarlings herringsale
license: 0
latitude: 52.602812
longitude: 1.726226
accuracy: 13
views: 36
interestingness: 59 out of 268

photo: 6436635879 25b63a9f67 7171
owner: 48267086@N06
title: Day Three Hundred and Thirty Five
originalsecret: null
originalformat: null
o_height: null
o_width: null
datetaken: 2011-12-01 20:08:02
dateupload: 1322753681
tags: winter snow colors japan shop night 35mm project lights sapporo nikon hokkaido nicola sake 365 d300 bernardi project365 365project 3652011 2011inphotos
license: 0
latitude: 43.062366
longitude: 141.354217
accuracy: 9
views: 181
interestingness: 60 out of 268

photo: 6436496149 2fd8f31aeb 7002
owner: 65024642@N02
title: Yellow-Vented Bulbul
originalsecret: null
originalformat: null
o_height: null
o_width: null
datetaken: 2011-11-30 18:29:21
dateupload: 1322751666
tags: bird 2011 yellowventedbulbul nikonafs70300mm gwwang wwwon9cloudcom
license: 0
latitude: 1.276781
longitude: 103.846421
accuracy: 16
views: 58
interestingness: 61 out of 268

photo: 6435690655 2617051730 7006
owner: 36034969@N08
title: Will the guilty Flickrite please step forward with a mop & bucket !
originalsecret: 6c0fd9b01b
originalformat: jpg
o_height: 1968
o_width: 1251
datetaken: 2011-11-30 12:09:28
dateupload: 1322737307
tags: class92 flickrgraffiti 92034 dbschenker kingmooryard carlislenetworkyard creweeagle
license: 0
latitude: 54.923245
longitude: -2.975535
accuracy: 14
views: 121
interestingness: 62 out of 268

photo: 6435198063 5de3d32c56 7020
owner: 47470230@N07
title: Strained Glass Windows - Christchurch Anglicain Cathedral
originalsecret: b40a891f6c
originalformat: jpg
o_height: 810
o_width: 1200
datetaken: 2011-11-27 12:24:08
dateupload: 1322725496
tags: old newzealand christchurch canon earthquake nz paintshoppro hdr cathedralsquare chch photomatix 50d canterburynz 3exp canon50d worldhdr geofftrotter christchurchearthquake christchurchearthquake2011 stunningphotogpin christchurchanglicaincathedral
license: 0
latitude: -43.531002
longitude: 172.636756
accuracy: 15
views: 131
interestingness: 63 out of 268

photo: 6436403937 c854f88d96 7035
owner: 23693759@N08
title: Guard Dog!
originalsecret: null
originalformat: null
o_height: null
o_width: null
datetaken: 2011-11-30 16:32:37
dateupload: 1322750283
tags: street dog man hat person hdr homless pookaphotography
license: 0
latitude: 50.827991
longitude: -0.141234
accuracy: 14
views: 81
interestingness: 64 out of 268

photo: 6436130527 0557020b9b 7147
owner: 76033499@N00
title: White-lined tree frog (Phyllomedusa vaillantii)
originalsecret: null
originalformat: null
o_height: null
o_width: null
datetaken: 2011-04-10 20:10:30
dateupload: 1322745907
tags: ecuador yachana lpjc phyllomedusavaillantii
license: 0
latitude: -0.949329
longitude: -77.418251
accuracy: 16
views: 28
interestingness: 65 out of 268

photo: 6428426151 e5eda381b8 7031
owner: 34396697@N00
title: Ho-Ho-Kus station in the freak October 2011 snowstorm
originalsecret: null
originalformat: null
o_height: null
o_width: null
datetaken: 2011-11-06 12:05:23
dateupload: 1322702008
tags: usa snow storm fall station newjersey october nj kodakportra400vc 35mmfilm 2011 bergencounty hohokus hhk leicaminiii
license: 0
latitude: 40.99703
longitude: -74.113265
accuracy: 16
views: 54
interestingness: 66 out of 268

photo: 6434953005 9722022912 7034
owner: 54399684@N04
title: 206.365 Lego-ing
originalsecret: null
originalformat: null
o_height: null
o_width: null
datetaken: 2011-11-05 18:05:24
dateupload: 1322720149
tags: me project back day you 206 follow enjoy come if after 365 script ever month bi ib on the stalling a 206365 relnofollowtwittera relnofollowtumblra legoing continueing hrefhttpregnigar94tumblrcom hrefhttpstwittercomarahazlan
license: 0
latitude: 5.150785
longitude: 100.486793
accuracy: 11
views: 15
interestingness: 67 out of 268

photo: 6433938503 cc40a8b05e 7032
owner: 38275388@N00
title: After Hours Study
originalsecret: null
originalformat: null
o_height: null
o_width: null
datetaken: 2011-11-30 19:57:45
dateupload: 1322704158
tags: nyc newyorkcity newyork pen nypl newyorkpubliclibrary computers olympus cellphones ep1 mzuiko17mm
license: 0
latitude: 40.75293
longitude: -73.981697
accuracy: 15
views: 58
interestingness: 68 out of 268

photo: 6433956925 0274b161d6 7158
owner: 54530258@N02
title: The moon and star over Pasadena  -- La luna y la estrella sobre Pasadena
originalsecret: 0f3e85eb4b
originalformat: jpg
o_height: 1997
o_width: 2930
datetaken: 2011-11-26 06:13:18
dateupload: 1322704417
tags: bridge puente pasadena suicidebridge coloradostreetbridge pas1 pasadebridge puentesuicida
license: 0
latitude: 34.143688
longitude: -118.168526
accuracy: 15
views: 14
interestingness: 69 out of 268

photo: 6433881879 243a8996c4 7024
owner: 34578976@N00
title: Loon Lake B-23 Isometric
originalsecret: 9f09128d99
originalformat: jpg
o_height: 2934
o_width: 3168
datetaken: 2011-11-30 19:11:18
dateupload: 1322703287
tags: lake 3d model bomber pap loon b23 meshlab hypr3d
license: 0
latitude: 45.15877
longitude: -115.841238
accuracy: 14
views: 91
interestingness: 70 out of 268

photo: 6435931929 ec6901cf46 7016
owner: 62691893@N00
title: Simple Pleasure Around Torcello
originalsecret: null
originalformat: null
o_height: null
o_width: null
datetaken: 2011-10-12 17:41:44
dateupload: 1322742275
tags: italy island torcello waterscape travelphotography venetianlagoon
license: 0
latitude: 45.497684
longitude: 12.415924
accuracy: 11
views: 19
interestingness: 71 out of 268

photo: 6435242291 229653d1d0 7160
owner: 8981098@N07
title: Kairaouine Mosque
originalsecret: 78465354e7
originalformat: jpg
o_height: 1980
o_width: 2640
datetaken: 2011-10-11 18:49:42
dateupload: 1322726568
tags: africa travel moon canon geotagged dusk minaret mosque morocco fez maroc fes nightfall peregrin medressa f?selbali medrasa alkaraouine kairaouinemosque alqarawiyyin alma?rib ???????????? lindadevolder powershotsx30 f?zelbali
license: 0
latitude: 34.051877
longitude: -5.002384
accuracy: 12
views: 36
interestingness: 72 out of 268

photo: 6433937763 604243b1fd 7158
owner: 54790761@N04
title: La Motte Vinery 4
originalsecret: 06354f8b12
originalformat: jpg
o_height: 3456
o_width: 5184
datetaken: 2011-11-24 22:59:05
dateupload: 1322704147
tags: macro glass wine winetasting wineglass redwine westerncape vinery franschhoek lamotte
license: 0
latitude: -33.913733
longitude: 19.119815
accuracy: 11
views: 15
interestingness: 73 out of 268

photo: 6436260307 e50215e74c 7162
owner: 56644585@N05
title: Buttermilk falls after record rains
originalsecret: e345fd254a
originalformat: jpg
o_height: 800
o_width: 1200
datetaken: 2011-09-08 14:16:55
dateupload: 1322748158
tags: 
license: 0
latitude: 42.416455
longitude: -76.52132
accuracy: 13
views: 26
interestingness: 74 out of 268

photo: 6435283653 9d0e32bbc8 7149
owner: 31227062@N03
title: On Our Way.....
originalsecret: null
originalformat: null
o_height: null
o_width: null
datetaken: 2011-11-11 16:48:18
dateupload: 1322727497
tags: training scotland helicopter westernisles sar isleoflewis stornoway searchrescue sikorskys92 gcgmu stevebranley
license: 0
latitude: 58.22055
longitude: -6.327352
accuracy: 16
views: 30
interestingness: 75 out of 268

photo: 6435016705 0cd2749e5e 7145
owner: 13385037@N00
title: Project365 : 335/365
originalsecret: 24848bbecf
originalformat: jpg
o_height: 3485
o_width: 5227
datetaken: 2011-12-01 13:10:43
dateupload: 1322721482
tags: old shop project quality butcher 365 clunes project365
license: 0
latitude: -37.295171
longitude: 143.786273
accuracy: 14
views: 55
interestingness: 76 out of 268

photo: 6434442289 9d799c8eaf 7151
owner: 60854408@N06
title: My First Haircut
originalsecret: 1f1abdbfea
originalformat: jpg
o_height: 2848
o_width: 4288
datetaken: 2011-11-08 13:59:48
dateupload: 1322711531
tags: 
license: 0
latitude: -41.28054
longitude: 174.767135
accuracy: 11
views: 43
interestingness: 77 out of 268

photo: 6436619297 37c121d99d 7168
owner: 68124715@N00
title: Tunnel To Parking Lot - HDR/Tone-Mapped
originalsecret: null
originalformat: null
o_height: null
o_width: null
datetaken: 2011-12-01 10:30:48
dateupload: 1322753448
tags: nikon backalley hamilton gimp tunnel hdr luminance tonemapped 18105mm d5000 qtpfsgui
license: 0
latitude: 43.255785
longitude: -79.865356
accuracy: 16
views: 59
interestingness: 78 out of 268

photo: 6436085689 a112c08c8a 7143
owner: 19549556@N07
title: Help Has Arrived - McCarran Int'l Airport, NV  USA
originalsecret: 2aedd9e707
originalformat: jpg
o_height: 3456
o_width: 5184
datetaken: 2011-11-27 14:11:24
dateupload: 1322745660
tags: las rescue southwest fire airport lasvegas boeing fighting reddog airlines klas oshkosh 43 mccarran 737 b737 wn swa emergencylanding clarkcounty arff hydraulicfailure n625sw
license: 0
latitude: 36.0827
longitude: -115.147286
accuracy: 16
views: 50
interestingness: 79 out of 268

photo: 6434232247 96a8de0f07 7151
owner: 67184449@N05
title: Come on Baby, Light my fire...
originalsecret: null
originalformat: null
o_height: null
o_width: null
datetaken: 2011-10-01 00:00:00
dateupload: 1322708454
tags: sunset ontario fire bay skies collingwood awesome georgian firesky
license: 3
latitude: 44.504846
longitude: -80.22161
accuracy: 14
views: 26
interestingness: 80 out of 268

photo: 6433617267 f59f732a08 7008
owner: 64484500@N07
title: Cold shores
originalsecret: 1249c9bbca
originalformat: jpg
o_height: 2119
o_width: 3300
datetaken: 2011-11-08 15:54:30
dateupload: 1322699365
tags: cold beach clouds dark landscape bc gloomy south rocky cascades hdr mtbaker penderisland gowlandpoint
license: 0
latitude: 48.73638
longitude: -123.184247
accuracy: 15
views: 24
interestingness: 81 out of 268

photo: 6435653325 03386e8b64 7145
owner: 30414511@N06
title: Baby Water Fall
originalsecret: null
originalformat: null
o_height: null
o_width: null
datetaken: 2011-11-25 14:20:32
dateupload: 1322736539
tags: california park trees orange plants baby lake plant tree green fall water beautiful beauty yellow rock yoga gardens garden relax landscape botanical outdoors landscapes canal waterfall pond toddler rocks stream meditate peace outdoor lakes relaxing parks peaceful tranquility auburn lookout falls canals waterfalls zen cascades land vegetation layer waters layers serene streams meditation norcal liquids botany scape relaxed ponds cascade liquid tranquil feng moisture multi humidity humid veiw moist shui layered hiddenvalleyfalls
license: 0
latitude: 38.954136
longitude: -121.234359
accuracy: 13
views: 17
interestingness: 82 out of 268

photo: 6435096291 1a370e90d4 7154
owner: 10274279@N06
title: Iles Tower levers and model board
originalsecret: null
originalformat: null
o_height: null
o_width: null
datetaken: 1994-02-05 18:06:12
dateupload: 1322751443
tags: railroad tower structure norfolksouthern
license: 0
latitude: 39.770624
longitude: -89.653197
accuracy: 16
views: 53
interestingness: 83 out of 268

photo: 6433614263 ff704273c0 7032
owner: 66630513@N08
title: 29Nov2011 skies the limit
originalsecret: null
originalformat: null
o_height: null
o_width: null
datetaken: 2011-11-29 16:03:44
dateupload: 1322699319
tags: sunset red sky orange clouds silver evening skies sillhouette birtch
license: 0
latitude: 53.325951
longitude: -2.699546
accuracy: 10
views: 40
interestingness: 84 out of 268

photo: 6436492181 8b640f7761 7017
owner: 21542577@N06
title: An old street at S?dermalm
originalsecret: 5df3a5720d
originalformat: jpg
o_height: 3168
o_width: 4752
datetaken: 2011-10-25 13:07:46
dateupload: 1322751606
tags: 
license: 0
latitude: 59.319768
longitude: 18.065643
accuracy: 13
views: 16
interestingness: 85 out of 268

photo: 6436154101 b59d7f22e0 7007
owner: 59660960@N07
title: Casa Marina Resort during Christmas Season - Key West, Florida
originalsecret: 40521e8d54
originalformat: jpg
o_height: 3024
o_width: 1949
datetaken: 2011-11-29 13:35:14
dateupload: 1322746325
tags: santa christmas hotel florida historic resort santaclaus keywest sandsculpture henryflagler fec casamarina
license: 0
latitude: 24.5471
longitude: -81.790279
accuracy: 16
views: 43
interestingness: 86 out of 268

photo: 6435564383 53246b5cb7 7014
owner: 31227062@N03
title: Royal Netherlands Air Force  C-130 Hercules
originalsecret: null
originalformat: null
o_height: null
o_width: null
datetaken: 2010-04-14 11:26:59
dateupload: 1322734409
tags: bw scotland blackwhite westernisles hercules turboprop c130 isleoflewis stornowayairport militarytransportaircraft royalnetherlandairforce stevebranley
license: 0
latitude: 58.219014
longitude: -6.32409
accuracy: 16
views: 28
interestingness: 87 out of 268

photo: 6433608929 c8604a9a99 7033
owner: 64484500@N07
title: Gloomy skies
originalsecret: 2c55da3860
originalformat: jpg
o_height: 2558
o_width: 3000
datetaken: 2011-11-08 15:32:41
dateupload: 1322699244
tags: trees cold clouds bc gloomy south hdr mtbaker penderisland gowlandpoint higgspoint
license: 0
latitude: 48.735884
longitude: -123.185148
accuracy: 15
views: 23
interestingness: 88 out of 268

photo: 6435659235 e6a24f7ef9 7164
owner: 42038165@N02
title: Issoire - Saint-Austremoine
originalsecret: 7970c164eb
originalformat: jpg
o_height: 1536
o_width: 2048
datetaken: 2011-04-01 00:00:00
dateupload: 1322736663
tags: france 63 sagittarius zodiac romanesque puyded?me issoire limagne saintaustremoine craplet warsofreligion romanauvergnat basseauvergne staustremoinedissoire mathieumerle
license: 0
latitude: 45.543554
longitude: 3.25044
accuracy: 15
views: 15
interestingness: 89 out of 268

photo: 6435512915 a1024ede36 7155
owner: 22517893@N00
title: Laughing Kookaburras
originalsecret: 7e2c453b13
originalformat: jpg
o_height: 1280
o_width: 1280
datetaken: 2011-11-27 15:56:11
dateupload: 1322733112
tags: sydney australia nsw kookaburra royalnationalpark australianbirds dacelonovaeguineae laughingkookaburra dacelo 2011
license: 0
latitude: -34.082039
longitude: 151.054936
accuracy: 16
views: 18
interestingness: 90 out of 268

photo: 6433543545 cabd0e2d06 7005
owner: 67968452@N00
title: PhotonQ-John Bohannon Dance Your Ph.D
originalsecret: ccf271a5c9
originalformat: jpg
o_height: 684
o_width: 912
datetaken: 2011-12-01 01:10:20
dateupload: 1322698400
tags: brussels ted black john fun creativity dance movement europe belgium belgique label bruxelles danse your conference vs phd powerpoint bohannon palaisdesbeauxarts bozar 2011 photonquantique tedx danceyourphd johnbohannon
license: 3
latitude: 50.843982
longitude: 4.358519
accuracy: 16
views: 90
interestingness: 91 out of 268

photo: 6435768061 223256748c 7146
owner: 14331809@N00
title: Finished!
originalsecret: null
originalformat: null
o_height: null
o_width: null
datetaken: 2011-11-28 15:59:19
dateupload: 1322738904
tags: door nanowrimo girl glasses mess tea desk monitor human stuff headphones libby 365 barney mybedroom gingercat messydesk 365days 3654 lionmask barnabee 365days4 ricsandersmug
license: 0
latitude: 51.489273
longitude: 0.338923
accuracy: 16
views: 135
interestingness: 92 out of 268

photo: 6434805603 a8e40880e3 7149
owner: 55998266@N08
title: 2 different generations together
originalsecret: null
originalformat: null
o_height: null
o_width: null
datetaken: 2011-11-29 20:18:07
dateupload: 1322717283
tags: 
license: 0
latitude: 12.979336
longitude: 77.569146
accuracy: 16
views: 25
interestingness: 93 out of 268

photo: 6433884839 4d13a3a317 7032
owner: 58906061@N06
title: Diamonds on leaves - Diamants sur feuilles
originalsecret: 44b81740c9
originalformat: jpg
o_height: 768
o_width: 1024
datetaken: 2005-08-11 11:12:08
dateupload: 1322703330
tags: 
license: 0
latitude: 45.349638
longitude: -65.513159
accuracy: 16
views: 15
interestingness: 94 out of 268

photo: 6435756361 0aa6dc2946 7164
owner: 72181661@N00
title: The Millennium Footbridge And St.Paul's Cathedral
originalsecret: null
originalformat: null
o_height: null
o_width: null
datetaken: 2011-05-14 04:29:26
dateupload: 1322738652
tags: 
license: 0
latitude: 51.509864
longitude: -0.098404
accuracy: 14
views: 59
interestingness: 95 out of 268

photo: 6435836577 41f3a8064b 7007
owner: 28403062@N08
title: A Narango Road farm - different treatments
originalsecret: 38db07a4eb
originalformat: jpg
o_height: 576
o_width: 1024
datetaken: 2011-11-27 11:23:35
dateupload: 1322740327
tags: blackandwhite bw farm australia nsw homestead olinda farmbuilding outhouses midwestern 2011 kandos centraltablelands nikond40 afsdxzoomnikkor1855mmf3556gedii rylston aperture312 narangoroad
license: 0
latitude: -32.839644
longitude: 150.162849
accuracy: 11
views: 22
interestingness: 96 out of 268

photo: 6433881785 619a1d8cc5 7018
owner: 34578976@N00
title: Loon Lake B-23 Orthographic
originalsecret: 0dbf97ca1d
originalformat: jpg
o_height: 2748
o_width: 4152
datetaken: 2011-11-30 19:09:01
dateupload: 1322703286
tags: lake 3d model bomber pap loon b23 meshlab hypr3d
license: 0
latitude: 45.158861
longitude: -115.84134
accuracy: 16
views: 50
interestingness: 97 out of 268

photo: 6435909353 334b9c21d2 7168
owner: 34089053@N02
title: NOVEMBER 30, 2011: 334/365
originalsecret: f1138d2064
originalformat: jpg
o_height: 1936
o_width: 1735
datetaken: 2011-11-30 22:12:18
dateupload: 1322741820
tags: november oneaday photoaday 365 evandando iphone lemonheads project365 365days iphone4 iphoneography project3652011 project36612011 2011yip 3652011
license: 0
latitude: 50.78675
longitude: -1.075926
accuracy: 16
views: 48
interestingness: 98 out of 268

photo: 6435296123 08f6f2a8b6 7034
owner: 25857074@N03
title: UNHCR News Story: 16 Days of Activism: Couples in the Congo stand up to the stigma of rape
originalsecret: null
originalformat: null
o_height: null
o_width: null
datetaken: 2010-11-10 11:37:35
dateupload: 1322727768
tags: africa camp news women hiv rape greatlakes help aid health conflict congo shelter camps information firewood assistance unhcr victims trauma drc flee displacement newsstory idps idp humanitarianaid woma sexualviolence democraticrepublicofthecongo internallydisplacedpeople southkivu genderbasedviolence fdlr forceddisplacement internallydisplaced unrefugeeagency kavumu highcommissionerforrefugees forciblydisplaced violenceagainstwoman theinterahamwe hutumilitia psychosocialandmedicalassistancecentre
license: 0
latitude: -4.03479
longitude: 21.756269
accuracy: 2
views: 103
interestingness: 99 out of 268

photo: 6434703061 c940947cc9 7156
owner: 58122835@N06
title: Erie after sunset
originalsecret: null
originalformat: null
o_height: null
o_width: null
datetaken: 2011-11-25 17:16:42
dateupload: 1322715439
tags: sunset lake water clouds nikon waves d3100
license: 0
latitude: 42.091343
longitude: -82.437801
accuracy: 16
views: 23
interestingness: 100 out of 268

photo: 6435176753 5c3dc8dda4 7162
owner: 64667396@N00
title: State Historical Museum, Moscow
originalsecret: dd682431ac
originalformat: jpg
o_height: 4068
o_width: 2702
datetaken: 2011-11-17 16:06:48
dateupload: 1322724998
tags: bw museum state nb historical moscou nikonians nikoniste moscounikond300
license: 1
latitude: 55.755791
longitude: 37.616028
accuracy: 15
views: 78
interestingness: 101 out of 268

photo: 6434003949 a9420ea153 7162
owner: 7202153@N03
title: Emery's early iPod - an Edison phonograph - Kolb residence - Grand Canyon Village
originalsecret: 4df07a354a
originalformat: jpg
o_height: 3000
o_width: 4000
datetaken: 2011-11-17 15:28:30
dateupload: 1322705101
tags: park arizona building history home architecture movie studio nationalpark village district grandcanyon south grand photographic canyon historic national residence rim southrim kolb grandcanyonnationalpark nationalhistoricdistrict kolbstudio alhikesaz arizonamemoryproject gc2011 kolbresidence grandcanyonvillagehistoricdistrict
license: 2
latitude: 36.057538
longitude: -112.145744
accuracy: 16
views: 36
interestingness: 102 out of 268

photo: 6436463117 d8c5a6e340 7035
owner: 31138867@N08
title: 1938 Mercedes 540 K Dash
originalsecret: null
originalformat: null
o_height: null
o_width: null
datetaken: 2011-06-15 14:45:46
dateupload: 1322751153
tags: cars june mercedes michigan dash oldcars canon1740l 2011 gilmorecarmuseum barrycounty hickorycorners june2011 1930scars fullclassiccars 1938mercedes
license: 0
latitude: 42.439345
longitude: -85.422606
accuracy: 16
views: 27
interestingness: 103 out of 268

photo: 6433824831 9d07656c49 7035
owner: 70681678@N00
title: After the winning match
originalsecret: null
originalformat: null
o_height: null
o_width: null
datetaken: 2011-11-30 20:20:47
dateupload: 1322702447
tags: square squareformat lomofi iphoneography instagramapp uploaded:by=instagram foursquare:venue=4b15a5f8f964a520c1b123e3
license: 0
latitude: 40.119454
longitude: -82.922552
accuracy: 16
views: 10
interestingness: 104 out of 268

photo: 6436686159 921afa754c 7017
owner: 81481744@N00
title: ?ngel 79/100
originalsecret: null
originalformat: null
o_height: null
o_width: null
datetaken: 2011-11-25 18:10:52
dateupload: 1322754358
tags: student nikon centro puebla estudiante satoru d3000 100strangers
license: 0
latitude: 19.041739
longitude: -98.194642
accuracy: 16
views: 56
interestingness: 105 out of 268

photo: 6436360793 314ba18cdf 7028
owner: 42038165@N02
title: Issoire - Saint-Austremoine
originalsecret: c84118a416
originalformat: jpg
o_height: 1536
o_width: 2048
datetaken: 2011-04-01 00:00:00
dateupload: 1322749656
tags: france 63 zodiac romanesque capricorn puyded?me limagne saintaustremoine goatrider craplet warsofreligion romanauvergnat basseauvergne staustremoinedissoire mathieumerle
license: 0
latitude: 45.543501
longitude: 3.250354
accuracy: 15
views: 15
interestingness: 106 out of 268

photo: 6436701689 0d7e1a5c20 7141
owner: 67511222@N00
title: Our udon dinner
originalsecret: 65e7a55472
originalformat: jpg
o_height: 820
o_width: 1024
datetaken: 2011-11-15 14:56:55
dateupload: 1322754564
tags: food japan garden tokyo udon ?? ?? rikugien ??? tamron2875mmf28
license: 3
latitude: 35.732831
longitude: 139.746973
accuracy: 16
views: 19
interestingness: 107 out of 268

photo: 6436061817 52cf39510c 7010
owner: 43548954@N02
title: Neuschwanstein Castle giggles
originalsecret: null
originalformat: null
o_height: null
o_width: null
datetaken: 2011-11-24 19:59:22
dateupload: 1322744700
tags: cold castle boys kids germany nikon neuschwanstein 1755mmnikkorlens
license: 0
latitude: 47.569381
longitude: 10.698989
accuracy: 11
views: 34
interestingness: 108 out of 268

photo: 6435225349 1d4a8be58e 7148
owner: 14331809@N00
title: Pinning.
originalsecret: null
originalformat: null
o_height: null
o_width: null
datetaken: 2011-11-27 19:32:17
dateupload: 1322726179
tags: girl work glasses pin pins human diningroom libby 365 microscope entomology pinning plait 365days 3654 365days4 pentatomoidea plastazote
license: 0
latitude: 51.489266
longitude: 0.338923
accuracy: 16
views: 75
interestingness: 109 out of 268

photo: 6434117671 c8bf8a1af3 7163
owner: 51318068@N00
title: seaboard waycar
originalsecret: null
originalformat: null
o_height: null
o_width: null
datetaken: 2011-11-29 14:58:50
dateupload: 1322706724
tags: georgia trains caboose depot chatsworth ln railroading louisvillenashville waycar seaboardsystemrailroad
license: 0
latitude: 34.768187
longitude: -84.768056
accuracy: 16
views: 8
interestingness: 110 out of 268

photo: 6434004439 140fc0c172 7173
owner: 7202153@N03
title: Historic Kolb Studio - Grand Canyon - South Rim
originalsecret: 8fbe2c29f8
originalformat: jpg
o_height: 2468
o_width: 3688
datetaken: 2011-11-17 14:22:48
dateupload: 1322705108
tags: park arizona building history home architecture movie studio nationalpark village district flag grandcanyon south americanflag grand photographic canyon historic national american residence rim southrim kolb grandcanyonnationalpark nationalhistoricdistrict kolbstudio alhikesaz arizonamemoryproject gc2011 kolbresidence grandcanyonvillagehistoricdistrict
license: 2
latitude: 36.057538
longitude: -112.145744
accuracy: 16
views: 56
interestingness: 111 out of 268

photo: 6433964493 7e7a00a5e5 7020
owner: 61518665@N00
title: How It's Done
originalsecret: null
originalformat: null
o_height: null
o_width: null
datetaken: 2011-11-30 13:44:41
dateupload: 1322704528
tags: city railroad people industry minnesota construction industrial steel welding working minneapolis machinery mpls ducttape transit masstransit twincities lightrail sparks mn lrt
license: 0
latitude: 44.974764
longitude: -93.219176
accuracy: 15
views: 22
interestingness: 112 out of 268

photo: 6436357419 00d49b5aaf 7143
owner: 22969438@N02
title: The lowdown of air travel in China...
originalsecret: 14164aa3d0
originalformat: jpg
o_height: 1871
o_width: 2495
datetaken: 2011-10-17 01:02:06
dateupload: 1322749607
tags: china g12 bbcatour
license: 0
latitude: 40.111688
longitude: 98.789062
accuracy: 4
views: 59
interestingness: 113 out of 268

photo: 6435373333 bf00440cda 7154
owner: 42038165@N02
title: Issoire - Saint-Austremoine
originalsecret: 97923d8246
originalformat: jpg
o_height: 1536
o_width: 2048
datetaken: 2011-04-01 00:00:00
dateupload: 1322729699
tags: france cancer 63 zodiac romanesque puyded?me issoire limagne saintaustremoine craplet warsofreligion romanauvergnat basseauvergne staustremoinedissoire mathieumerle
license: 0
latitude: 45.543546
longitude: 3.250333
accuracy: 15
views: 14
interestingness: 114 out of 268

photo: 6436331281 09867436e5 7034
owner: 64586407@N06
title: 11/30/2011
originalsecret: null
originalformat: null
o_height: null
o_width: null
datetaken: 2011-11-30 07:37:06
dateupload: 1322749229
tags: people male broken relax leg couch cast crutch
license: 0
latitude: 41.908808
longitude: -87.720308
accuracy: 15
views: 148
interestingness: 115 out of 268

photo: 6435834291 1e4d3ea3e2 7031
owner: 28403062@N08
title: A Narango Road farm - different treatments
originalsecret: a827698123
originalformat: jpg
o_height: 681
o_width: 1024
datetaken: 2011-11-27 11:23:22
dateupload: 1322740279
tags: blackandwhite bw farm australia nsw homestead olinda farmbuilding outhouses midwestern 2011 kandos centraltablelands nikond40 afsdxzoomnikkor1855mmf3556gedii rylston aperture312 narangoroad
license: 0
latitude: -32.841808
longitude: 150.164566
accuracy: 11
views: 19
interestingness: 116 out of 268

photo: 6433432717 a1976c2467 7003
owner: 50782689@N07
title: 140/365; what a mess you've made.
originalsecret: null
originalformat: null
o_height: null
o_width: null
datetaken: 2011-11-29 16:20:29
dateupload: 1322697660
tags: wild portrait girl female self mouth hair model mess paint mud body painted lips piercing bodypaint messy blonde
license: 0
latitude: 55.858743
longitude: -4.242954
accuracy: 11
views: 173
interestingness: 117 out of 268

photo: 6436231997 50bd51bb0a 7150
owner: 17277072@N00
title: Nice and steady
originalsecret: null
originalformat: null
o_height: null
o_width: null
datetaken: 2011-09-12 10:25:40
dateupload: 1322747673
tags: race airplane airshow reno trainer warbird radial t6 snj airraces stead 2011 renoairraces northamericanaviation renosteadairport renoairrace d7000 sigma150500 nikond7000 3pedal
license: 0
latitude: 39.664911
longitude: -119.90367
accuracy: 16
views: 15
interestingness: 118 out of 268

photo: 6435592509 9d271fa92a 7172
owner: 10881108@N06
title: 1951 FORDSON MAJOR E27N
originalsecret: null
originalformat: null
o_height: null
o_width: null
datetaken: 2011-08-06 14:02:32
dateupload: 1322735139
tags: england tractor buckinghamshire shabbington greatbuckssteamfair2011 1951fordsonmajore27n
license: 0
latitude: 51.756179
longitude: -1.042842
accuracy: 14
views: 10
interestingness: 119 out of 268

photo: 6433530391 c78382ce79 7003
owner: 44273763@N02
title: Arequipa to Cuzco by train - nov. 1971
originalsecret: d37778017c
originalformat: jpg
o_height: 3200
o_width: 4799
datetaken: 2011-12-01 01:06:46
dateupload: 1322698006
tags: peru eisenbahn railways treinen ferrocarril cheminsdefer
license: 0
latitude: -16.398871
longitude: -71.550521
accuracy: 10
views: 6
interestingness: 120 out of 268

photo: 6435485721 a4861ee983 7013
owner: 94941181@N00
title: Zorki 2-S
originalsecret: 011a9709be
originalformat: jpg
o_height: 634
o_width: 800
datetaken: 2011-11-27 16:06:37
dateupload: 1322732432
tags: zorki2s
license: 0
latitude: 39.932923
longitude: 32.834658
accuracy: 15
views: 56
interestingness: 121 out of 268

photo: 6435237009 d3a96b9498 7018
owner: 30738902@N00
title: December
originalsecret: null
originalformat: null
o_height: null
o_width: null
datetaken: 2011-12-01 00:00:46
dateupload: 1322726446
tags: portrait white black art girl mystery contrast dark naked back model nikon december skin body bare elle christmaslights nikkor 50mmf14
license: 0
latitude: 37.731523
longitude: -122.487988
accuracy: 15
views: 135
interestingness: 122 out of 268

photo: 6433759279 442b5fbffc 7149
owner: 94513428@N00
title: The Tipping Floor
originalsecret: null
originalformat: null
o_height: null
o_width: null
datetaken: 2011-11-11 10:59:09
dateupload: 1322701484
tags: garbage tour australia rubbish waste westernaustralia philscamera 111111 wastemanagement canningvale smrc rrrc livingsmart regionalresourcerecoverycentre tippingfloor wastecompostingfacility southernmetropolitanregionalcouncil
license: 0
latitude: -32.075715
longitude: 115.888515
accuracy: 16
views: 33
interestingness: 123 out of 268

photo: 6435575081 f137184fc0 7009
owner: 57848406@N04
title: Reyni P?tur 1985
originalsecret: 1a571d3c96
originalformat: jpg
o_height: 1861
o_width: 2809
datetaken: 1985-08-01 00:00:00
dateupload: 1322734690
tags: bridge people iceland walk flags 1985 policeman selfoss ?slandsgangan reynip?tur celebratkion
license: 0
latitude: 63.941369
longitude: -21.004314
accuracy: 11
views: 17
interestingness: 124 out of 268

photo: 6434892253 97045e3fce 7168
owner: 35982887@N08
title: Hells gate
originalsecret: null
originalformat: null
o_height: null
o_width: null
datetaken: 2011-11-10 08:09:28
dateupload: 1322718946
tags: tasmania hellsgate portmacquarie
license: 0
latitude: -42.20665
longitude: 145.219345
accuracy: 9
views: 17
interestingness: 125 out of 268

photo: 6434819275 4c787ae427 7167
owner: 18091126@N00
title: Stormin "The Castle" While We Still Had Light!
originalsecret: null
originalformat: null
o_height: null
o_width: null
datetaken: 2011-10-29 17:47:43
dateupload: 1322717545
tags: sunset capitolreefnationalpark thecastle
license: 0
latitude: 38.292336
longitude: -111.262578
accuracy: 16
views: 18
interestingness: 126 out of 268

photo: 6434050413 a23a9837ba 7159
owner: 62466827@N02
title: San Felipe de Neri Church
originalsecret: null
originalformat: null
o_height: null
o_width: null
datetaken: 2011-11-25 05:33:40
dateupload: 1322705755
tags: newmexico sanfelipedenerichurcholdtownalbuquerquealbuquerquenm
license: 0
latitude: 35.096684
longitude: -106.669789
accuracy: 16
views: 48
interestingness: 127 out of 268

photo: 6435712129 723a70e659 7034
owner: 7486487@N08
title: Glenashdale Falls
originalsecret: d12d772a08
originalformat: jpg
o_height: 1228
o_width: 829
datetaken: 2011-09-28 15:13:12
dateupload: 1322737729
tags: longexposure motion art nature water composite manipulated landscape scotland waterfall places gb acr distance arran stacked whitingbay shapeandform rawconversion enfuse rawtherapee
license: 3
latitude: 55.480369
longitude: -5.10092
accuracy: 16
views: 15
interestingness: 128 out of 268

photo: 6435585223 8bab1e5cfa 7157
owner: 63483816@N02
title: Aachen Cathedral at night
originalsecret: null
originalformat: null
o_height: null
o_width: null
datetaken: 2011-11-29 18:47:59
dateupload: 1322734949
tags: church night nikon cathedral dom aachen hdr 18mm d90 2xp
license: 0
latitude: 50.774769
longitude: 6.082767
accuracy: 15
views: 17
interestingness: 129 out of 268

photo: 6434920523 e853cbb11d 7010
owner: 57539797@N06
title: Towards the North
originalsecret: null
originalformat: null
o_height: null
o_width: null
datetaken: 2011-11-30 22:52:40
dateupload: 1322719513
tags: christmas old winter sky usa art texture night train photography nikon rust exposure angle time north wide tracks engine ct sigma steam pole express polar 1020mm essex hdr dx
license: 0
latitude: 41.349108
longitude: -72.405384
accuracy: 16
views: 23
interestingness: 130 out of 268

photo: 6434790195 a10978cf96 7026
owner: 33988281@N00
title: McNally Cottage
originalsecret: null
originalformat: null
o_height: null
o_width: null
datetaken: 2011-06-29 08:40:09
dateupload: 1322716978
tags: house island michigan mackinacisland smalltown mackinaccounty constructed1889
license: 0
latitude: 45.848236
longitude: -84.618839
accuracy: 16
views: 18
interestingness: 131 out of 268

photo: 6433879443 c0db0c9ece 7004
owner: 37749578@N00
title: Scratchin' and Yawnin'
originalsecret: null
originalformat: null
o_height: null
o_width: null
datetaken: 2011-03-24 13:53:45
dateupload: 1322703253
tags: cute washington funny wildlife humor yawn tacoma raccoon scratch tame scratching yawning pointdefiance img0653 img0644 canont2i
license: 0
latitude: 47.317806
longitude: -122.542362
accuracy: 16
views: 16
interestingness: 132 out of 268

photo: 6427716375 645489f54e 7147
owner: 68928012@N00
title: Solothurn sunset
originalsecret: null
originalformat: null
o_height: null
o_width: null
datetaken: 2011-11-26 16:19:33
dateupload: 1322720705
tags: bridge autumn sunset sun mountains switzerland meetup walk hike hills ridge jura wandern solothurn aare intothesun wanderung
license: 0
latitude: 47.20623
longitude: 7.539366
accuracy: 16
views: 20
interestingness: 133 out of 268

photo: 6436204527 78ee0c3f98 7001
owner: 30131135@N04
title: 15PF, Basingstoke - 1.12.11
originalsecret: 0a83bc4b24
originalformat: jpg
o_height: 1704
o_width: 2272
datetaken: 2011-12-01 09:22:14
dateupload: 1322747204
tags: rescue fire emergency 999 hampshirefirerescue basingstokefire
license: 0
latitude: 51.251164
longitude: -1.101368
accuracy: 16
views: 29
interestingness: 134 out of 268

photo: 6435485459 45f0d2be27 7022
owner: 94941181@N00
title: Zorki 2-S
originalsecret: 1d1a2aa852
originalformat: jpg
o_height: 664
o_width: 800
datetaken: 2011-11-27 16:06:12
dateupload: 1322732546
tags: zorki2s
license: 0
latitude: 39.932923
longitude: 32.834658
accuracy: 15
views: 59
interestingness: 135 out of 268

photo: 6435429219 f12cce529e 7157
owner: 25073901@N07
title: 37410 Crewe Works 30.05.03
originalsecret: null
originalformat: null
o_height: null
o_width: null
datetaken: 2003-05-30 16:50:43
dateupload: 1322731054
tags: 
license: 0
latitude: 53.100388
longitude: -2.461795
accuracy: 13
views: 20
interestingness: 136 out of 268

photo: 6435312789 c184c37c8c 7023
owner: 66586377@N04
title: Sunrise
originalsecret: null
originalformat: null
o_height: null
o_width: null
datetaken: 2011-11-29 05:06:03
dateupload: 1322728167
tags: 
license: 0
latitude: -28.097352
longitude: 153.461344
accuracy: 16
views: 4
interestingness: 137 out of 268

photo: 6433849933 f083168695 7141
owner: 31203742@N00
title: Hyndman Tower
originalsecret: 61e4e3ec99
originalformat: jpg
o_height: 657
o_width: 1000
datetaken: 2011-11-30 19:24:42
dateupload: 1322702817
tags: csx hyndmansandpatchsd40
license: 0
latitude: 39.79205
longitude: -78.720474
accuracy: 11
views: 16
interestingness: 138 out of 268

photo: 6433733441 9bda09b9eb 7144
owner: 22224184@N00
title: Muggles
originalsecret: b943d7d06e
originalformat: jpg
o_height: 3072
o_width: 2304
datetaken: 2011-11-04 12:10:00
dateupload: 1322701098
tags: mike orlando florida mary harrypotter universalstudios hogwarts islandsofadventure
license: 0
latitude: 28.472567
longitude: -81.473209
accuracy: 16
views: 7
interestingness: 139 out of 268

photo: 6436729527 4d1882a689 7175
owner: 28650594@N03
title: Day of Commitment Ceremony [Image 14 of 19]
originalsecret: 4bf7885a06
originalformat: jpg
o_height: 2848
o_width: 4288
datetaken: 2011-12-01 13:53:26
dateupload: 1322754929
tags: austin soldier army general military president iraq palace medal baghdad iq primeminister commitment vicepresident alfaw ond joebiden jalaltalabani usfi nourialmaliki vicepresidentbiden operationnewdawn unitedstatesforcesiraq barrieau
license: 4
latitude: 33.328151
longitude: 44.386028
accuracy: 11
views: 58
interestingness: 140 out of 268

photo: 6436591789 829feb07be 7013
owner: 66361032@N00
title: Day 334 - Heading back home after 3 intensive/fun days in Malm?
originalsecret: 3561316d2d
originalformat: jpg
o_height: 612
o_width: 612
datetaken: 2011-12-01 15:24:14
dateupload: 1322753054
tags: square squareformat hudson iphoneography instagramapp uploaded:by=instagram foursquare:venue=4c84f8e9d8086dcb8d538d52
license: 0
latitude: 55.706157
longitude: 13.186318
accuracy: 16
views: 4
interestingness: 141 out of 268

photo: 6436487643 34c326985a 7169
owner: 99245765@N00
title: N30 Public Sector Demonstration, After The End
originalsecret: c7d945dc32
originalformat: jpg
o_height: 2448
o_width: 3264
datetaken: 2011-11-30 16:12:36
dateupload: 1322751530
tags: london westminster conservatives tories marches liberaldemocrats governmentcuts publicsectordemonstration n30publicsectordemonstration pensionsdemonstration
license: 5
latitude: 51.50193
longitude: -0.124089
accuracy: 15
views: 8
interestingness: 142 out of 268

photo: 6436305705 a23e621d48 7171
owner: 27392975@N00
title: Barbara
originalsecret: null
originalformat: null
o_height: null
o_width: null
datetaken: 2011-11-27 15:58:51
dateupload: 1322748856
tags: chile friends antofagasta nortegrande
license: 0
latitude: -23.630842
longitude: -70.39155
accuracy: 12
views: 17
interestingness: 143 out of 268

photo: 6436295699 f6964d20da 7164
owner: 35749421@N08
title: Procopian News staff holiday card, side 2
originalsecret: 5b1e3670ce
originalformat: jpg
o_height: 3636
o_width: 5129
datetaken: 2011-12-01 08:11:50
dateupload: 1322748710
tags: illinois 1960s collegestudents lisle benedictineuniversity collegenewspaper illinoisbenedictinecollege stprocopiuscollege procopiannews babydollpolkaclub
license: 2
latitude: 41.778956
longitude: -88.095722
accuracy: 16
views: 17
interestingness: 144 out of 268

photo: 6436294485 3589d300db 7002
owner: 35749421@N08
title: Procopian News staff holiday card, side 1
originalsecret: 9781866f69
originalformat: jpg
o_height: 3583
o_width: 5129
datetaken: 2011-12-01 08:11:31
dateupload: 1322748691
tags: illinois 1960s collegestudents lisle holidaycard newsdesk benedictineuniversity collegenewspaper illinoisbenedictinecollege stprocopiuscollege procopiannews
license: 2
latitude: 41.777728
longitude: -88.097707
accuracy: 16
views: 47
interestingness: 145 out of 268

photo: 6436259757 0d361a1201 7144
owner: 40936370@N00
title: Kakemono Andr? Malraux et son Mus?e Imaginaire
originalsecret: 793ae3fdc1
originalformat: jpg
o_height: 802
o_width: 1023
datetaken: 2011-12-01 15:02:28
dateupload: 1322748148
tags: portrait sculpture streetart france art mystery museum architecture painting graffiti ruins rawart outsiderart chaos symbol roman contemporaryart flag secret 911 apocalypse taz peinture container novel writer artbrut affichage ddc sanctuary panneau cyberpunk landart alchemy drapeau modernsculpture prophecy 999 vanitas revelation sanctuaire ?crivain dadaisme andr?malraux artprice salamanderspirit organmuseum saintromainaumontdor demeureduchaos thierryehrmann alchimie mus?edartcontemporain artsingulier lespoir kakemono laconditionhumaine proph?tie abodeofchaos facteurcheval palaisideal postapocalyptique maisondartiste artistshouses lemus?eimaginaire sculpturemoderne groupeserveur lespritdelasalamandre lesvoixdusilence servergroup lavoieroyale
license: 4
latitude: 45.837448
longitude: 4.826248
accuracy: 15
views: 78
interestingness: 146 out of 268

photo: 6436207007 d952af54bc 7027
owner: 42810731@N06
title: Day 84/365 - "Two Face"
originalsecret: null
originalformat: null
o_height: null
o_width: null
datetaken: 2011-12-01 14:17:07
dateupload: 1322747250
tags: face project beard 50mm day f14 sony movember half shave facialhair 365 alpha fuzz twoface lightroom a55 sonyphotographing
license: 0
latitude: 53.22104
longitude: -4.136931
accuracy: 15
views: 144
interestingness: 147 out of 268

photo: 6435975761 e0eef0d873 7026
owner: 21748361@N00
title: after-dinner activity
originalsecret: null
originalformat: null
o_height: null
o_width: null
datetaken: 2011-10-26 19:19:28
dateupload: 1322743135
tags: india festival night lights warm candles glow fort celebration diwali jaisalmer rajasthan
license: 0
latitude: 26.912761
longitude: 70.913958
accuracy: 15
views: 13
interestingness: 148 out of 268

photo: 6435950667 f9b03a46fe 7144
owner: 99799929@N00
title: Eagle's head on bow
originalsecret: null
originalformat: null
o_height: null
o_width: null
datetaken: 2011-12-01 12:38:28
dateupload: 1322742654
tags: wood statue boot boat eagle bow crown mf gps pentacon manualfocus beeld 135mm crowned pietheinkade adelaar boegbeeld crownedeagle geologtag
license: 0
latitude: 52.376861
longitude: 4.922922
accuracy: 16
views: 6
interestingness: 149 out of 268

photo: 6435651913 ee2f61c29c 7024
owner: 30414511@N06
title: Hidden Creek Falls
originalsecret: null
originalformat: null
o_height: null
o_width: null
datetaken: 2011-11-25 14:10:40
dateupload: 1322736509
tags: california park trees orange plants lake plant tree green fall water beautiful beauty yellow rock yoga gardens garden relax landscape botanical outdoors landscapes canal waterfall pond rocks stream meditate peace outdoor lakes relaxing parks peaceful tranquility auburn falls canals waterfalls zen cascades land vegetation layer waters layers serene streams meditation norcal liquids botany scape relaxed ponds cascade liquid tranquil feng moisture multi humidity humid moist shui layered hiddenvalleyfalls
license: 0
latitude: 38.953735
longitude: -121.234788
accuracy: 13
views: 3
interestingness: 150 out of 268

photo: 6435548067 25405b3142 7028
owner: 43743101@N02
title: MY Joy
originalsecret: null
originalformat: null
o_height: null
o_width: null
datetaken: 2011-05-29 13:07:31
dateupload: 1322733996
tags: ocean woman sun man love water smile couple thai laugh phiphiislands mylifemystory
license: 0
latitude: 7.766443
longitude: 98.776359
accuracy: 11
views: 28
interestingness: 151 out of 268

photo: 6435485533 29bc714d29 7020
owner: 25073901@N07
title: 47844 Crewe Works 30.05.03
originalsecret: null
originalformat: null
o_height: null
o_width: null
datetaken: 2003-05-30 17:07:18
dateupload: 1322732428
tags: 
license: 0
latitude: 53.10062
longitude: -2.46231
accuracy: 13
views: 34
interestingness: 152 out of 268

photo: 6435482863 f768e927f3 7174
owner: 34525698@N00
title: CHRISTMAS TREE SHOPPING
originalsecret: null
originalformat: null
o_height: null
o_width: null
datetaken: 2011-11-30 12:52:46
dateupload: 1322732361
tags: christmas xmas trees green sign shopping nc farmersmarket northcarolina raleigh boutiques 0370 20111130
license: 0
latitude: 35.762976
longitude: -78.66198
accuracy: 15
views: 14
interestingness: 153 out of 268

photo: 6435328379 05c0e85ce0 7023
owner: 12494104@N00
title: Darlington Civic 6231
originalsecret: null
originalformat: null
o_height: null
o_width: null
datetaken: 2011-11-24 10:35:49
dateupload: 1322728568
tags: uk england cinema architecture teatro kino theater theatre cleveland olympus palace cine darlington civic e3 teesside edwardian grade2 listed hippodrome countydurham parkgate boroughroad newhippodrome owenward gordonhoskins
license: 0
latitude: 54.524659
longitude: -1.54859
accuracy: 16
views: 22
interestingness: 154 out of 268

photo: 6435271059 1d09f8bd6a 7160
owner: 26329029@N06
title: '62 Corvette with... Hurst Shifter!?
originalsecret: 7d0dcd7ef8
originalformat: jpg
o_height: 768
o_width: 1024
datetaken: 2011-11-20 17:00:58
dateupload: 1322727225
tags: red plant black chevrolet car market interior stlouis engine convertible tires chevy le after stick manual corvette nationals 1962 v8 62 coves shifter assembly hurst aftermarket 2011
license: 0
latitude: 41.979559
longitude: -87.861335
accuracy: 15
views: 5
interestingness: 155 out of 268

photo: 6434941417 93430a230f 7025
owner: 30079014@N03
title: John Forrest National Park, WA, Australia
originalsecret: 94dc06b517
originalformat: jpg
o_height: 1200
o_width: 800
datetaken: 2011-10-24 12:00:01
dateupload: 1322719926
tags: film nationalpark kodak minoltax700 australia boulders wa westernaustralia kodakgold100 grasstree johnforrestnationalpark xanthorrhoea balgagrass
license: 0
latitude: -31.886449
longitude: 116.093387
accuracy: 16
views: 6
interestingness: 156 out of 268

photo: 6434818773 e43d4e023d 7166
owner: 18091126@N00
title: Biscuit Rock
originalsecret: null
originalformat: null
o_height: null
o_width: null
datetaken: 2011-10-29 18:42:09
dateupload: 1322717536
tags: sunset grand wash capitolreefnationalpark
license: 0
latitude: 38.263641
longitude: -111.215929
accuracy: 14
views: 13
interestingness: 157 out of 268

photo: 6434712333 e6d04b433c 7142
owner: 10691751@N02
title: Boise State-Wyoming
originalsecret: null
originalformat: null
o_height: null
o_width: null
datetaken: 2011-11-26 13:20:27
dateupload: 1322715598
tags: cowboys wyoming broncos boiseidaho hailmary mattmiller boisestate broncostadium mountainwestconference kellenmoore tashaungipson
license: 0
latitude: 43.602832
longitude: -116.195955
accuracy: 14
views: 3
interestingness: 158 out of 268

photo: 6434711491 5ba1127126 7145
owner: 10691751@N02
title: Boise State-Wyoming
originalsecret: null
originalformat: null
o_height: null
o_width: null
datetaken: 2011-11-26 13:20:27
dateupload: 1322715585
tags: cowboys wyoming broncos boiseidaho hailmary mattmiller boisestate broncostadium mountainwestconference kellenmoore tashaungipson
license: 0
latitude: 43.602832
longitude: -116.195955
accuracy: 14
views: 0
interestingness: 159 out of 268

photo: 6434710543 f382b47479 7165
owner: 10691751@N02
title: Boise State-Wyoming
originalsecret: null
originalformat: null
o_height: null
o_width: null
datetaken: 2011-11-26 13:20:27
dateupload: 1322715568
tags: cowboys wyoming broncos boiseidaho mattmiller boisestate broncostadium mountainwestconference kellenmoore tashaungipson
license: 0
latitude: 43.602832
longitude: -116.195955
accuracy: 14
views: 0
interestingness: 160 out of 268

photo: 6434064301 2617acb8b5 7022
owner: 69875617@N00
title: Cyclists
originalsecret: 03f5e99e6b
originalformat: jpg
o_height: 2136
o_width: 2848
datetaken: 2010-04-24 16:46:01
dateupload: 1322705967
tags: greatbritain two man forest person cycling couple sitting cyclist outdoor pair yorkshire mountainbike mtb activity northyorkshire johnseb teamgb
license: 4
latitude: 54.28071
longitude: -0.686473
accuracy: 13
views: 4
interestingness: 161 out of 268

photo: 6433910357 e6bc239bf1 7022
owner: 65112359@N02
title: 2/365 Snowboarding Heaven!
originalsecret: 0b5d2ce703
originalformat: jpg
o_height: 1529
o_width: 2048
datetaken: 2011-11-30 17:41:51
dateupload: 1322703711
tags: sunset snow fog awesome 4 stevens pass chairlift iphone snoqboarding
license: 0
latitude: 47.742209
longitude: -121.096801
accuracy: 13
views: 31
interestingness: 162 out of 268

photo: 6433848443 9fea160cca 7012
owner: 31203742@N00
title: Capital Time
originalsecret: 2e2db62df7
originalformat: jpg
o_height: 658
o_width: 1000
datetaken: 2011-11-30 19:20:46
dateupload: 1322702796
tags: tower amtrak hyndman capitallimited
license: 0
latitude: 39.82088
longitude: -78.722236
accuracy: 11
views: 14
interestingness: 163 out of 268

photo: 6433845275 b794eac3e3 7026
owner: 31203742@N00
title: Black Friday
originalsecret: ee648c32a3
originalformat: jpg
o_height: 664
o_width: 1000
datetaken: 2011-11-25 09:12:37
dateupload: 1322702752
tags: ice canadianpacific franklinpark sd402
license: 0
latitude: 41.934848
longitude: -87.86127
accuracy: 16
views: 16
interestingness: 164 out of 268

photo: 6433842747 b6c38faf6d 7023
owner: 54790761@N04
title: Peroni
originalsecret: f46b22c77a
originalformat: jpg
o_height: 5184
o_width: 3456
datetaken: 2011-11-25 00:32:20
dateupload: 1322702718
tags: macro beer outside peroni waterfront beerglass harbourhouse
license: 0
latitude: -33.906753
longitude: 18.42051
accuracy: 13
views: 9
interestingness: 165 out of 268

photo: 6433702145 1f3c502b60 7023
owner: 51100442@N08
title: What!?
originalsecret: 4d064d5168
originalformat: jpg
o_height: 1067
o_width: 1600
datetaken: 2011-11-30 19:48:44
dateupload: 1322700608
tags: 2 home strange canon lights funny ipod mark tripod taylor 5d swift taylorswift
license: 0
latitude: 42.450318
longitude: -83.938722
accuracy: 16
views: 6
interestingness: 166 out of 268

photo: 6433660493 8074f36643 7014
owner: 18972693@N06
title: Our Lady of Sorrows Basilica
originalsecret: 6c05caf3e9
originalformat: jpg
o_height: 1657
o_width: 1105
datetaken: 2011-10-15 12:45:50
dateupload: 1322700015
tags: chicago building church architecture basilica f8 efs1755mmf28isusm ourladyofsorrowsbasilica canoneos60d ohc2011 openhousechicago
license: 0
latitude: 41.876958
longitude: -87.704243
accuracy: 15
views: 5
interestingness: 167 out of 268

photo: 6435509231 b463e3a696 7008
owner: 55719971@N05
title: Unidenified
originalsecret: null
originalformat: null
o_height: null
o_width: null
datetaken: 2011-11-30 20:34:16
dateupload: 1322733011
tags: road bridge blue shadow red cars night cigarette alcohol
license: 1
latitude: 56.952826
longitude: 23.927793
accuracy: 14
views: 32
interestingness: 168 out of 268

photo: 6435485937 5168199d97 7171
owner: 94941181@N00
title: Zorki 2-S
originalsecret: 8ca07c1cf3
originalformat: jpg
o_height: 433
o_width: 800
datetaken: 2011-11-27 16:07:04
dateupload: 1322732497
tags: zorki2s
license: 0
latitude: 39.932923
longitude: 32.834658
accuracy: 15
views: 58
interestingness: 169 out of 268

photo: 6434818989 e5cbc44c2f 7148
owner: 18091126@N00
title: Nervously Looking Down Grand Wash
originalsecret: null
originalformat: null
o_height: null
o_width: null
datetaken: 2011-10-29 18:35:15
dateupload: 1322717540
tags: sunset capitolreefnationalpark grandwash
license: 0
latitude: 38.263641
longitude: -111.215929
accuracy: 14
views: 16
interestingness: 170 out of 268

photo: 6434750045 636ef4b9d3 7027
owner: 9914689@N02
title: Best treats for my mind, especially after seeing doctor
originalsecret: null
originalformat: null
o_height: null
o_width: null
datetaken: 2011-11-30 21:11:21
dateupload: 1322716281
tags: coffee square cafe kubrick bookstore cappuccino coffeebean amaro iphoneography
license: 0
latitude: 22.310736
longitude: 114.168956
accuracy: 16
views: 1
interestingness: 171 out of 268

photo: 6434694937 0c67b3586a 7016
owner: 10691751@N02
title: Boise State-Wyoming
originalsecret: null
originalformat: null
o_height: null
o_width: null
datetaken: 2011-11-26 13:13:12
dateupload: 1322715306
tags: cowboys wyoming broncos boiseidaho boisestate dougmartin broncostadium mountainwestconference kellenmoore
license: 0
latitude: 43.602832
longitude: -116.195955
accuracy: 14
views: 0
interestingness: 172 out of 268

photo: 6434682557 ca1bea8c59 7011
owner: 10691751@N02
title: Boise State-Wyoming
originalsecret: null
originalformat: null
o_height: null
o_width: null
datetaken: 2011-11-26 12:59:38
dateupload: 1322715104
tags: cowboys wyoming broncos boiseidaho boisestate brettsmith broncostadium mountainwestconference tyronecrawford
license: 0
latitude: 43.602832
longitude: -116.195955
accuracy: 14
views: 0
interestingness: 173 out of 268

photo: 6434062323 89de2c33a9 7008
owner: 44124466908@N01
title: #Occupysf media area as GA begins #ows
originalsecret: 44088ed92b
originalformat: jpg
o_height: 1936
o_width: 2592
datetaken: 2011-11-30 18:13:31
dateupload: 1322705938
tags: sanfrancisco california ca iphone 2011 iphone4 iphonephoto iphone4camera iphone4photo
license: 3
latitude: 37.794166
longitude: -122.394
accuracy: 16
views: 71
interestingness: 174 out of 268

photo: 6436359963 e6dbb6a966 7174
owner: 57551179@N03
title: DAY 198: Late Night/Early Morning Muppets
originalsecret: null
originalformat: null
o_height: null
o_width: null
datetaken: 2011-11-25 13:13:33
dateupload: 1322749644
tags: truck monkey michael phone dodge
license: 0
latitude: 25.702987
longitude: -80.285017
accuracy: 14
views: 7
interestingness: 175 out of 268

photo: 6436278689 ee1f1026b9 7023
owner: 29471269@N03
title: Museo de la Revolucion
originalsecret: null
originalformat: null
o_height: null
o_width: null
datetaken: 2011-11-22 11:36:06
dateupload: 1322748447
tags: sony havana cuba alpha habana 77 kuba a77
license: 0
latitude: 23.14198
longitude: -82.356742
accuracy: 16
views: 19
interestingness: 176 out of 268

photo: 6435876665 795d69157f 7166
owner: 32593034@N03
title: clouds after rain
originalsecret: null
originalformat: null
o_height: null
o_width: null
datetaken: 2011-12-01 13:16:26
dateupload: 1322741157
tags: sky clouds
license: 0
latitude: 37.782697
longitude: 140.478851
accuracy: 15
views: 9
interestingness: 177 out of 268

photo: 6435574491 9104fa45c6 7155
owner: 57848406@N04
title: Reynir P?tur breaking the tape after walking around Iceland in 1985
originalsecret: a0bc11ecbe
originalformat: jpg
o_height: 2793
o_width: 1872
datetaken: 1985-08-01 00:00:00
dateupload: 1322734674
tags: man walking iceland tape 1985 selfoss ?slandsgangan reynirp?tur
license: 0
latitude: 63.939333
longitude: -21.001567
accuracy: 11
views: 27
interestingness: 178 out of 268

photo: 6435090103 7a00646da7 7034
owner: 57385426@N02
title: #OccupyLA first night after police raid, Los Angeles City Hall
originalsecret: f735c8b1a2
originalformat: jpg
o_height: 1125
o_width: 1500
datetaken: 2011-11-30 23:05:02
dateupload: 1322723102
tags: city hall los general angeles assembly occupy occupyla
license: 4
latitude: 34.053708
longitude: -118.243296
accuracy: 15
views: 63
interestingness: 179 out of 268

photo: 6436599369 baaab053d1 7022
owner: 17270214@N05
title: Discarded Sheetmusic
originalsecret: fbb81f4540
originalformat: jpg
o_height: 2304
o_width: 3072
datetaken: 2011-11-24 22:48:15
dateupload: 1322753164
tags: november sunrise edinburgh stephen graeme quintet 2011
license: 0
latitude: 55.941245
longitude: -3.181813
accuracy: 16
views: 2
interestingness: 180 out of 268

photo: 6436355075 5ee30b691e 7006
owner: 56188788@N00
title: projector setup for later on after this video recording rush I gotta do today..
originalsecret: dfdfb5f60e
originalformat: jpg
o_height: 612
o_width: 612
datetaken: 2011-12-01 14:26:12
dateupload: 1322749572
tags: square squareformat walden iphoneography instagramapp uploaded:by=instagram foursquare:venue=4c8612e230789c74a38071e3
license: 4
latitude: 52.950933
longitude: -1.142261
accuracy: 16
views: 5
interestingness: 181 out of 268

photo: 6435083683 562b2db669 7034
owner: 11904975@N00
title: Brighton bound
originalsecret: ce98e0a506
originalformat: jpg
o_height: 960
o_width: 640
datetaken: 2011-12-01 07:02:42
dateupload: 1322722962
tags: bus brighton december app iphone 2011 iphone4
license: 0
latitude: 50.79086
longitude: 0.001766
accuracy: 15
views: 18
interestingness: 182 out of 268

photo: 6434831035 7740a24316 7147
owner: 60894807@N00
title: Relaxed ride after work
originalsecret: null
originalformat: null
o_height: null
o_width: null
datetaken: 2011-12-01 18:36:10
dateupload: 1322717770
tags: 
license: 0
latitude: -36.840888
longitude: 174.660472
accuracy: 11
views: 9
interestingness: 183 out of 268

photo: 6434627793 670ed1a557 7148
owner: 95071949@N00
title: Hiram-Bingham
originalsecret: d7eea06f91
originalformat: jpg
o_height: 450
o_width: 800
datetaken: 2011-11-24 14:44:50
dateupload: 1322714255
tags: railroad peru tracks hike hirambingham salkantaytrail trainsaguascalientescuscoperu
license: 1
latitude: -8.813577
longitude: -74.753036
accuracy: 12
views: 0
interestingness: 184 out of 268

photo: 6434285159 d575006424 7144
owner: 24414018@N05
title: Michelle making mosquito repellent
originalsecret: 45df519e70
originalformat: jpg
o_height: 1728
o_width: 2304
datetaken: 2011-07-18 03:05:07
dateupload: 1322709243
tags: belize homestays stanncreekdistrict mayacentre
license: 0
latitude: 16.868619
longitude: -88.378143
accuracy: 10
views: 11
interestingness: 185 out of 268

photo: 6434279383 2047958fdd 7168
owner: 24414018@N05
title: After dinner
originalsecret: 197269936c
originalformat: jpg
o_height: 2304
o_width: 3072
datetaken: 2011-07-17 05:11:35
dateupload: 1322709158
tags: belize homestays stanncreekdistrict mayacentre
license: 0
latitude: 16.868619
longitude: -88.378143
accuracy: 10
views: 3
interestingness: 186 out of 268

photo: 6433536461 7b99f030a8 7009
owner: 81952901@N00
title: Gold at Saint Paul
originalsecret: null
originalformat: null
o_height: null
o_width: null
datetaken: 2011-12-01 01:08:24
dateupload: 1322698104
tags: london
license: 0
latitude: 51.513803
longitude: -0.099971
accuracy: 16
views: 9
interestingness: 187 out of 268

photo: 6436360825 9ff1bca8d0 7146
owner: 57551179@N03
title: DAY 200: Hazards
originalsecret: null
originalformat: null
o_height: null
o_width: null
datetaken: 2011-11-27 10:07:43
dateupload: 1322749656
tags: orange night pipe late dogwalk dangers
license: 0
latitude: 25.744356
longitude: -80.266606
accuracy: 14
views: 7
interestingness: 188 out of 268

photo: 6435735903 dd2799eda1 7172
owner: 41550971@N06
title: Letter written by George Cowley to his family with the news he is finally free
originalsecret: 79a68e6c89
originalformat: jpg
o_height: 2308
o_width: 1624
datetaken: 2011-12-01 11:17:10
dateupload: 1322738230
tags: history westyorkshire treasures huddersfield kirklees georgecowley
license: 0
latitude: 53.647639
longitude: -1.784162
accuracy: 13
views: 8
interestingness: 189 out of 268

photo: 6435054425 21ba7dbfa5 7171
owner: 69298795@N04
title: Maynard McMannis
originalsecret: null
originalformat: null
o_height: null
o_width: null
datetaken: 2011-11-26 15:14:35
dateupload: 1322722327
tags: ghost williamsburg colonialwilliamsburg
license: 0
latitude: 37.2756
longitude: -76.709716
accuracy: 11
views: 39
interestingness: 190 out of 268

photo: 6433606279 e73640aa6a 7157
owner: 32085324@N06
title: After the final presentation
originalsecret: 2f904b39c3
originalformat: jpg
o_height: 612
o_width: 612
datetaken: 2011-12-01 07:26:43
dateupload: 1322699203
tags: square squareformat amaro iphoneography instagramapp uploaded:by=instagram
license: 0
latitude: 50.91728
longitude: -1.400114
accuracy: 16
views: 1
interestingness: 191 out of 268

photo: 6433543597 a2e052532c 7020
owner: 76154228@N00
title: Annual Grand Lighted Christmas Parade
originalsecret: b7d4779a81
originalformat: jpg
o_height: 2363
o_width: 3055
datetaken: 2010-11-26 18:48:58
dateupload: 1322698221
tags: christmas wisconsin downtown parade beloit
license: 3
latitude: 42.499614
longitude: -89.035407
accuracy: 16
views: 24
interestingness: 192 out of 268

photo: 5921083096 ae99384407 6138
owner: 17653286@N03
title: Jay
originalsecret: 72bb16c54b
originalformat: jpg
o_height: 4042
o_width: 2730
datetaken: 2009-10-03 00:00:00
dateupload: 1322736600
tags: kodak nikonfm10 kodachrome kr kodachrome64 nikkor50mmf18afd
license: 2
latitude: 41.696115
longitude: -88.165712
accuracy: 16
views: 20
interestingness: 193 out of 268

photo: 6436401115 d6454e4976 7148
owner: 33782207@N00
title: Arromanches, Normandy
originalsecret: null
originalformat: null
o_height: null
o_width: null
datetaken: 2011-11-12 13:59:00
dateupload: 1322750241
tags: travel france levi normandy dday
license: 0
latitude: 49.34042
longitude: -0.6219
accuracy: 16
views: 6
interestingness: 194 out of 268

photo: 6435596159 0df5afde81 7006
owner: 71235608@N08
title: Cottenham, 27th November 2011
originalsecret: null
originalformat: null
o_height: null
o_width: null
datetaken: 2011-11-27 15:07:34
dateupload: 1322735231
tags: horseracing aga pointtopoint cottenham agatotalcontrol
license: 0
latitude: 52.286852
longitude: 0.125226
accuracy: 13
views: 1
interestingness: 195 out of 268

photo: 6435596041 e5fe767b8e 7018
owner: 71235608@N08
title: Cottenham, 27th November 2011
originalsecret: null
originalformat: null
o_height: null
o_width: null
datetaken: 2011-11-27 14:59:37
dateupload: 1322735228
tags: horseracing aga pointtopoint cottenham agatotalcontrol
license: 0
latitude: 52.286852
longitude: 0.125226
accuracy: 13
views: 0
interestingness: 196 out of 268

photo: 6435595875 b0235e3867 7164
owner: 71235608@N08
title: Cottenham, 27th November 2011
originalsecret: null
originalformat: null
o_height: null
o_width: null
datetaken: 2011-11-27 15:00:18
dateupload: 1322735224
tags: horseracing aga pointtopoint cottenham agatotalcontrol
license: 0
latitude: 52.286852
longitude: 0.125226
accuracy: 13
views: 1
interestingness: 197 out of 268

photo: 6435595577 56945ddba4 7164
owner: 71235608@N08
title: Cottenham, 27th November 2011
originalsecret: null
originalformat: null
o_height: null
o_width: null
datetaken: 2011-11-27 15:00:22
dateupload: 1322735216
tags: horseracing aga pointtopoint cottenham agatotalcontrol
license: 0
latitude: 52.286852
longitude: 0.125226
accuracy: 13
views: 0
interestingness: 198 out of 268

photo: 6435527437 d34f19d23b 7019
owner: 55918222@N02
title: Whitworth Park, entrance gates, 1958
originalsecret: null
originalformat: null
o_height: null
o_width: null
datetaken: 1958-01-01 00:00:00
dateupload: 1322733465
tags: park manchester parks whitworth whitworthpark
license: 0
latitude: 53.459648
longitude: -2.227917
accuracy: 15
views: 10
interestingness: 199 out of 268

photo: 6435263439 81ed309c56 7165
owner: 56619626@N05
title: Pupin Hall, Columbia University
originalsecret: f8c0c4265e
originalformat: jpg
o_height: 1063
o_width: 1600
datetaken: 2011-10-31 09:28:30
dateupload: 1322727056
tags: newyork manhattan columbiauniversity manhattanproject 2011
license: 5
latitude: 40.807688
longitude: -73.962535
accuracy: 13
views: 5
interestingness: 200 out of 268

photo: 6435034771 3687f4d92c 7033
owner: 15530177@N05
title: IMG_8994
originalsecret: null
originalformat: null
o_height: null
o_width: null
datetaken: 2011-11-06 11:50:53
dateupload: 1322721881
tags: northcarolina wilmington 2011 battleshiphalfmarathon canonxsi
license: 0
latitude: 34.235038
longitude: -77.95281
accuracy: 16
views: 22
interestingness: 201 out of 268

photo: 6434672845 db4f58d4da 7173
owner: 55899488@N00
title: Dessert after the 'broccoli rave'
originalsecret: 48257b2ec8
originalformat: jpg
o_height: 2448
o_width: 3264
datetaken: 2011-11-30 20:47:06
dateupload: 1322714946
tags: wine redwoodcity iphone sauternes gdzlla
license: 1
latitude: 37.445966
longitude: -122.223474
accuracy: 16
views: 26
interestingness: 202 out of 268

photo: 6434671151 ff44da69c1 7024
owner: 59327716@N00
title: Captains flat branch line
originalsecret: 667b59340b
originalformat: jpg
o_height: 1196
o_width: 1800
datetaken: 2011-12-01 13:47:48
dateupload: 1322714920
tags: railway disused captainsflat bungendore hoskinstown
license: 5
latitude: -35.494958
longitude: 149.446388
accuracy: 16
views: 0
interestingness: 203 out of 268

photo: 6433811837 9491e47b33 7146
owner: 54790761@N04
title: Straws
originalsecret: 75b53f54bc
originalformat: jpg
o_height: 5184
o_width: 3456
datetaken: 2011-11-21 05:32:50
dateupload: 1322702257
tags: macro southafrica sundown straws westerncape
license: 0
latitude: -33.096718
longitude: 18.979911
accuracy: 10
views: 6
interestingness: 204 out of 268

photo: 6436442929 8cbed0cb1f 7020
owner: 64863760@N00
title: Ryan After Jingle Cross
originalsecret: null
originalformat: null
o_height: null
o_width: null
datetaken: 2011-11-26 13:34:05
dateupload: 1322750868
tags: cycling ryan cyclocross jinglecross
license: 0
latitude: 41.623
longitude: -91.546667
accuracy: 16
views: 17
interestingness: 205 out of 268

photo: 6436417533 14a2beff81 7001
owner: 33782207@N00
title: Arromanches, Normandy
originalsecret: null
originalformat: null
o_height: null
o_width: null
datetaken: 2011-11-12 14:02:06
dateupload: 1322750488
tags: travel france levi normandy
license: 0
latitude: 49.3404
longitude: -0.62183
accuracy: 16
views: 20
interestingness: 206 out of 268

photo: 6436409667 86078edaa8 7016
owner: 33782207@N00
title: Arromanches, Normandy
originalsecret: null
originalformat: null
o_height: null
o_width: null
datetaken: 2011-11-12 13:59:49
dateupload: 1322750371
tags: travel france levi normandy
license: 0
latitude: 49.3404
longitude: -0.62183
accuracy: 16
views: 7
interestingness: 207 out of 268

photo: 6436206727 8e42cd2a84 7012
owner: 35978796@N05
title: 111201polarbear
originalsecret: 069149e688
originalformat: jpg
o_height: 450
o_width: 600
datetaken: 2011-12-01 08:47:25
dateupload: 1322747245
tags: adirondacks lakeplacidny fa11 ncprpotd
license: 0
latitude: 44.28207
longitude: -73.982727
accuracy: 11
views: 13
interestingness: 208 out of 268

photo: 6435372827 5c731f8e29 7022
owner: 21782454@N00
title: Police Bike Patrol visiting camp
originalsecret: c8af4c4a7a
originalformat: jpg
o_height: 1341
o_width: 1600
datetaken: 2011-10-23 20:47:28
dateupload: 1322729687
tags: policebikepatrol occupydetroit oct232011 occupycamp
license: 3
latitude: 42.337238
longitude: -83.050964
accuracy: 16
views: 19
interestingness: 209 out of 268

photo: 6435262649 b1b00da5ab 7014
owner: 56619626@N05
title: Columbia University
originalsecret: 96e51a038d
originalformat: jpg
o_height: 1063
o_width: 1600
datetaken: 2011-10-31 09:18:56
dateupload: 1322727037
tags: newyork manhattan columbiauniversity 2011
license: 5
latitude: 40.807688
longitude: -73.962535
accuracy: 13
views: 15
interestingness: 210 out of 268

photo: 6435143351 dab503e41d 7002
owner: 53887973@N04
title: Get Your Motor Running
originalsecret: 460ebe5df5
originalformat: jpg
o_height: 2804
o_width: 4221
datetaken: 2011-11-17 09:35:06
dateupload: 1322724267
tags: coffee cafe mojocoffee 365project
license: 0
latitude: -36.847208
longitude: 174.758749
accuracy: 14
views: 4
interestingness: 211 out of 268

photo: 6435113557 0ef7071bc0 7156
owner: 57385426@N02
title: #OccupyLA first night after police raid, Los Angeles City Hall
originalsecret: 4e0e447b16
originalformat: jpg
o_height: 1123
o_width: 1500
datetaken: 2011-11-30 23:13:42
dateupload: 1322723622
tags: los angeles occupy occupyla
license: 4
latitude: 34.053343
longitude: -118.243446
accuracy: 15
views: 25
interestingness: 212 out of 268

photo: 6435112911 55198d7ed5 7006
owner: 57385426@N02
title: #OccupyLA first night after police raid, Los Angeles City Hall
originalsecret: 8c403b7925
originalformat: jpg
o_height: 1125
o_width: 1500
datetaken: 2011-11-30 23:13:25
dateupload: 1322723605
tags: los angeles occupy occupyla
license: 4
latitude: 34.053512
longitude: -118.243296
accuracy: 15
views: 25
interestingness: 213 out of 268

photo: 6435105513 bfc9f012ae 7025
owner: 57385426@N02
title: #OccupyLA first night after police raid, Los Angeles City Hall
originalsecret: a52aebe745
originalformat: jpg
o_height: 1125
o_width: 1500
datetaken: 2011-11-30 23:10:45
dateupload: 1322723445
tags: los angeles occupy occupyla
license: 4
latitude: 34.052917
longitude: -118.244068
accuracy: 15
views: 22
interestingness: 214 out of 268

photo: 6435104245 efb677361e 7003
owner: 57385426@N02
title: #OccupyLA first night after police raid, Los Angeles City Hall
originalsecret: feefdd0718
originalformat: jpg
o_height: 1124
o_width: 1500
datetaken: 2011-11-30 23:10:20
dateupload: 1322723420
tags: los angeles occupy occupyla
license: 4
latitude: 34.05257
longitude: -118.24321
accuracy: 15
views: 27
interestingness: 215 out of 268

photo: 6435101197 347e733fdb 7162
owner: 68576151@N08
title: After the rain
originalsecret: null
originalformat: null
o_height: null
o_width: null
datetaken: 2010-04-16 16:07:50
dateupload: 1322723353
tags: nature texas fredericksburg enchantedrockstatepark
license: 0
latitude: 30.5043
longitude: -98.817729
accuracy: 11
views: 7
interestingness: 216 out of 268

photo: 6434405601 b1f62a3a3c 7146
owner: 53353745@N00
title: Bowling begins!
originalsecret: null
originalformat: null
o_height: null
o_width: null
datetaken: 2011-11-30 21:09:31
dateupload: 1322711001
tags: sports bowling bowlingalleys stonelanes
license: 0
latitude: 39.147813
longitude: -84.46637
accuracy: 16
views: 2
interestingness: 217 out of 268

photo: 6434296723 52c130440f 7148
owner: 38402091@N04
title: Christmas Decorations
originalsecret: a02594f425
originalformat: jpg
o_height: 4000
o_width: 3000
datetaken: 2011-11-26 07:03:14
dateupload: 1322709405
tags: christmas royalcaribbean marineroftheseas cruise2011
license: 0
latitude: 23.180763
longitude: -93.515625
accuracy: 4
views: 62
interestingness: 218 out of 268

photo: 6434283235 5aa359398e 7162
owner: 38402091@N04
title: Christmas Decorations
originalsecret: 561d70bdd1
originalformat: jpg
o_height: 4000
o_width: 3000
datetaken: 2011-11-26 03:20:19
dateupload: 1322709216
tags: christmas royalcaribbean marineroftheseas cruise2011
license: 0
latitude: 23.180763
longitude: -93.515625
accuracy: 4
views: 58
interestingness: 219 out of 268

photo: 6434278415 69cb0a3ae7 7017
owner: 38402091@N04
title: Christmas Decorations
originalsecret: b1b1290544
originalformat: jpg
o_height: 4000
o_width: 3000
datetaken: 2011-11-26 03:20:01
dateupload: 1322709143
tags: christmas royalcaribbean marineroftheseas cruise2011
license: 0
latitude: 23.180763
longitude: -93.515625
accuracy: 4
views: 57
interestingness: 220 out of 268

photo: 6434270099 55c26dfc92 7011
owner: 38402091@N04
title: Christmas Decorations
originalsecret: f836dddd77
originalformat: jpg
o_height: 3000
o_width: 4000
datetaken: 2011-11-26 07:04:07
dateupload: 1322709015
tags: christmas royalcaribbean marineroftheseas cruise2011
license: 0
latitude: 23.180763
longitude: -93.515625
accuracy: 4
views: 54
interestingness: 221 out of 268

photo: 6434266471 f971c51d9e 7023
owner: 38402091@N04
title: Christmas Decorations
originalsecret: c082657f49
originalformat: jpg
o_height: 3000
o_width: 4000
datetaken: 2011-11-26 07:03:53
dateupload: 1322708962
tags: christmas royalcaribbean marineroftheseas cruise2011
license: 0
latitude: 23.180763
longitude: -93.515625
accuracy: 4
views: 56
interestingness: 222 out of 268

photo: 6434262155 30683ab825 7163
owner: 38402091@N04
title: Christmas Decorations
originalsecret: 8ba5b69897
originalformat: jpg
o_height: 3000
o_width: 4000
datetaken: 2011-11-26 07:03:37
dateupload: 1322708899
tags: christmas royalcaribbean marineroftheseas cruise2011
license: 0
latitude: 23.180763
longitude: -93.515625
accuracy: 4
views: 54
interestingness: 223 out of 268

photo: 6435485973 e5b3f9b0ea 7167
owner: 25073901@N07
title: 47844 Crewe Works 30.05.03
originalsecret: null
originalformat: null
o_height: null
o_width: null
datetaken: 2003-05-30 17:06:36
dateupload: 1322732438
tags: 
license: 0
latitude: 53.100388
longitude: -2.462053
accuracy: 13
views: 41
interestingness: 224 out of 268

photo: 6435145915 10eec93e19 7153
owner: 62487176@N04
title: Dinosaurs at night
originalsecret: null
originalformat: null
o_height: null
o_width: null
datetaken: 2011-11-30 11:28:19
dateupload: 1322724323
tags: brussels museum dinosaur
license: 4
latitude: 50.848381
longitude: 4.349679
accuracy: 16
views: 2
interestingness: 225 out of 268

photo: 6434797345 67dfaee31e 7008
owner: 51669785@N07
title: It's closer now
originalsecret: 7d0d1480b5
originalformat: jpg
o_height: 795
o_width: 1200
datetaken: 2011-11-26 17:51:48
dateupload: 1322717115
tags: abandoned wind duststorm
license: 0
latitude: 33.181597
longitude: -102.11852
accuracy: 16
views: 2
interestingness: 226 out of 268

photo: 6433829317 0ccf7f32fc 7027
owner: 23081486@N06
title: Dirty Daisy
originalsecret: 670dc49f0f
originalformat: jpg
o_height: 2592
o_width: 3456
datetaken: 2011-11-25 15:42:48
dateupload: 1322702516
tags: daisy 11302011
license: 4
latitude: 40.579113
longitude: -79.620323
accuracy: 16
views: 29
interestingness: 227 out of 268

photo: 6433587127 aa34a6c064 7016
owner: 85669491@N00
title: PICKLES
originalsecret: b3e9032689
originalformat: jpg
o_height: 2432
o_width: 4320
datetaken: 2011-07-17 17:56:47
dateupload: 1322698926
tags: 
license: 0
latitude: 51.364231
longitude: 1.445214
accuracy: 16
views: 1
interestingness: 228 out of 268

