
mintime: 1322697600 maxtime: 1322706597.89
numimgs: 145
total pages: 1
visiting only 1 pages ( up to 250 images)
photo: 6433626981 be191fcc1d 7027
owner: 40755436@N04
title: Fingerpainters attack
originalsecret: 6c88cc541b
originalformat: jpg
o_height: 768
o_width: 1024
datetaken: 2011-11-30 17:31:49
dateupload: 1322699509
tags: vegas autodesk conference tribute rabbits collaboration ipad sketchbookpro benjaminrabe chrischeung salnavarro au2011 mattseydalconnors jacquespena takakotsur?utani joseantoniofundoandgabrielpalacios
license: 0
latitude: 36.122424
longitude: -115.168873
accuracy: 16
views: 198
interestingness: 1 out of 145

photo: 6433724701 2d58c5fc74 7028
owner: 81065540@N00
title: Week 48: They Multiply
originalsecret: c440d1960a
originalformat: jpg
o_height: 612
o_width: 612
datetaken: 2011-11-30 16:56:01
dateupload: 1322700961
tags: street dog yellow underpass square oakland mac pit pitbull sidewalk squareformat freeway sofafree luminance neutered nearmyhouse pitmix lomofi theusualspot iphoneography 52weeksfordogs instagramapp uploaded:by=instagram theyearofthebug yearofthebug
license: 3
latitude: 37.794904
longitude: -122.207314
accuracy: 15
views: 41
interestingness: 2 out of 145

photo: 6433624619 8406820231 7026
owner: 40755436@N04
title: Battle
originalsecret: 03c574d12f
originalformat: jpg
o_height: 768
o_width: 1024
datetaken: 2011-11-30 17:31:15
dateupload: 1322699475
tags: vegas comic strip convention conference ipad mobileart sketchbookpro benjaminrabe chrischeung fingerpainters mattconners au2011
license: 0
latitude: 36.122341
longitude: -115.168819
accuracy: 16
views: 206
interestingness: 3 out of 145

photo: 6433688919 bd19e4794a 7021
owner: 25951920@N00
title: 11.30.11: street parking 24th street
originalsecret: null
originalformat: null
o_height: null
o_width: null
datetaken: 2011-11-30 16:46:59
dateupload: 1322700419
tags: square squareformat earlybird iphoneography instagramapp uploaded:by=instagram foursquare:venue=4d15210e6d1037047e9927bd
license: 0
latitude: 37.751131
longitude: -122.434119
accuracy: 16
views: 28
interestingness: 4 out of 145

photo: 6434082421 526c5fbabd 7152
owner: 70853303@N00
title: Woodfield Shopping Center; from "The Grand Emporiums" by Robert Hendrickson
originalsecret: 62301e29da
originalformat: jpg
o_height: 612
o_width: 612
datetaken: 1977-00-01 00:00:00
dateupload: 1322706229
tags: cameraphone blackandwhite bw chicago retail illustration mall square illinois il squareformat schaumburg 1970s 1977 woodfield woodfieldmall iphoneography instagramapp uploaded:by=instagram
license: 0
latitude: 42.025299
longitude: -88.06771
accuracy: 11
views: 91
interestingness: 5 out of 145

photo: 6433689639 201c0febd5 7150
owner: 37945735@N00
title: The glow of the holidays
originalsecret: null
originalformat: null
o_height: null
o_width: null
datetaken: 2011-11-30 19:47:09
dateupload: 1322700429
tags: christmas door windows decorations urban canada reflection water night square lights december montr?al steps qu?bec squareformat lanterns normal atrium lampposts squarevictoria 2011 iphoneography instagramapp uploaded:by=instagram foursquare:venue=4b16ac5af964a520cfbb23e3
license: 0
latitude: 45.502189
longitude: -73.560647
accuracy: 16
views: 28
interestingness: 6 out of 145

photo: 6433824831 9d07656c49 7035
owner: 70681678@N00
title: After the winning match
originalsecret: null
originalformat: null
o_height: null
o_width: null
datetaken: 2011-11-30 20:20:47
dateupload: 1322702447
tags: square squareformat lomofi iphoneography instagramapp uploaded:by=instagram foursquare:venue=4b15a5f8f964a520c1b123e3
license: 0
latitude: 40.119454
longitude: -82.922552
accuracy: 16
views: 10
interestingness: 7 out of 145

photo: 6433976651 45f6c66e05 7162
owner: 36400290@N08
title: 
originalsecret: null
originalformat: null
o_height: null
o_width: null
datetaken: 2011-12-05 00:00:16
dateupload: 1322704702
tags: square squareformat hudson iphoneography instagramapp uploaded:by=instagram foursquare:venue=4eadce55d3e32ee0de81e881
license: 0
latitude: 33.253488
longitude: -86.342553
accuracy: 16
views: 31
interestingness: 8 out of 145

photo: 6433584925 242ab60945 7035
owner: 25113025@N08
title: Autumn Sky
originalsecret: null
originalformat: null
o_height: null
o_width: null
datetaken: 2011-12-01 01:21:33
dateupload: 1322698893
tags: square squareformat iphoneography instagramapp xproii uploaded:by=instagram foursquare:venue=4d3966a4039eb60cad3be19c
license: 0
latitude: 46.308682
longitude: 7.467576
accuracy: 16
views: 10
interestingness: 9 out of 145

photo: 6434041809 5163d3e4ec 7011
owner: 35034354137@N01
title: Call an Animal League
originalsecret: bcbeb0700b
originalformat: jpg
o_height: 612
o_width: 612
datetaken: 2011-11-30 21:13:47
dateupload: 1322705627
tags: square squareformat brannan iphoneography instagramapp uploaded:by=instagram foursquare:venue=4e62c1351838ad3d0ef24b0e
license: 1
latitude: 40.670223
longitude: -73.977125
accuracy: 16
views: 12
interestingness: 10 out of 145

photo: 6433784711 35dd2394cc 7032
owner: 7216731@N07
title: Balmy
originalsecret: ac857124d3
originalformat: jpg
o_height: 612
o_width: 612
datetaken: 2011-11-30 17:11:02
dateupload: 1322701862
tags: square squareformat normal iphoneography instagramapp uploaded:by=instagram foursquare:venue=43b02b7bf964a520932c1fe3
license: 0
latitude: 37.835315
longitude: -122.476308
accuracy: 16
views: 1
interestingness: 11 out of 145

photo: 6433756773 e4b6147a8a 7169
owner: 22653270@N00
title: Happy Hour Oysters
originalsecret: null
originalformat: null
o_height: null
o_width: null
datetaken: 2011-11-30 17:04:07
dateupload: 1322701447
tags: square squareformat normal iphoneography instagramapp uploaded:by=instagram foursquare:venue=49d111f5f964a520575b1fe3
license: 0
latitude: 37.788015
longitude: -122.398776
accuracy: 16
views: 18
interestingness: 12 out of 145

photo: 6433728277 055d2b7f5f 7016
owner: 39090590@N02
title: 
originalsecret: null
originalformat: null
o_height: null
o_width: null
datetaken: 2011-11-30 16:56:54
dateupload: 1322701014
tags: square squareformat amaro iphoneography instagramapp uploaded:by=instagram foursquare:venue=4b9a7737f964a520bcb735e3
license: 0
latitude: 19.94612
longitude: -155.867028
accuracy: 16
views: 3
interestingness: 13 out of 145

photo: 6433659595 7ebabeab77 7145
owner: 11245242@N03
title: ?????????????????in ??
originalsecret: 3146481161
originalformat: jpg
o_height: 612
o_width: 612
datetaken: 2011-12-01 08:40:02
dateupload: 1322700002
tags: square squareformat normal iphoneography instagramapp uploaded:by=instagram foursquare:venue=4d95a54adaec224b3893023e
license: 0
latitude: 30.203212
longitude: 120.264079
accuracy: 16
views: 6
interestingness: 14 out of 145

photo: 6433754531 91f446ca99 7150
owner: 75861672@N00
title: ...and the sky looks like it is bleeding diamonds.
originalsecret: null
originalformat: null
o_height: null
o_width: null
datetaken: 2011-11-30 17:03:34
dateupload: 1322701414
tags: seattle winter sky square toaster squareformat madrona washingtonstate iphone pacnw seattlewashington iphotography iphonephotography iphoneography instagramapp uploaded:by=instagram
license: 0
latitude: 47.611139
longitude: -122.289676
accuracy: 13
views: 10
interestingness: 15 out of 145

photo: 6434040203 2f30cf8fde 7023
owner: 35034354014@N01
title: My Smokey T-Shirt arrived. Grr. Bring on Xmas
originalsecret: null
originalformat: null
o_height: null
o_width: null
datetaken: 2011-11-30 21:13:24
dateupload: 1322705604
tags: square squareformat hudson iphoneography instagramapp uploaded:by=instagram foursquare:venue=4c7a0e70df08a1cd72e2dc5d
license: 0
latitude: 43.667956
longitude: -79.431005
accuracy: 16
views: 12
interestingness: 16 out of 145

photo: 6434034143 96fc2ab82f 7033
owner: 32148883@N02
title: Holiday lights reflected in Mercedes on Columbus Ave. #NYC
originalsecret: null
originalformat: null
o_height: null
o_width: null
datetaken: 2011-11-30 21:12:02
dateupload: 1322705522
tags: 
license: 0
latitude: 40.774566
longitude: -73.981261
accuracy: 16
views: 60
interestingness: 17 out of 145

photo: 6433969071 f3120d98e1 7167
owner: 36400290@N08
title: 
originalsecret: null
originalformat: null
o_height: null
o_width: null
datetaken: 2011-12-05 00:00:15
dateupload: 1322704595
tags: square squareformat hudson iphoneography instagramapp uploaded:by=instagram foursquare:venue=4eadce55d3e32ee0de81e881
license: 0
latitude: 33.253488
longitude: -86.342553
accuracy: 16
views: 24
interestingness: 18 out of 145

photo: 6433962691 5aa9b902b7 7148
owner: 36400290@N08
title: 
originalsecret: null
originalformat: null
o_height: null
o_width: null
datetaken: 2011-12-05 00:00:14
dateupload: 1322704500
tags: square squareformat lomofi iphoneography instagramapp uploaded:by=instagram foursquare:venue=4eadce55d3e32ee0de81e881
license: 0
latitude: 33.253488
longitude: -86.342553
accuracy: 16
views: 32
interestingness: 19 out of 145

photo: 6433917425 d063d6e294 7156
owner: 63971589@N00
title: Mrs. Butterworth's in the Parking lot, waiting to give it up for some waffles.
originalsecret: c70e403714
originalformat: jpg
o_height: 612
o_width: 612
datetaken: 2011-11-30 19:43:46
dateupload: 1322703826
tags: square squareformat iphoneography instagramapp xproii uploaded:by=instagram foursquare:venue=4e30c401d164ff031fbd7339
license: 0
latitude: 32.965856
longitude: -96.824896
accuracy: 16
views: 2
interestingness: 20 out of 145

photo: 6433642555 fbbb6c969f 7023
owner: 69379705@N00
title: 
originalsecret: 00b7eee2fc
originalformat: jpg
o_height: 612
o_width: 612
datetaken: 2011-12-01 09:35:32
dateupload: 1322699732
tags: square squareformat normal iphoneography instagramapp uploaded:by=instagram foursquare:venue=4bd44002a8b3a593a66f6b5f
license: 1
latitude: 35.170756
longitude: 136.941876
accuracy: 16
views: 2
interestingness: 21 out of 145

photo: 6433930519 9879769553 7030
owner: 25244985@N06
title: Aqui se hace ARQUITECTURA
originalsecret: null
originalformat: null
o_height: null
o_width: null
datetaken: 2011-11-30 20:47:16
dateupload: 1322704036
tags: square squareformat earlybird iphoneography instagramapp uploaded:by=instagram
license: 0
latitude: 6.209525
longitude: -75.56081
accuracy: 16
views: 39
interestingness: 22 out of 145

photo: 6434015911 9321091b33 7170
owner: 38563961@N03
title: Mas eu amei esse Hipstamatic! Nem ligo pra cara de besta q eu sa? na foto...
originalsecret: null
originalformat: null
o_height: null
o_width: null
datetaken: 2011-12-01 00:07:47
dateupload: 1322705267
tags: sleeping woman square squareformat cherrypop iphoneography hipstamatic instagramapp xproii uploaded:by=instagram
license: 0
latitude: -23.679
longitude: -46.68783
accuracy: 16
views: 5
interestingness: 23 out of 145

photo: 6433852705 c1c063367e 7030
owner: 67735258@N00
title: Funnest experience ever: snorkeling
originalsecret: null
originalformat: null
o_height: null
o_width: null
datetaken: 2011-11-30 19:27:38
dateupload: 1322702858
tags: square squareformat lomofi iphoneography instagramapp uploaded:by=instagram foursquare:venue=4b058651f964a520d05b22e3
license: 0
latitude: 21.273298
longitude: -157.695608
accuracy: 16
views: 12
interestingness: 24 out of 145

photo: 6433824497 e95fb734f8 7169
owner: 30397825@N00
title: hot toddy for the body? (as the fab old waitress at the hms bounty always used to say...)
originalsecret: 8f92da5012
originalformat: jpg
o_height: 612
o_width: 612
datetaken: 2011-11-30 17:20:41
dateupload: 1322702441
tags: square squareformat iphoneography instagramapp xproii uploaded:by=instagram foursquare:venue=4d0ee6a0d467236ac0a0bb4a
license: 5
latitude: 34.040665
longitude: -118.233522
accuracy: 16
views: 19
interestingness: 25 out of 145

photo: 6433753855 9727bc9671 7144
owner: 15922481@N07
title: Stranger?
originalsecret: 13e699a7ef
originalformat: jpg
o_height: 612
o_width: 612
datetaken: 2011-12-01 01:03:23
dateupload: 1322701403
tags: london square photography squareformat brannan artkidtroy iphoneography instagramapp uploaded:by=instagram foursquare:venue=4ac518d3f964a52076a720e3 troymariyanayagamstreet
license: 0
latitude: 51.507607
longitude: -0.099456
accuracy: 16
views: 0
interestingness: 26 out of 145

photo: 6433749703 9c38f6a3ea 7165
owner: 37514440@N02
title: Fall Sunset by the Beach #myr #NMB
originalsecret: null
originalformat: null
o_height: null
o_width: null
datetaken: 2011-11-30 20:02:19
dateupload: 1322701339
tags: camera mobile square thomas squareformat normal filters iphone northmyrtlebeach iphone4 iphotography iphonegraphy iphoneography instagram instagramapp uploaded:by=instagram instagood foursquare:venue=4b9961c3f964a5203a7735e3
license: 3
latitude: 33.81796
longitude: -78.67213
accuracy: 16
views: 0
interestingness: 27 out of 145

photo: 6433744353 b4e7a7ab49 7169
owner: 15922481@N07
title: Turbine Hall
originalsecret: bd0a445983
originalformat: jpg
o_height: 612
o_width: 612
datetaken: 2011-12-01 01:00:59
dateupload: 1322701259
tags: london square photography squareformat brannan artkidtroy iphoneography instagramapp uploaded:by=instagram foursquare:venue=4ac518d3f964a52076a720e3 troymariyanayagamstreet
license: 0
latitude: 51.507607
longitude: -0.099456
accuracy: 16
views: 0
interestingness: 28 out of 145

photo: 6433738427 90b2bd4202 7153
owner: 15922481@N07
title: My F80
originalsecret: c4dd467da5
originalformat: jpg
o_height: 612
o_width: 612
datetaken: 2011-12-01 00:59:32
dateupload: 1322701172
tags: london square photography squareformat brannan artkidtroy iphoneography instagramapp uploaded:by=instagram foursquare:venue=4ac518d3f964a52076a720e3 troymariyanayagamstreet
license: 0
latitude: 51.507607
longitude: -0.099456
accuracy: 16
views: 0
interestingness: 29 out of 145

photo: 6433734637 6c87451bda 7141
owner: 15922481@N07
title: Richter
originalsecret: 19ff3d205d
originalformat: jpg
o_height: 612
o_width: 612
datetaken: 2011-12-01 00:58:37
dateupload: 1322701117
tags: london square photography squareformat brannan artkidtroy iphoneography instagramapp uploaded:by=instagram foursquare:venue=4ac518d3f964a52076a720e3 troymariyanayagamstreet
license: 0
latitude: 51.507607
longitude: -0.099456
accuracy: 16
views: 0
interestingness: 30 out of 145

photo: 6433722157 5a761f68a8 7169
owner: 15922481@N07
title: Ooh...
originalsecret: da49061e44
originalformat: jpg
o_height: 612
o_width: 612
datetaken: 2011-12-01 00:55:19
dateupload: 1322700919
tags: london square photography squareformat brannan artkidtroy iphoneography instagramapp uploaded:by=instagram foursquare:venue=4acee9a4f964a5200ed220e3 troymariyanayagamstreet
license: 0
latitude: 51.504896
longitude: -0.085873
accuracy: 16
views: 0
interestingness: 31 out of 145

photo: 6433712649 14728bac19 7005
owner: 15922481@N07
title: v.05
originalsecret: b600dfeda3
originalformat: jpg
o_height: 612
o_width: 612
datetaken: 2011-12-01 00:52:48
dateupload: 1322700768
tags: london square photography squareformat brannan artkidtroy iphoneography instagramapp uploaded:by=instagram foursquare:venue=4aeaa6fbf964a52005bc21e3 troymariyanayagamstreet
license: 0
latitude: 51.615164
longitude: -0.06702
accuracy: 16
views: 0
interestingness: 32 out of 145

photo: 6433627533 86b8bf10b6 7021
owner: 23164696@N00
title: Oh deer
originalsecret: null
originalformat: null
o_height: null
o_width: null
datetaken: 2011-12-01 09:31:58
dateupload: 1322699518
tags: valencia japan square bread reindeer tokyo december deer squareformat rudolf mitaka dear 2011 tohobakery iphoneography instagramapp uploaded:by=instagram foursquare:venue=4bd2993ccaff9521c039d3f0
license: 0
latitude: 35.691708
longitude: 139.56943
accuracy: 16
views: 24
interestingness: 33 out of 145

photo: 6434067849 463535484e 7007
owner: 23987742@N02
title: Annabelle & Beatrice, just cuddlin'
originalsecret: 7ec52c4573
originalformat: jpg
o_height: 612
o_width: 612
datetaken: 2011-11-30 21:20:22
dateupload: 1322706022
tags: square squareformat rise iphoneography instagramapp uploaded:by=instagram
license: 0
latitude: 43.50975
longitude: -70.38252
accuracy: 16
views: 6
interestingness: 34 out of 145

photo: 6434100783 54af88cac8 7141
owner: 33956054@N00
title: Not girly at all.
originalsecret: 0bc730943a
originalformat: jpg
o_height: 612
o_width: 612
datetaken: 2011-11-30 18:28:05
dateupload: 1322706485
tags: square squareformat normal iphoneography instagramapp uploaded:by=instagram foursquare:venue=4c07e00692440f478b3ab4e1
license: 2
latitude: 18.325715
longitude: -64.852096
accuracy: 16
views: 24
interestingness: 35 out of 145

photo: 6434097579 cc72eb7562 7015
owner: 19264259@N00
title: Caveman TV
originalsecret: 5d803c0326
originalformat: jpg
o_height: 612
o_width: 612
datetaken: 2011-11-30 21:27:21
dateupload: 1322706441
tags: square nashville squareformat iphoneography instagramapp uploaded:by=instagram foursquare:venue=4bf095ea21072d7ffe2c208b
license: 5
latitude: 28.424773
longitude: -81.457829
accuracy: 16
views: 8
interestingness: 36 out of 145

photo: 6434091997 4cdd6c15fb 7003
owner: 7664261@N04
title: P?tes ? la portugaise. Avoue tu regrettes.
originalsecret: 3a7af2f06b
originalformat: jpg
o_height: 612
o_width: 612
datetaken: 2011-11-30 21:26:02
dateupload: 1322706362
tags: square squareformat iphoneography instagramapp xproii uploaded:by=instagram foursquare:venue=4d7abedd952d8cfa16ad2c1d
license: 1
latitude: 45.532061
longitude: -73.581792
accuracy: 16
views: 2
interestingness: 37 out of 145

photo: 6434088627 e6d6630ac8 7007
owner: 23042983@N03
title: Concert time. Backstage.
originalsecret: null
originalformat: null
o_height: null
o_width: null
datetaken: 2011-11-30 20:25:15
dateupload: 1322706315
tags: square squareformat amaro iphoneography instagramapp uploaded:by=instagram foursquare:venue=4b058670f964a5204e6222e3
license: 2
latitude: 36.134287
longitude: -86.79535
accuracy: 16
views: 0
interestingness: 38 out of 145

photo: 6434080519 0b5521a4cc 7169
owner: 35652708@N00
title: down a dark alley #seattle
originalsecret: 3e39f206dc
originalformat: jpg
o_height: 612
o_width: 612
datetaken: 2011-11-30 18:23:22
dateupload: 1322706202
tags: square squareformat rise iphoneography instagramapp uploaded:by=instagram foursquare:venue=4c645fe02a58c9b699fb3461
license: 0
latitude: 47.602317
longitude: -122.333945
accuracy: 16
views: 2
interestingness: 39 out of 145

photo: 6434079535 57e4c6bde6 7168
owner: 7821090@N05
title: Information Systems work
originalsecret: 5c94c0e98c
originalformat: jpg
o_height: 612
o_width: 612
datetaken: 2011-11-30 20:23:08
dateupload: 1322706188
tags: square squareformat lomofi iphoneography instagramapp uploaded:by=instagram foursquare:venue=4bce796c68f976b02a396683
license: 0
latitude: 41.600139
longitude: -93.682093
accuracy: 16
views: 1
interestingness: 40 out of 145

photo: 6434077673 80bd97d5ef 7031
owner: 99036240@N00
title: Tower of habanero jelly!
originalsecret: null
originalformat: null
o_height: null
o_width: null
datetaken: 2011-11-30 20:22:40
dateupload: 1322706160
tags: square squareformat amaro iphoneography instagramapp uploaded:by=instagram foursquare:venue=4db677c16e8179a913a426e5
license: 0
latitude: 32.76612
longitude: -97.168574
accuracy: 16
views: 1
interestingness: 41 out of 145

photo: 6434064097 cdd442f7cc 7006
owner: 40237962@N06
title: Window
originalsecret: null
originalformat: null
o_height: null
o_width: null
datetaken: 2011-12-01 13:19:24
dateupload: 1322705964
tags: square squareformat lordkelvin iphoneography instagramapp uploaded:by=instagram foursquare:venue=4b0631a4f964a520a2e922e3
license: 0
latitude: -33.887517
longitude: 151.125397
accuracy: 16
views: 2
interestingness: 42 out of 145

photo: 6434059809 9f8a9b9cea 7153
owner: 26309675@N05
title: a tree at stumbu #iphonesia #instagram
originalsecret: null
originalformat: null
o_height: null
o_width: null
datetaken: 2011-12-01 09:18:19
dateupload: 1322705899
tags: square squareformat normal iphoneography instagramapp uploaded:by=instagram foursquare:venue=4c8e39036f76b713645da1d2
license: 0
latitude: -7.606717
longitude: 110.176579
accuracy: 16
views: 1
interestingness: 43 out of 145

photo: 6434056437 f38c8302ca 7023
owner: 79704473@N00
title: I made apple pies!
originalsecret: 5d8a04895b
originalformat: jpg
o_height: 612
o_width: 612
datetaken: 2011-11-30 21:17:26
dateupload: 1322705846
tags: square nashville squareformat iphoneography instagramapp uploaded:by=instagram foursquare:venue=4d7c4ac0d0005941cfde1157
license: 1
latitude: 40.482805
longitude: -80.036725
accuracy: 16
views: 0
interestingness: 44 out of 145

photo: 6434053095 3d29afa6af 7006
owner: 43355369@N02
title: 
originalsecret: null
originalformat: null
o_height: null
o_width: null
datetaken: 2011-11-30 18:16:35
dateupload: 1322705795
tags: square squareformat normal iphoneography instagramapp uploaded:by=instagram foursquare:venue=4b058763f964a520a18f22e3
license: 0
latitude: -33.873194
longitude: 151.2064
accuracy: 16
views: 1
interestingness: 45 out of 145

photo: 6434050631 28a66c5409 7145
owner: 26309675@N05
title: narsis di borobudur
originalsecret: null
originalformat: null
o_height: null
o_width: null
datetaken: 2011-12-01 09:15:58
dateupload: 1322705758
tags: square squareformat rise iphoneography instagramapp uploaded:by=instagram foursquare:venue=4beabcfcf90e9c74b672e3ed
license: 0
latitude: -7.607488
longitude: 110.204093
accuracy: 16
views: 0
interestingness: 46 out of 145

photo: 6434043011 5328356a4b 7032
owner: 93074386@N00
title: It's a poker chip Christmas tree! Which is an idea I stole from someone else.
originalsecret: null
originalformat: null
o_height: null
o_width: null
datetaken: 2011-11-30 21:14:05
dateupload: 1322705645
tags: square squareformat normal iphoneography instagramapp uploaded:by=instagram foursquare:venue=4b11e741f964a520c58623e3
license: 0
latitude: 38.240741
longitude: -85.724802
accuracy: 16
views: 0
interestingness: 47 out of 145

photo: 6434040893 b2251762b2 7173
owner: 85221041@N00
title: 
originalsecret: null
originalformat: null
o_height: null
o_width: null
datetaken: 2011-11-30 18:13:34
dateupload: 1322705614
tags: square squareformat lordkelvin iphoneography instagramapp uploaded:by=instagram foursquare:venue=4a55303af964a520d0b31fe3
license: 0
latitude: 37.765824
longitude: -122.403608
accuracy: 16
views: 1
interestingness: 48 out of 145

photo: 6434034285 4d2f82a360 7002
owner: 44973991@N04
title: @wilco opening song @acltv cc: @aaronstrout @kyleflaherty @risekevin
originalsecret: a55942de23
originalformat: jpg
o_height: 612
o_width: 612
datetaken: 2011-11-30 20:12:04
dateupload: 1322705524
tags: square squareformat brannan iphoneography instagramapp uploaded:by=instagram foursquare:venue=4c77cbe5947ca1cd90694837
license: 0
latitude: 30.265245
longitude: -97.7471
accuracy: 16
views: 4
interestingness: 49 out of 145

photo: 6434032239 709e43d93d 7018
owner: 14101862@N02
title: #troutdale #oregon #mcmenamins #edgefield #magichour #goldenhour #winery #christmas
originalsecret: 4de5d704e1
originalformat: jpg
o_height: 612
o_width: 612
datetaken: 2011-11-30 18:11:37
dateupload: 1322705497
tags: square squareformat iphoneography instagramapp xproii uploaded:by=instagram foursquare:venue=40b13b00f964a520acf51ee3
license: 0
latitude: 45.536828
longitude: -122.407028
accuracy: 16
views: 0
interestingness: 50 out of 145

photo: 6434029719 074724cbf7 7011
owner: 43454419@N03
title: ?????????????????(~_~;) #donca
originalsecret: 1965726b9a
originalformat: jpg
o_height: 612
o_width: 612
datetaken: 2011-12-01 11:11:03
dateupload: 1322705463
tags: square squareformat normal iphoneography instagramapp uploaded:by=instagram foursquare:venue=4b58fdddf964a520467728e3
license: 0
latitude: 35.663036
longitude: 139.761291
accuracy: 16
views: 0
interestingness: 51 out of 145

photo: 6434024859 7d3d698a78 7173
owner: 7745889@N02
title: Errands. Part one.
originalsecret: null
originalformat: null
o_height: null
o_width: null
datetaken: 2011-11-30 19:09:54
dateupload: 1322705394
tags: square squareformat normal iphoneography instagramapp uploaded:by=instagram foursquare:venue=4b9d5f9af964a520c0a736e3
license: 0
latitude: 51.156855
longitude: -114.15709
accuracy: 16
views: 0
interestingness: 52 out of 145

photo: 6434023843 e6fdc045dd 7153
owner: 46917795@N03
title: #Lisboa #Portugal
originalsecret: null
originalformat: null
o_height: null
o_width: null
datetaken: 2011-12-01 02:09:39
dateupload: 1322705379
tags: square squareformat normal iphoneography instagramapp uploaded:by=instagram foursquare:venue=4ebc4d0e6d8697bc1257e386
license: 0
latitude: 38.707224
longitude: -9.143725
accuracy: 16
views: 7
interestingness: 53 out of 145

photo: 6434022747 6352a4b398 7149
owner: 14101862@N02
title: #troutdale #oregon #mcmenamins #edgefield #magichour #goldenhour #christmas
originalsecret: 81c0b8b4a7
originalformat: jpg
o_height: 612
o_width: 612
datetaken: 2011-11-30 18:09:22
dateupload: 1322705362
tags: square squareformat iphoneography instagramapp xproii uploaded:by=instagram foursquare:venue=40b13b00f964a520acf51ee3
license: 0
latitude: 45.536828
longitude: -122.407028
accuracy: 16
views: 1
interestingness: 54 out of 145

photo: 6434011697 8b744a9b59 7152
owner: 13229974@N00
title: Dark thoughts - #olhar
originalsecret: null
originalformat: null
o_height: null
o_width: null
datetaken: 2011-12-01 00:06:49
dateupload: 1322705209
tags: square squareformat normal iphoneography instagramapp uploaded:by=instagram foursquare:venue=4d2067495c4ca1cd7bfba03d
license: 0
latitude: -15.798951
longitude: -47.874202
accuracy: 16
views: 0
interestingness: 55 out of 145

photo: 6434006533 ebe96f705e 7166
owner: 25866800@N05
title: projeto #contem
originalsecret: null
originalformat: null
o_height: null
o_width: null
datetaken: 2011-11-30 23:05:37
dateupload: 1322705137
tags: square squareformat lomofi iphoneography instagramapp uploaded:by=instagram foursquare:venue=4bedd56d75feef3bae1197e6
license: 0
latitude: -23.617395
longitude: -46.680865
accuracy: 16
views: 1
interestingness: 56 out of 145

photo: 6434004121 8c2813c139 7008
owner: 63754555@N00
title: First restaurant high chair!
originalsecret: f03de7e8d0
originalformat: jpg
o_height: 612
o_width: 612
datetaken: 2011-11-30 18:05:04
dateupload: 1322705104
tags: square squareformat normal iphoneography instagramapp uploaded:by=instagram foursquare:venue=4abf96d0f964a520389120e3
license: 1
latitude: 49.25972
longitude: -123.114772
accuracy: 16
views: 12
interestingness: 57 out of 145

photo: 6433998489 68a7445333 7149
owner: 14101862@N02
title: #troutdale #oregon #mcmenamins #edgefield #fire #gratefuldead #bear
originalsecret: b00dfa44de
originalformat: jpg
o_height: 612
o_width: 612
datetaken: 2011-11-30 18:03:45
dateupload: 1322705025
tags: square squareformat lordkelvin iphoneography instagramapp uploaded:by=instagram foursquare:venue=40b13b00f964a520acf51ee3
license: 0
latitude: 45.536828
longitude: -122.407028
accuracy: 16
views: 0
interestingness: 58 out of 145

photo: 6433998339 5a7ce479f9 7172
owner: 58511520@N07
title: Kindle Fire has arrived!
originalsecret: eea33b8304
originalformat: jpg
o_height: 612
o_width: 612
datetaken: 2011-11-30 19:03:43
dateupload: 1322705023
tags: square squareformat rise iphoneography instagramapp uploaded:by=instagram foursquare:venue=4bdf24d2c3392d7f3a439cd5
license: 1
latitude: 47.615995
longitude: -122.333452
accuracy: 16
views: 1
interestingness: 59 out of 145

photo: 6433996723 44bc3c117c 7148
owner: 7494427@N08
title: Scarfs & Handkerchiefs
originalsecret: null
originalformat: null
o_height: null
o_width: null
datetaken: 2011-11-30 21:03:18
dateupload: 1322704998
tags: valencia square squareformat iphoneography instagramapp uploaded:by=instagram foursquare:venue=4ab2c893f964a520566c20e3
license: 0
latitude: 40.718842
longitude: -73.98995
accuracy: 16
views: 2
interestingness: 60 out of 145

photo: 6433994207 ce7c11ac9c 7025
owner: 30779073@N06
title: Very wide restaurant (well, no, not really: mirrors!)
originalsecret: null
originalformat: null
o_height: null
o_width: null
datetaken: 2011-11-30 18:02:40
dateupload: 1322704960
tags: square squareformat normal iphoneography instagramapp uploaded:by=instagram foursquare:venue=4de9a02b88774880e30781cb
license: 0
latitude: 37.792151
longitude: -122.421084
accuracy: 16
views: 5
interestingness: 61 out of 145

photo: 6433991013 eba9860f67 7174
owner: 22751315@N05
title: How I do
originalsecret: 7cea90d338
originalformat: jpg
o_height: 612
o_width: 612
datetaken: 2011-11-30 18:01:50
dateupload: 1322704910
tags: square squareformat hudson iphoneography instagramapp uploaded:by=instagram foursquare:venue=4a6ce821f964a52001d21fe3
license: 2
latitude: 37.414137
longitude: -121.876525
accuracy: 16
views: 0
interestingness: 62 out of 145

photo: 6433988593 e25ed25e82 7016
owner: 55357336@N08
title: ??????
originalsecret: null
originalformat: null
o_height: null
o_width: null
datetaken: 2011-12-01 11:01:13
dateupload: 1322704873
tags: square squareformat hudson iphoneography instagramapp uploaded:by=instagram foursquare:venue=4b889874f964a520390332e3
license: 0
latitude: 34.663887
longitude: 135.210145
accuracy: 16
views: 0
interestingness: 63 out of 145

photo: 6433986029 d84efc0132 7029
owner: 14101862@N02
title: #troutdale #oregon #mcmenamins #edgefield #magichour #goldenhour
originalsecret: 71eceac502
originalformat: jpg
o_height: 612
o_width: 612
datetaken: 2011-11-30 18:00:33
dateupload: 1322704833
tags: square squareformat sutro iphoneography instagramapp uploaded:by=instagram foursquare:venue=40b13b00f964a520acf51ee3
license: 0
latitude: 45.536828
longitude: -122.407028
accuracy: 16
views: 0
interestingness: 64 out of 145

photo: 6433981097 bd6c354297 7009
owner: 42231368@N07
title: ??????????????????????????????
originalsecret: null
originalformat: null
o_height: null
o_width: null
datetaken: 2011-12-01 10:59:24
dateupload: 1322704764
tags: square squareformat lomofi iphoneography instagramapp uploaded:by=instagram foursquare:venue=4c8efbfadaa93704fa5851b1
license: 0
latitude: 42.787555
longitude: 141.68098
accuracy: 16
views: 0
interestingness: 65 out of 145

photo: 6433981055 636d102879 7010
owner: 32148883@N02
title: Holiday lights lining 72nd St. #NYC
originalsecret: null
originalformat: null
o_height: null
o_width: null
datetaken: 2011-11-30 20:59:23
dateupload: 1322704763
tags: square squareformat sutro iphoneography instagramapp uploaded:by=instagram foursquare:venue=4bed50be91380f47b4af9f18
license: 0
latitude: 40.778666
longitude: -73.981993
accuracy: 16
views: 13
interestingness: 66 out of 145

photo: 6433978669 953fa9064e 7035
owner: 14101862@N02
title: #troutdale #oregon #mcmenamins #edgefield #magichour #goldenhour
originalsecret: 2e5111a701
originalformat: jpg
o_height: 612
o_width: 612
datetaken: 2011-11-30 17:58:50
dateupload: 1322704730
tags: square squareformat amaro iphoneography instagramapp uploaded:by=instagram foursquare:venue=40b13b00f964a520acf51ee3
license: 0
latitude: 45.536828
longitude: -122.407028
accuracy: 16
views: 0
interestingness: 67 out of 145

photo: 6433971001 47dd9af093 7159
owner: 88774309@N00
title: School night sad face
originalsecret: e6187c4c91
originalformat: jpg
o_height: 612
o_width: 612
datetaken: 2011-11-30 17:57:04
dateupload: 1322704624
tags: square squareformat earlybird iphoneography instagramapp uploaded:by=instagram foursquare:venue=4cc0a3bb31bf952183991ccc
license: 4
latitude: 40.753726
longitude: -73.983542
accuracy: 16
views: 5
interestingness: 68 out of 145

photo: 6433969745 0c5ddea13c 7017
owner: 61373932@N00
title: ???????????????????????????????????2
originalsecret: b263123c3b
originalformat: jpg
o_height: 612
o_width: 612
datetaken: 2011-12-01 10:56:45
dateupload: 1322704605
tags: square squareformat normal iphoneography instagramapp uploaded:by=instagram foursquare:venue=4d69270330a7236abfb171ac
license: 0
latitude: 31.20809
longitude: 121.392333
accuracy: 16
views: 0
interestingness: 69 out of 145

photo: 6433962711 52da9ba559 7158
owner: 57804393@N02
title: I'm pretty sure everyone is on their mobile device. Everyone.
originalsecret: null
originalformat: null
o_height: null
o_width: null
datetaken: 2011-11-30 17:55:00
dateupload: 1322704500
tags: square squareformat lomofi iphoneography instagramapp uploaded:by=instagram foursquare:venue=4d43353c1925721e85f390dd
license: 0
latitude: 37.364962
longitude: -121.924145
accuracy: 16
views: 0
interestingness: 70 out of 145

photo: 6433960653 b113fdd4c8 7011
owner: 14101862@N02
title: #troutdale #oregon #mcmenamins #edgefield #magichour #goldenhour
originalsecret: 9d0e20e0aa
originalformat: jpg
o_height: 612
o_width: 612
datetaken: 2011-11-30 17:54:30
dateupload: 1322704470
tags: square squareformat amaro iphoneography instagramapp uploaded:by=instagram foursquare:venue=40b13b00f964a520acf51ee3
license: 0
latitude: 45.536828
longitude: -122.407028
accuracy: 16
views: 0
interestingness: 71 out of 145

photo: 6433959835 b6678fc513 7168
owner: 28866140@N00
title: Public transit
originalsecret: 0f766b603e
originalformat: jpg
o_height: 612
o_width: 612
datetaken: 2011-11-30 20:54:19
dateupload: 1322704459
tags: square squareformat lomofi iphoneography instagramapp uploaded:by=instagram foursquare:venue=4b155087f964a520bbb023e3
license: 0
latitude: 45.521555
longitude: -122.691739
accuracy: 16
views: 0
interestingness: 72 out of 145

photo: 6433955249 298dd8c636 7145
owner: 88774309@N00
title: Holiday steeZ
originalsecret: 6a2e22134f
originalformat: jpg
o_height: 612
o_width: 612
datetaken: 2011-11-30 17:53:14
dateupload: 1322704394
tags: square squareformat rise iphoneography instagramapp uploaded:by=instagram foursquare:venue=4cc0a3bb31bf952183991ccc
license: 4
latitude: 40.753726
longitude: -73.983542
accuracy: 16
views: 4
interestingness: 73 out of 145

photo: 6433953507 a93e1738e9 7012
owner: 14101862@N02
title: #troutdale #oregon #mcmenamins #edgefield #magichour #goldenhour
originalsecret: c404fd8b5e
originalformat: jpg
o_height: 612
o_width: 612
datetaken: 2011-11-30 17:52:47
dateupload: 1322704367
tags: square squareformat amaro iphoneography instagramapp uploaded:by=instagram foursquare:venue=40b13b00f964a520acf51ee3
license: 0
latitude: 45.536828
longitude: -122.407028
accuracy: 16
views: 0
interestingness: 74 out of 145

photo: 6433948755 3695079b1e 7150
owner: 43454419@N03
title: ???(*^_^*) #donca
originalsecret: a913446d7f
originalformat: jpg
o_height: 612
o_width: 612
datetaken: 2011-12-01 10:51:41
dateupload: 1322704301
tags: square squareformat rise iphoneography instagramapp uploaded:by=instagram foursquare:venue=4b600990f964a520e3d329e3
license: 0
latitude: 35.666466
longitude: 139.758152
accuracy: 16
views: 0
interestingness: 75 out of 145

photo: 6433947625 e03a59a3cc 7022
owner: 61506139@N07
title: Day 182: Seminar with Alan Rickman - he is just awesome.
originalsecret: null
originalformat: null
o_height: null
o_width: null
datetaken: 2011-11-30 20:51:26
dateupload: 1322704286
tags: square squareformat lomofi iphoneography instagramapp uploaded:by=instagram foursquare:venue=4a86f793f964a520d30120e3
license: 0
latitude: 40.759591
longitude: -73.987652
accuracy: 16
views: 21
interestingness: 76 out of 145

photo: 6433947219 794cede437 7161
owner: 65147136@N00
title: Snip snip.
originalsecret: null
originalformat: null
o_height: null
o_width: null
datetaken: 2011-11-30 17:51:21
dateupload: 1322704281
tags: square squareformat lomofi iphoneography instagramapp uploaded:by=instagram foursquare:venue=4e272f7c62e14d5da1562e8b
license: 0
latitude: 47.61308
longitude: -122.336215
accuracy: 16
views: 0
interestingness: 77 out of 145

photo: 6433932789 5026f2a459 7160
owner: 14101862@N02
title: #troutdale #oregon #mcmenamins #edgefield #magichour #goldenhour #watertower
originalsecret: 49f45be0e2
originalformat: jpg
o_height: 612
o_width: 612
datetaken: 2011-11-30 17:47:49
dateupload: 1322704069
tags: square squareformat normal iphoneography instagramapp uploaded:by=instagram foursquare:venue=40b13b00f964a520acf51ee3
license: 0
latitude: 45.536828
longitude: -122.407028
accuracy: 16
views: 1
interestingness: 78 out of 145

photo: 6433927947 f8958b0cc9 7160
owner: 14101862@N02
title: #troutdale #oregon #mcmenamins #edgefield #magichour #goldenhour #watertower
originalsecret: 8ceca68011
originalformat: jpg
o_height: 612
o_width: 612
datetaken: 2011-11-30 17:46:35
dateupload: 1322703995
tags: square squareformat hudson iphoneography instagramapp uploaded:by=instagram foursquare:venue=40b13b00f964a520acf51ee3
license: 0
latitude: 45.536828
longitude: -122.407028
accuracy: 16
views: 0
interestingness: 79 out of 145

photo: 6433922897 58f84f0e3e 7003
owner: 23436061@N00
title: Manila.
originalsecret: bbc898f62e
originalformat: jpg
o_height: 612
o_width: 612
datetaken: 2011-11-30 19:45:16
dateupload: 1322703916
tags: valencia square squareformat iphoneography instagramapp uploaded:by=instagram foursquare:venue=4b907185f964a520978a33e3
license: 2
latitude: 14.572653
longitude: 120.984579
accuracy: 16
views: 1
interestingness: 80 out of 145

photo: 6433920079 4b4a7aa1b4 7149
owner: 33790061@N04
title: ?? ???? ??? ????!!
originalsecret: null
originalformat: null
o_height: null
o_width: null
datetaken: 2011-12-01 10:44:29
dateupload: 1322703869
tags: square squareformat iphoneography instagramapp xproii uploaded:by=instagram foursquare:venue=4b67a18df964a520bc582be3
license: 0
latitude: 37.569004
longitude: 127.00876
accuracy: 16
views: 1
interestingness: 81 out of 145

photo: 6433918129 eaa5b7ff2b 7160
owner: 98105605@N00
title: Magic
originalsecret: 4ce2b8d222
originalformat: jpg
o_height: 612
o_width: 612
datetaken: 2011-12-01 12:43:58
dateupload: 1322703838
tags: square squareformat hefe iphoneography instagramapp uploaded:by=instagram foursquare:venue=4b07576ef964a5204ffc22e3
license: 1
latitude: -37.802332
longitude: 144.985204
accuracy: 16
views: 1
interestingness: 82 out of 145

photo: 6433917259 4553518214 7031
owner: 59166430@N07
title: Forever Marylin
originalsecret: null
originalformat: null
o_height: null
o_width: null
datetaken: 2011-11-30 17:43:44
dateupload: 1322703824
tags: square squareformat hefe iphoneography instagramapp uploaded:by=instagram foursquare:venue=4e2057b1ae6015b21299fb4f
license: 0
latitude: 41.889938
longitude: -87.623718
accuracy: 16
views: 2
interestingness: 83 out of 145

photo: 6433916153 53065f99af 7170
owner: 14101862@N02
title: #troutdale #oregon #mcmenamins #edgefield #magichour #goldenhour
originalsecret: 0092c9d9e3
originalformat: jpg
o_height: 612
o_width: 612
datetaken: 2011-11-30 17:43:27
dateupload: 1322703807
tags: square squareformat iphoneography instagramapp xproii uploaded:by=instagram foursquare:venue=40b13b00f964a520acf51ee3
license: 0
latitude: 45.536828
longitude: -122.407028
accuracy: 16
views: 0
interestingness: 84 out of 145

photo: 6433906283 3b89a1e6f0 7171
owner: 46373860@N02
title: dinner
originalsecret: 118dd05447
originalformat: jpg
o_height: 612
o_width: 612
datetaken: 2011-11-30 19:40:45
dateupload: 1322703645
tags: square squareformat amaro iphoneography instagramapp uploaded:by=instagram foursquare:venue=4b3005e2f964a5209af424e3
license: 0
latitude: 43.044673
longitude: -87.911986
accuracy: 16
views: 0
interestingness: 85 out of 145

photo: 6433903979 4bea24259c 7014
owner: 55357336@N08
title: ??????
originalsecret: null
originalformat: null
o_height: null
o_width: null
datetaken: 2011-12-01 10:40:10
dateupload: 1322703610
tags: square squareformat hudson iphoneography instagramapp uploaded:by=instagram foursquare:venue=4bef62862ff520a1c78ce8a2
license: 0
latitude: 34.664849
longitude: 135.212602
accuracy: 16
views: 0
interestingness: 86 out of 145

photo: 6433897621 11fcf9c0fa 7159
owner: 26631597@N03
title: Jetway Roof #airport #planes #iphoneography
originalsecret: 06990ae25b
originalformat: jpg
o_height: 612
o_width: 612
datetaken: 2011-11-30 20:38:34
dateupload: 1322703514
tags: square squareformat iphoneography instagramapp xproii uploaded:by=instagram foursquare:venue=4b885545f964a520ecef31e3
license: 5
latitude: 40.690954
longitude: -74.177284
accuracy: 16
views: 0
interestingness: 87 out of 145

photo: 6433892889 4d002c107a 7004
owner: 28482148@N07
title: #projetocontem
originalsecret: 9a929804f0
originalformat: jpg
o_height: 612
o_width: 612
datetaken: 2011-11-30 23:37:23
dateupload: 1322703443
tags: square squareformat amaro iphoneography instagramapp uploaded:by=instagram foursquare:venue=4bedd56d75feef3bae1197e6
license: 0
latitude: -23.617395
longitude: -46.680865
accuracy: 16
views: 1
interestingness: 88 out of 145

photo: 6433891603 53d1513be6 7019
owner: 33956054@N00
title: OMNOMNOMNOMNNOM
originalsecret: 93f4a6e0bf
originalformat: jpg
o_height: 612
o_width: 612
datetaken: 2011-11-30 17:37:05
dateupload: 1322703425
tags: square squareformat normal iphoneography instagramapp uploaded:by=instagram foursquare:venue=4c2290ba7e85c928de3ebc21
license: 2
latitude: 18.325086
longitude: -64.852699
accuracy: 16
views: 23
interestingness: 89 out of 145

photo: 6433889993 8e516938ab 7168
owner: 26631597@N03
title: #planes #airport
originalsecret: 6b5dc89b7d
originalformat: jpg
o_height: 612
o_width: 612
datetaken: 2011-11-30 20:36:42
dateupload: 1322703402
tags: square squareformat lomofi iphoneography instagramapp uploaded:by=instagram foursquare:venue=4bfd3ee9ee20ef3bfe513c5e
license: 5
latitude: 40.692414
longitude: -74.174451
accuracy: 16
views: 0
interestingness: 90 out of 145

photo: 6433883661 75039b5d52 7013
owner: 14101862@N02
title: #troutdale #oregon #mcmenamins #edgefield #magichour #goldenhour #sunset #firehydrant
originalsecret: 5b140c4531
originalformat: jpg
o_height: 612
o_width: 612
datetaken: 2011-11-30 17:35:14
dateupload: 1322703314
tags: square squareformat iphoneography instagramapp xproii uploaded:by=instagram foursquare:venue=40b13b00f964a520acf51ee3
license: 0
latitude: 45.536828
longitude: -122.407028
accuracy: 16
views: 1
interestingness: 91 out of 145

photo: 6433882425 cb3c2408af 7024
owner: 7557785@N06
title: the view
originalsecret: 5481940364
originalformat: jpg
o_height: 612
o_width: 612
datetaken: 2011-11-30 20:34:55
dateupload: 1322703295
tags: square squareformat normal iphoneography instagramapp uploaded:by=instagram foursquare:venue=43b02c45f964a520942c1fe3
license: 0
latitude: 37.332699
longitude: -121.889276
accuracy: 16
views: 1
interestingness: 92 out of 145

photo: 6433876711 953c667966 7012
owner: 43454419@N03
title: ????????? #akb48 #donca
originalsecret: a8ea5978d5
originalformat: jpg
o_height: 612
o_width: 612
datetaken: 2011-12-01 10:33:35
dateupload: 1322703215
tags: square squareformat normal iphoneography instagramapp uploaded:by=instagram foursquare:venue=4b19f917f964a520abe623e3
license: 0
latitude: 35.698396
longitude: 139.773119
accuracy: 16
views: 4
interestingness: 93 out of 145

photo: 6433873433 fb79cea9e3 7010
owner: 61373932@N00
title: ?????????????????????????????????????????????
originalsecret: edfb42df65
originalformat: jpg
o_height: 612
o_width: 612
datetaken: 2011-12-01 10:32:52
dateupload: 1322703172
tags: square squareformat normal iphoneography instagramapp uploaded:by=instagram foursquare:venue=4d69270330a7236abfb171ac
license: 0
latitude: 31.20809
longitude: 121.392333
accuracy: 16
views: 0
interestingness: 94 out of 145

photo: 6433873249 6b198f4f47 7165
owner: 13229974@N00
title: Work - #olhar
originalsecret: null
originalformat: null
o_height: null
o_width: null
datetaken: 2011-11-30 23:32:50
dateupload: 1322703170
tags: square squareformat normal iphoneography instagramapp uploaded:by=instagram foursquare:venue=4d2067495c4ca1cd7bfba03d
license: 0
latitude: -15.798951
longitude: -47.874202
accuracy: 16
views: 0
interestingness: 95 out of 145

photo: 6433869655 aa2997a38f 7161
owner: 14101862@N02
title: #troutdale #oregon #mcmenamins #edgefield #magichour #goldenhour #sunset
originalsecret: 78f731aee4
originalformat: jpg
o_height: 612
o_width: 612
datetaken: 2011-11-30 17:31:57
dateupload: 1322703117
tags: square squareformat normal iphoneography instagramapp uploaded:by=instagram foursquare:venue=40b13b00f964a520acf51ee3
license: 0
latitude: 45.536828
longitude: -122.407028
accuracy: 16
views: 0
interestingness: 96 out of 145

photo: 6433865539 4540ddf5ab 7015
owner: 15928808@N04
title: #igniteboulder !
originalsecret: null
originalformat: null
o_height: null
o_width: null
datetaken: 2011-11-30 17:30:55
dateupload: 1322703055
tags: square squareformat earlybird iphoneography instagramapp uploaded:by=instagram foursquare:venue=43753080f964a520362a1fe3
license: 0
latitude: 40.0192
longitude: -105.277251
accuracy: 16
views: 8
interestingness: 97 out of 145

photo: 6433864123 d4e35a7368 7029
owner: 10530745@N06
title: perfection.
originalsecret: null
originalformat: null
o_height: null
o_width: null
datetaken: 2011-11-30 20:30:34
dateupload: 1322703034
tags: square squareformat normal iphoneography instagramapp uploaded:by=instagram foursquare:venue=3fd66200f964a5209beb1ee3
license: 0
latitude: 40.709996
longitude: -73.962383
accuracy: 16
views: 7
interestingness: 98 out of 145

photo: 6433859399 567c0c1c08 7149
owner: 34009864@N00
title: Ceilings.
originalsecret: 1bbc07c19e
originalformat: jpg
o_height: 612
o_width: 612
datetaken: 2011-11-30 19:29:18
dateupload: 1322702958
tags: square squareformat iphoneography instagramapp xproii uploaded:by=instagram foursquare:venue=4bb9dbc353649c74364e48fb
license: 0
latitude: 37.617086
longitude: -122.382545
accuracy: 16
views: 4
interestingness: 99 out of 145

photo: 6433855247 bcf73ae191 7030
owner: 97156490@N00
title: Elevating
originalsecret: 1f73c765e7
originalformat: jpg
o_height: 612
o_width: 612
datetaken: 2011-11-30 20:28:17
dateupload: 1322702897
tags: square squareformat iphoneography instagramapp xproii uploaded:by=instagram foursquare:venue=4bc33676dce4eee1017e719d
license: 0
latitude: 26.839037
longitude: -80.10407
accuracy: 16
views: 2
interestingness: 100 out of 145

photo: 6433850685 86fbc7911f 7023
owner: 43069313@N00
title: ??!!??????????????7?($6.8)!!!?????!!__?!!!
originalsecret: 23515c51f9
originalformat: jpg
o_height: 612
o_width: 612
datetaken: 2011-12-01 09:27:08
dateupload: 1322702828
tags: square squareformat earlybird iphoneography instagramapp uploaded:by=instagram foursquare:venue=4d40c0eacb84b60c321c89ab
license: 0
latitude: 22.287204
longitude: 114.211033
accuracy: 16
views: 9
interestingness: 101 out of 145

photo: 6433838501 3cb32c462a 7010
owner: 94266000@N00
title: Boulder office
originalsecret: c8456c0b18
originalformat: jpg
o_height: 612
o_width: 612
datetaken: 2011-11-30 20:24:15
dateupload: 1322702655
tags: square squareformat lordkelvin iphoneography instagramapp uploaded:by=instagram foursquare:venue=4e1f3c661838e9f93a49c113
license: 0
latitude: 40.018889
longitude: -105.275116
accuracy: 16
views: 6
interestingness: 102 out of 145

photo: 6433835313 3c2b6bbf94 7149
owner: 14101862@N02
title: #Troutdale #McMenamins #Edgefield #MagicHour #GoldenHour
originalsecret: a2b1daa4c3
originalformat: jpg
o_height: 612
o_width: 612
datetaken: 2011-11-30 17:23:28
dateupload: 1322702608
tags: square squareformat iphoneography instagramapp xproii uploaded:by=instagram foursquare:venue=40b13b00f964a520acf51ee3
license: 0
latitude: 45.536828
longitude: -122.407028
accuracy: 16
views: 0
interestingness: 103 out of 145

photo: 6433824231 026d4b9292 7015
owner: 56159348@N08
title: 
originalsecret: null
originalformat: null
o_height: null
o_width: null
datetaken: 2011-11-30 19:20:37
dateupload: 1322702437
tags: square squareformat normal iphoneography instagramapp uploaded:by=instagram foursquare:venue=4d8652aad5fab60c0e98099c
license: 0
latitude: 17.508897
longitude: -91.984268
accuracy: 16
views: 0
interestingness: 104 out of 145

photo: 6433824227 320c38e35b 7020
owner: 27745483@N07
title: Knife Party
originalsecret: d89d2df443
originalformat: jpg
o_height: 612
o_width: 612
datetaken: 2011-12-01 09:20:37
dateupload: 1322702437
tags: square squareformat hefe iphoneography instagramapp uploaded:by=instagram foursquare:venue=4d391bbc47303704dece6fa5
license: 0
latitude: -31.946784
longitude: 115.847561
accuracy: 16
views: 1
interestingness: 105 out of 145

photo: 6433819685 b39ac3d0db 7171
owner: 48611646@N05
title: #cofe #cafe
originalsecret: null
originalformat: null
o_height: null
o_width: null
datetaken: 2011-12-01 10:19:27
dateupload: 1322702367
tags: square squareformat amaro iphoneography instagramapp uploaded:by=instagram foursquare:venue=4b5ff2e8f964a52070d129e3
license: 0
latitude: 34.680264
longitude: 135.624074
accuracy: 16
views: 0
interestingness: 106 out of 145

photo: 6433817965 d1a515eebb 7035
owner: 24038987@N06
title: Late night in work. Scooby Watches over the city
originalsecret: 2617efbfdb
originalformat: jpg
o_height: 612
o_width: 612
datetaken: 2011-12-01 01:19:03
dateupload: 1322702343
tags: square squareformat iphoneography instagramapp xproii uploaded:by=instagram foursquare:venue=4dd2b0206365cd4836e4a81a
license: 0
latitude: 53.394384
longitude: -2.979204
accuracy: 16
views: 0
interestingness: 107 out of 145

photo: 6433815519 2c4abfa0bc 7172
owner: 58640509@N07
title: Luzes da cidade
originalsecret: null
originalformat: null
o_height: null
o_width: null
datetaken: 2011-11-30 23:18:30
dateupload: 1322702310
tags: square squareformat hefe iphoneography instagramapp uploaded:by=instagram foursquare:venue=4ed547b69a52627d04af94ed
license: 0
latitude: -23.558786
longitude: -46.660512
accuracy: 16
views: 0
interestingness: 108 out of 145

photo: 6433812987 6dcfc53a70 7010
owner: 69036038@N03
title: Interpretion class, Instagram notes are even faster than which is on the screen
originalsecret: null
originalformat: null
o_height: null
o_width: null
datetaken: 2011-11-30 17:17:54
dateupload: 1322702274
tags: square toaster squareformat iphoneography instagramapp uploaded:by=instagram foursquare:venue=4d9299e65cf5236a904551a3
license: 0
latitude: 30.568216
longitude: 103.969955
accuracy: 16
views: 1
interestingness: 109 out of 145

photo: 6433812173 c8ebea1a99 7023
owner: 24038987@N06
title: The bright light, I can't resist the bright light ..
originalsecret: d1103e0790
originalformat: jpg
o_height: 612
o_width: 612
datetaken: 2011-12-01 01:17:42
dateupload: 1322702262
tags: square squareformat amaro iphoneography instagramapp uploaded:by=instagram foursquare:venue=4ba8885af964a520dbde39e3
license: 0
latitude: 53.407063
longitude: -2.991542
accuracy: 16
views: 0
interestingness: 110 out of 145

photo: 6433810627 2e58448cde 7175
owner: 21203287@N07
title: Last tube home
originalsecret: null
originalformat: null
o_height: null
o_width: null
datetaken: 2011-12-01 01:17:20
dateupload: 1322702240
tags: valencia square squareformat iphoneography instagramapp uploaded:by=instagram foursquare:venue=4b2d08c5f964a520c1cc24e3
license: 0
latitude: 51.5343
longitude: -0.138903
accuracy: 16
views: 3
interestingness: 111 out of 145

photo: 6433806923 03e0a08894 7162
owner: 10975405@N06
title: Old 3rd party NES controller I found for 3$ at a thrift store
originalsecret: null
originalformat: null
o_height: null
o_width: null
datetaken: 2011-12-01 03:16:27
dateupload: 1322702187
tags: square squareformat normal iphoneography instagramapp uploaded:by=instagram foursquare:venue=4e5bc558c65bcd7cbe5274c5
license: 3
latitude: 45.540466
longitude: -73.747392
accuracy: 16
views: 0
interestingness: 112 out of 145

photo: 6433797743 2ca949bc8b 7173
owner: 55357336@N08
title: ?????????????
originalsecret: null
originalformat: null
o_height: null
o_width: null
datetaken: 2011-12-01 10:14:12
dateupload: 1322702052
tags: square squareformat lomofi iphoneography instagramapp uploaded:by=instagram foursquare:venue=4cf8bac2de096dcb77068a79
license: 0
latitude: 34.66679
longitude: 135.213578
accuracy: 16
views: 0
interestingness: 113 out of 145

photo: 6433795311 aa8c525769 7018
owner: 7216731@N07
title: Oh what a night
originalsecret: 88482479e6
originalformat: jpg
o_height: 612
o_width: 612
datetaken: 2011-11-30 17:13:36
dateupload: 1322702016
tags: square squareformat normal iphoneography instagramapp uploaded:by=instagram foursquare:venue=43b02b7bf964a520932c1fe3
license: 0
latitude: 37.835315
longitude: -122.476308
accuracy: 16
views: 1
interestingness: 114 out of 145

photo: 6433791009 6eefba7934 7004
owner: 7216731@N07
title: 
originalsecret: 4391e4e8ff
originalformat: jpg
o_height: 612
o_width: 612
datetaken: 2011-11-30 17:12:32
dateupload: 1322701952
tags: square squareformat normal iphoneography instagramapp uploaded:by=instagram foursquare:venue=43b02b7bf964a520932c1fe3
license: 0
latitude: 37.835315
longitude: -122.476308
accuracy: 16
views: 1
interestingness: 115 out of 145

photo: 6433788137 44ff761531 7164
owner: 47125938@N04
title: The wind is coming.
originalsecret: null
originalformat: null
o_height: null
o_width: null
datetaken: 2011-11-30 17:11:51
dateupload: 1322701911
tags: square squareformat rise iphoneography instagramapp uploaded:by=instagram foursquare:venue=4bc7e3436501c9b683613f29
license: 0
latitude: 34.246491
longitude: -119.261594
accuracy: 16
views: 0
interestingness: 116 out of 145

photo: 6433783157 ac5a10bc23 7175
owner: 7557785@N06
title: Follow the feet!
originalsecret: 69d7414664
originalformat: jpg
o_height: 612
o_width: 612
datetaken: 2011-11-30 20:10:41
dateupload: 1322701841
tags: square squareformat hefe iphoneography instagramapp uploaded:by=instagram foursquare:venue=4dd15c9ad4c065592fc45ce4
license: 0
latitude: 37.37316
longitude: -121.928302
accuracy: 16
views: 1
interestingness: 117 out of 145

photo: 6433781987 d9ffee2e98 7171
owner: 50048137@N00
title: Stormy Air at Bank & Main
originalsecret: 56764cfccd
originalformat: jpg
o_height: 612
o_width: 612
datetaken: 2011-11-30 20:10:25
dateupload: 1322701825
tags: square squareformat gotham iphoneography instagramapp uploaded:by=instagram foursquare:venue=4b003fccf964a520f23b22e3
license: 2
latitude: 36.085764
longitude: -80.241845
accuracy: 16
views: 1
interestingness: 118 out of 145

photo: 6433777447 5ce31ea7f3 7028
owner: 56159348@N08
title: 
originalsecret: null
originalformat: null
o_height: null
o_width: null
datetaken: 2011-11-30 19:09:17
dateupload: 1322701757
tags: square squareformat hefe iphoneography instagramapp uploaded:by=instagram foursquare:venue=4d8652aad5fab60c0e98099c
license: 0
latitude: 17.508897
longitude: -91.984268
accuracy: 16
views: 1
interestingness: 119 out of 145

photo: 6433776067 c369d5c49d 7160
owner: 54680568@N04
title: Arch
originalsecret: null
originalformat: null
o_height: null
o_width: null
datetaken: 2011-11-30 20:08:58
dateupload: 1322701738
tags: square squareformat sutro iphoneography instagramapp uploaded:by=instagram foursquare:venue=452e194ef964a5204e3b1fe3
license: 0
latitude: 42.339228
longitude: -71.094717
accuracy: 16
views: 0
interestingness: 120 out of 145

photo: 6433771463 d18e042bbd 7160
owner: 7557785@N06
title: I hope True Action gets one of these on our front lawn.
originalsecret: 44b98f980e
originalformat: jpg
o_height: 612
o_width: 612
datetaken: 2011-11-30 20:07:44
dateupload: 1322701664
tags: square squareformat sutro iphoneography instagramapp uploaded:by=instagram foursquare:venue=4dd15c9ad4c065592fc45ce4
license: 0
latitude: 37.37316
longitude: -121.928302
accuracy: 16
views: 0
interestingness: 121 out of 145

photo: 6433764071 a892c40270 7161
owner: 41897668@N04
title: View from universal studios market
originalsecret: null
originalformat: null
o_height: null
o_width: null
datetaken: 2011-12-01 05:05:54
dateupload: 1322701554
tags: square squareformat normal iphoneography instagramapp uploaded:by=instagram foursquare:venue=4d33f9dcc6cba35d187e2f7a
license: 0
latitude: 34.667289
longitude: 135.435205
accuracy: 16
views: 0
interestingness: 122 out of 145

photo: 6433757723 edaa4c2797 7150
owner: 51244659@N00
title: My favorite: Ghost Face #WuTang
originalsecret: null
originalformat: null
o_height: null
o_width: null
datetaken: 2011-11-30 17:04:21
dateupload: 1322701461
tags: square squareformat rise iphoneography instagramapp uploaded:by=instagram foursquare:venue=4dc19ef21f6e7441cf5255de
license: 0
latitude: 34.030105
longitude: -118.467722
accuracy: 16
views: 0
interestingness: 123 out of 145

photo: 6433752871 7cbb7a3664 7017
owner: 48129490@N07
title: Bright and Curious. | #theyouth #toronto #travellers #mid-sentence #donbosco #highschoolkids #hipstamatic #candid #magichour
originalsecret: null
originalformat: null
o_height: null
o_width: null
datetaken: 2011-11-30 20:03:07
dateupload: 1322701387
tags: square squareformat normal iphoneography instagramapp uploaded:by=instagram foursquare:venue=4ec33719775b92bf9cae021b
license: 0
latitude: 43.700642
longitude: -79.548208
accuracy: 16
views: 0
interestingness: 124 out of 145

photo: 6433751007 49a7b25a64 7023
owner: 96048081@N00
title: Dona Flor e os dois maridos #boringparty #amor
originalsecret: null
originalformat: null
o_height: null
o_width: null
datetaken: 2011-11-30 23:02:39
dateupload: 1322701359
tags: square squareformat iphoneography instagramapp xproii uploaded:by=instagram foursquare:venue=4ceaffc94cdf8eec0def51d1
license: 0
latitude: -23.561362
longitude: -46.69441
accuracy: 16
views: 0
interestingness: 125 out of 145

photo: 6433748465 5932023e95 7173
owner: 41897668@N04
title: Main entrance
originalsecret: null
originalformat: null
o_height: null
o_width: null
datetaken: 2011-12-01 05:02:00
dateupload: 1322701320
tags: square squareformat normal iphoneography instagramapp uploaded:by=instagram foursquare:venue=4d33f9dcc6cba35d187e2f7a
license: 0
latitude: 34.667289
longitude: 135.435205
accuracy: 16
views: 0
interestingness: 126 out of 145

photo: 6433748337 a15ce271d5 7008
owner: 31771416@N00
title: 
originalsecret: cf29666df4
originalformat: jpg
o_height: 612
o_width: 612
datetaken: 2011-11-30 19:01:59
dateupload: 1322701319
tags: square squareformat lomofi iphoneography instagramapp uploaded:by=instagram foursquare:venue=4e062b8aae60a90eabc112a1
license: 4
latitude: 32.81564
longitude: -97.419958
accuracy: 16
views: 0
interestingness: 127 out of 145

photo: 6433746601 52ae55b0a6 7020
owner: 54680568@N04
title: Retouching a Painting
originalsecret: null
originalformat: null
o_height: null
o_width: null
datetaken: 2011-11-30 20:01:32
dateupload: 1322701292
tags: square squareformat lordkelvin iphoneography instagramapp uploaded:by=instagram foursquare:venue=452e194ef964a5204e3b1fe3
license: 0
latitude: 42.339228
longitude: -71.094717
accuracy: 16
views: 1
interestingness: 128 out of 145

photo: 6433740789 9ce7caf9b0 7151
owner: 41897668@N04
title: Universal studios Osaka
originalsecret: null
originalformat: null
o_height: null
o_width: null
datetaken: 2011-12-01 05:00:06
dateupload: 1322701206
tags: square squareformat earlybird iphoneography instagramapp uploaded:by=instagram foursquare:venue=4d33f9dcc6cba35d187e2f7a
license: 0
latitude: 34.667289
longitude: 135.435205
accuracy: 16
views: 0
interestingness: 129 out of 145

photo: 6433737513 4294fea691 7005
owner: 65481599@N00
title: Waiting for Lana Del Rey
originalsecret: 90cae8d89a
originalformat: jpg
o_height: 612
o_width: 612
datetaken: 2011-11-30 19:59:19
dateupload: 1322701159
tags: square squareformat lomofi iphoneography instagramapp uploaded:by=instagram foursquare:venue=4ad4c05df964a5207df620e3
license: 3
latitude: 43.655347
longitude: -79.419241
accuracy: 16
views: 2
interestingness: 130 out of 145

photo: 6433736921 f181c9ac4b 7161
owner: 7557785@N06
title: Actual name of a PayPal conference room.
originalsecret: e82c150dc8
originalformat: jpg
o_height: 612
o_width: 612
datetaken: 2011-11-30 19:59:10
dateupload: 1322701150
tags: square squareformat normal iphoneography instagramapp uploaded:by=instagram foursquare:venue=4c2bb7f577cfe21e19f1b4f1
license: 0
latitude: 37.374912
longitude: -121.920913
accuracy: 16
views: 0
interestingness: 131 out of 145

photo: 6433735037 36d6b6afdd 7168
owner: 23583336@N02
title: Cafeteria francesa ?
originalsecret: null
originalformat: null
o_height: null
o_width: null
datetaken: 2011-11-30 16:58:43
dateupload: 1322701123
tags: square squareformat iphoneography instagramapp xproii uploaded:by=instagram foursquare:venue=4eb322e193ad2f4d37072b7d
license: 0
latitude: -23.556192
longitude: -46.658534
accuracy: 16
views: 2
interestingness: 132 out of 145

photo: 6433734521 15dd502a33 7033
owner: 32148883@N02
title: This gravity-challenged puppet is how I feel tonight. #NYC
originalsecret: null
originalformat: null
o_height: null
o_width: null
datetaken: 2011-11-30 19:58:35
dateupload: 1322701115
tags: square squareformat iphoneography instagramapp xproii uploaded:by=instagram foursquare:venue=4bc8fcc40687ef3b231fd9cc
license: 0
latitude: 40.777482
longitude: -73.981461
accuracy: 16
views: 11
interestingness: 133 out of 145

photo: 6433732831 f81177fd2f 7148
owner: 57070309@N05
title: AZdo
originalsecret: null
originalformat: null
o_height: null
o_width: null
datetaken: 2011-11-30 16:58:08
dateupload: 1322701088
tags: square squareformat lomofi iphoneography instagramapp uploaded:by=instagram foursquare:venue=4bb54b9b941ad13a6e151ee3
license: 0
latitude: -8.064623
longitude: -34.873244
accuracy: 16
views: 0
interestingness: 134 out of 145

photo: 6433726883 4bcafd4d7b 7035
owner: 49116829@N07
title: Medicina preventiva transporte federal
originalsecret: null
originalformat: null
o_height: null
o_width: null
datetaken: 2011-11-30 18:56:35
dateupload: 1322700995
tags: square squareformat normal iphoneography instagramapp uploaded:by=instagram foursquare:venue=4e653099b993678bb7c98d75
license: 0
latitude: 21.103
longitude: -101.64011
accuracy: 16
views: 0
interestingness: 135 out of 145

photo: 6433725965 8ef86f1c8d 7143
owner: 41897668@N04
title: Shinjuku gardens
originalsecret: null
originalformat: null
o_height: null
o_width: null
datetaken: 2011-12-01 04:56:21
dateupload: 1322700981
tags: square squareformat normal iphoneography instagramapp uploaded:by=instagram foursquare:venue=4cd7b2f4a423a35d9d10e842
license: 0
latitude: 35.690689
longitude: 139.700436
accuracy: 16
views: 0
interestingness: 136 out of 145

photo: 6433724111 a2035362bd 7034
owner: 49116829@N07
title: Medicina preventiva transporte federal
originalsecret: null
originalformat: null
o_height: null
o_width: null
datetaken: 2011-11-30 18:55:51
dateupload: 1322700951
tags: square squareformat normal iphoneography instagramapp uploaded:by=instagram foursquare:venue=4e653099b993678bb7c98d75
license: 0
latitude: 21.103
longitude: -101.64011
accuracy: 16
views: 1
interestingness: 137 out of 145

photo: 6433720999 4c748521c8 7171
owner: 49116829@N07
title: Cl?nicas medicina preventiva examen psicofisico federal
originalsecret: null
originalformat: null
o_height: null
o_width: null
datetaken: 2011-11-30 18:55:00
dateupload: 1322700900
tags: square squareformat normal iphoneography instagramapp uploaded:by=instagram foursquare:venue=4e653099b993678bb7c98d75
license: 0
latitude: 21.103
longitude: -101.64011
accuracy: 16
views: 6
interestingness: 138 out of 145

photo: 6433718749 f0fed56418 7014
owner: 9397767@N03
title: #sky #harlem #nyc #clouds #photooftheday
originalsecret: f9d66155e6
originalformat: jpg
o_height: 612
o_width: 612
datetaken: 2011-11-30 19:54:24
dateupload: 1322700864
tags: square squareformat normal iphoneography instagramapp uploaded:by=instagram foursquare:venue=4ea40d8e93ad755e37a05cd6
license: 3
latitude: 40.816365
longitude: -73.956544
accuracy: 16
views: 1
interestingness: 139 out of 145

photo: 6433708957 d3172831dd 7031
owner: 68235353@N00
title: Martial arts practice
originalsecret: null
originalformat: null
o_height: null
o_width: null
datetaken: 2011-11-30 16:51:50
dateupload: 1322700710
tags: square squareformat sutro iphoneography instagramapp uploaded:by=instagram foursquare:venue=4dc86c0afa761aaccad7c681
license: 0
latitude: 30.370023
longitude: -97.892888
accuracy: 16
views: 0
interestingness: 140 out of 145

photo: 6433708861 ea73d47b5e 7017
owner: 13376478@N04
title: 135.2 : conversation is dead.
originalsecret: null
originalformat: null
o_height: null
o_width: null
datetaken: 2011-11-30 19:51:48
dateupload: 1322700708
tags: square squareformat normal iphoneography instagramapp uploaded:by=instagram foursquare:venue=4e440a03b3ad4263a203ac1e
license: 0
latitude: 38.902641
longitude: -77.047202
accuracy: 16
views: 1
interestingness: 141 out of 145

photo: 6433707665 02734c4dbc 7026
owner: 88774309@N00
title: Christmas Zamboni
originalsecret: 0f68c7e204
originalformat: jpg
o_height: 612
o_width: 612
datetaken: 2011-11-30 16:51:29
dateupload: 1322700689
tags: square squareformat iphoneography instagramapp xproii uploaded:by=instagram foursquare:venue=4cc0a3bb31bf952183991ccc
license: 4
latitude: 40.753726
longitude: -73.983542
accuracy: 16
views: 6
interestingness: 142 out of 145

photo: 6433704341 8839fbd344 7006
owner: 14969587@N00
title: Zulia, la original
originalsecret: null
originalformat: null
o_height: null
o_width: null
datetaken: 2011-11-30 20:20:41
dateupload: 1322700641
tags: square nashville squareformat iphoneography instagramapp uploaded:by=instagram foursquare:venue=4b8ed803f964a520703a33e3
license: 1
latitude: 10.496757
longitude: -66.847214
accuracy: 16
views: 3
interestingness: 143 out of 145

photo: 6433693291 7a2dfaa424 7161
owner: 27123861@N00
title: Hamburger helper
originalsecret: 7b4d1e2a31
originalformat: jpg
o_height: 612
o_width: 612
datetaken: 2011-11-30 19:47:59
dateupload: 1322700479
tags: square squareformat normal iphoneography instagramapp uploaded:by=instagram foursquare:venue=4d003c816923721e7cc3c33b
license: 6
latitude: 41.35942
longitude: -72.084245
accuracy: 16
views: 8
interestingness: 144 out of 145

photo: 6433691381 20854c79fa 7019
owner: 61373932@N00
title: ???????????????????????????????????????????????????2???28????????
originalsecret: 58847e11d4
originalformat: jpg
o_height: 612
o_width: 612
datetaken: 2011-12-01 09:47:33
dateupload: 1322700453
tags: square squareformat iphoneography instagramapp xproii uploaded:by=instagram foursquare:venue=4d69270330a7236abfb171ac
license: 0
latitude: 31.20809
longitude: 121.392333
accuracy: 16
views: 0
interestingness: 145 out of 145

photo: 6433689925 b3fbbcea42 7016
owner: 48889054224@N01
title: L.P.G.
originalsecret: null
originalformat: null
o_height: null
o_width: null
datetaken: 2011-12-01 08:47:13
dateupload: 1322700433
tags: square squareformat normal iphoneography instagramapp uploaded:by=instagram foursquare:venue=4c28725eed0ac9b6333160aa
license: 1
latitude: -8.744597
longitude: 115.166534
accuracy: 16
views: 14
interestingness: 146 out of 145

photo: 6433685027 7dfbb94128 7145
owner: 48889054224@N01
title: FaceTime keeps you in touch with the people you leave behind
originalsecret: null
originalformat: null
o_height: null
o_width: null
datetaken: 2011-12-01 08:46:05
dateupload: 1322700365
tags: square squareformat rise iphoneography instagramapp uploaded:by=instagram foursquare:venue=4e4b45ae18a808fd10fbf73d
license: 1
latitude: -8.635738
longitude: 115.104245
accuracy: 16
views: 0
interestingness: 147 out of 145

photo: 6433682947 56b16c7c20 7148
owner: 51244659@N00
title: Autograph wall inside Red Bull Studios L.A. #AsherRoth #MIA #MrCartoon
originalsecret: null
originalformat: null
o_height: null
o_width: null
datetaken: 2011-11-30 16:45:37
dateupload: 1322700337
tags: square squareformat rise iphoneography instagramapp uploaded:by=instagram foursquare:venue=4dc19ef21f6e7441cf5255de
license: 0
latitude: 34.030105
longitude: -118.467722
accuracy: 16
views: 5
interestingness: 148 out of 145

photo: 6433681253 ba033123cf 7031
owner: 13376478@N04
title: 135.1: on a date. Who ordered what?
originalsecret: null
originalformat: null
o_height: null
o_width: null
datetaken: 2011-11-30 19:45:12
dateupload: 1322700312
tags: square squareformat iphoneography instagramapp xproii uploaded:by=instagram foursquare:venue=4e440a03b3ad4263a203ac1e
license: 0
latitude: 38.902641
longitude: -77.047202
accuracy: 16
views: 1
interestingness: 149 out of 145

photo: 6433676543 47f2a8bf51 7171
owner: 90298634@N00
title: Gillette G-List
originalsecret: dbb93c7727
originalformat: jpg
o_height: 612
o_width: 612
datetaken: 2011-11-30 16:44:05
dateupload: 1322700245
tags: square squareformat hudson iphoneography instagramapp uploaded:by=instagram foursquare:venue=4b5668d6f964a520370f28e3
license: 0
latitude: 40.722113
longitude: -73.988788
accuracy: 16
views: 3
interestingness: 150 out of 145

photo: 6433667165 766411d649 7151
owner: 41897668@N04
title: Cookie maker
originalsecret: null
originalformat: null
o_height: null
o_width: null
datetaken: 2011-12-01 04:41:51
dateupload: 1322700111
tags: square squareformat normal iphoneography instagramapp uploaded:by=instagram foursquare:venue=4b59b9c3f964a520ca9428e3
license: 0
latitude: 35.02329
longitude: 135.763305
accuracy: 16
views: 2
interestingness: 151 out of 145

photo: 6433661299 e66f1d7ddf 7145
owner: 12093905@N00
title: Metrocard machine - brought to you by Windows NT
originalsecret: null
originalformat: null
o_height: null
o_width: null
datetaken: 2011-11-30 19:40:27
dateupload: 1322700027
tags: square squareformat normal iphoneography instagramapp uploaded:by=instagram foursquare:venue=4b0b68cef964a5202f3123e3
license: 0
latitude: 40.679336
longitude: -73.930284
accuracy: 16
views: 0
interestingness: 152 out of 145

photo: 6433658615 908d23bd97 7001
owner: 18352288@N00
title: Ran out of gas on the grill, had to get creative.
originalsecret: a01be1840e
originalformat: jpg
o_height: 612
o_width: 612
datetaken: 2011-11-30 19:39:46
dateupload: 1322699986
tags: square nashville squareformat iphoneography instagramapp uploaded:by=instagram foursquare:venue=4bff0f44369476b07f538d1f
license: 0
latitude: 39.03194
longitude: -77.475933
accuracy: 16
views: 5
interestingness: 153 out of 145

photo: 6433656941 c1d3446754 7149
owner: 73388888@N00
title: ??????
originalsecret: 6d9667c4c0
originalformat: jpg
o_height: 612
o_width: 612
datetaken: 2011-12-01 08:39:20
dateupload: 1322699960
tags: square squareformat iphoneography instagramapp xproii uploaded:by=instagram foursquare:venue=4c6c7e2f4635370440b106bc
license: 3
latitude: 25.070951
longitude: 121.622605
accuracy: 16
views: 2
interestingness: 154 out of 145

photo: 6433646833 37c3f10509 7003
owner: 35034354137@N01
title: It Takes a Village, or This is How We Code Push
originalsecret: 6132c2af5c
originalformat: jpg
o_height: 612
o_width: 612
datetaken: 2011-11-30 19:36:43
dateupload: 1322699803
tags: square squareformat sutro iphoneography instagramapp uploaded:by=instagram foursquare:venue=49bee48bf964a520ed541fe3
license: 1
latitude: 40.75616
longitude: -73.990178
accuracy: 16
views: 10
interestingness: 155 out of 145

photo: 6433641507 d394b392cb 7175
owner: 29049566@N07
title: Wet Thursday Morning
originalsecret: 602755c147
originalformat: jpg
o_height: 612
o_width: 612
datetaken: 2011-12-01 08:35:16
dateupload: 1322699716
tags: square squareformat hudson iphoneography instagramapp uploaded:by=instagram foursquare:venue=4cb3cb5d562d224b19833088
license: 0
latitude: 1.387269
longitude: 103.873034
accuracy: 16
views: 1
interestingness: 156 out of 145

photo: 6433639049 0c426fb8dd 7003
owner: 69379705@N00
title: ????
originalsecret: 2e2ec7f7d4
originalformat: jpg
o_height: 612
o_width: 612
datetaken: 2011-12-01 09:34:40
dateupload: 1322699680
tags: square squareformat normal iphoneography instagramapp uploaded:by=instagram foursquare:venue=4bd44002a8b3a593a66f6b5f
license: 1
latitude: 35.170756
longitude: 136.941876
accuracy: 16
views: 1
interestingness: 157 out of 145

photo: 6433635169 c28a381554 7030
owner: 69379705@N00
title: ???
originalsecret: 6a3fa6b9ea
originalformat: jpg
o_height: 612
o_width: 612
datetaken: 2011-12-01 09:33:46
dateupload: 1322699626
tags: square squareformat normal iphoneography instagramapp uploaded:by=instagram foursquare:venue=4bd44002a8b3a593a66f6b5f
license: 1
latitude: 35.170756
longitude: 136.941876
accuracy: 16
views: 1
interestingness: 158 out of 145

photo: 6433634759 31f0b4aeb1 7175
owner: 96048081@N00
title: Pegaci?n na #boringparty #julinhaloviu #amor
originalsecret: null
originalformat: null
o_height: null
o_width: null
datetaken: 2011-11-30 22:33:40
dateupload: 1322699620
tags: square squareformat lomofi iphoneography instagramapp uploaded:by=instagram foursquare:venue=4ceaffc94cdf8eec0def51d1
license: 0
latitude: -23.561362
longitude: -46.69441
accuracy: 16
views: 0
interestingness: 159 out of 145

photo: 6433634721 dbf8d8cbaa 7027
owner: 11392473@N06
title: ??
originalsecret: null
originalformat: null
o_height: null
o_width: null
datetaken: 2011-12-01 08:33:40
dateupload: 1322699620
tags: square nashville squareformat iphoneography instagramapp uploaded:by=instagram foursquare:venue=4e1af48de4cd4e4502fd6485
license: 0
latitude: 22.333514
longitude: 114.196881
accuracy: 16
views: 0
interestingness: 160 out of 145

photo: 6433631597 349ff81fd1 7169
owner: 43358741@N00
title: Pie and cookies tonight
originalsecret: a05743e360
originalformat: jpg
o_height: 612
o_width: 612
datetaken: 2011-11-30 19:32:56
dateupload: 1322699576
tags: square squareformat normal iphoneography instagramapp uploaded:by=instagram foursquare:venue=4a294f81f964a5207e951fe3
license: 0
latitude: 40.730869
longitude: -73.982992
accuracy: 16
views: 1
interestingness: 161 out of 145

photo: 6433622755 0c3e463c2a 7154
owner: 45061923@N06
title: sunset pdx, early winter 2011, se belmont & caesar chavez blvd.
originalsecret: null
originalformat: null
o_height: null
o_width: null
datetaken: 2011-11-30 16:30:46
dateupload: 1322699446
tags: square squareformat lomofi iphoneography instagramapp uploaded:by=instagram foursquare:venue=4c27e4efe19720a1f931f758
license: 0
latitude: 45.516543
longitude: -122.622634
accuracy: 16
views: 0
interestingness: 162 out of 145

photo: 6433621127 dcae4d2c03 7016
owner: 88774309@N00
title: Hella lights
originalsecret: 2af4633c57
originalformat: jpg
o_height: 612
o_width: 612
datetaken: 2011-11-30 16:30:22
dateupload: 1322699422
tags: square squareformat rise iphoneography instagramapp uploaded:by=instagram foursquare:venue=4161e400f964a520721d1fe3
license: 4
latitude: 40.759901
longitude: -73.980363
accuracy: 16
views: 1
interestingness: 163 out of 145

photo: 6433614857 e8728a9694 7154
owner: 12716287@N00
title: ????????
originalsecret: 0c14f8862f
originalformat: jpg
o_height: 612
o_width: 612
datetaken: 2011-12-01 09:28:48
dateupload: 1322699328
tags: square squareformat lomofi iphoneography instagramapp uploaded:by=instagram foursquare:venue=4b132d4af964a520249523e3
license: 0
latitude: 35.668224
longitude: 139.601139
accuracy: 16
views: 0
interestingness: 164 out of 145

photo: 6433612357 f6a90c0fc9 7172
owner: 18592207@N03
title: Late evenings
originalsecret: null
originalformat: null
o_height: null
o_width: null
datetaken: 2011-11-30 19:28:12
dateupload: 1322699292
tags: square squareformat brannan iphoneography instagramapp uploaded:by=instagram foursquare:venue=4b91b1bdf964a5206fd033e3
license: 0
latitude: 39.286582
longitude: -76.60515
accuracy: 16
views: 1
interestingness: 165 out of 145

photo: 6433595175 ae43150387 7141
owner: 88774309@N00
title: Bieber Hunting
originalsecret: 01f651aa86
originalformat: jpg
o_height: 612
o_width: 612
datetaken: 2011-11-30 16:23:56
dateupload: 1322699036
tags: square squareformat rise iphoneography instagramapp uploaded:by=instagram foursquare:venue=4161e400f964a520721d1fe3
license: 4
latitude: 40.759901
longitude: -73.980363
accuracy: 16
views: 3
interestingness: 166 out of 145

photo: 6433594365 0740286dee 7028
owner: 56977631@N02
title: A man will turn over half a library to make one book. - Samuel Johnson
originalsecret: null
originalformat: null
o_height: null
o_width: null
datetaken: 2011-12-01 08:23:45
dateupload: 1322699025
tags: square squareformat normal iphoneography instagramapp uploaded:by=instagram foursquare:venue=4b0e0610f964a520085423e3
license: 0
latitude: 1.332744
longitude: 103.739497
accuracy: 16
views: 0
interestingness: 167 out of 145

photo: 6433593773 1495df8240 7155
owner: 31197412@N08
title: ??? ?????????????
originalsecret: 33ddbd9b87
originalformat: jpg
o_height: 612
o_width: 612
datetaken: 2011-12-01 09:23:37
dateupload: 1322699017
tags: square squareformat normal iphoneography instagramapp uploaded:by=instagram foursquare:venue=4ca6d40aa643b7130e7ee7a6
license: 0
latitude: 35.662625
longitude: 139.717125
accuracy: 16
views: 0
interestingness: 168 out of 145

photo: 6433591803 2322714d32 7166
owner: 52883897@N00
title: Decommissioned
originalsecret: 89728e8431
originalformat: jpg
o_height: 612
o_width: 612
datetaken: 2011-11-30 16:23:11
dateupload: 1322698991
tags: square squareformat inkwell iphoneography instagramapp uploaded:by=instagram foursquare:venue=4b71b72bf964a5201e582de3
license: 3
latitude: 22.23103
longitude: -159.401879
accuracy: 16
views: 3
interestingness: 169 out of 145

photo: 6433585977 e985db916d 7022
owner: 97156490@N00
title: Wino
originalsecret: 8bb4f1ab6f
originalformat: jpg
o_height: 612
o_width: 612
datetaken: 2011-11-30 19:21:49
dateupload: 1322698909
tags: square squareformat amaro iphoneography instagramapp uploaded:by=instagram foursquare:venue=4ccdf6962dc437047dbcd108
license: 0
latitude: 26.958572
longitude: -80.084141
accuracy: 16
views: 8
interestingness: 170 out of 145

photo: 6433585803 1d0fd44838 7168
owner: 80505420@N00
title: Forest
originalsecret: 58576f85c1
originalformat: jpg
o_height: 612
o_width: 612
datetaken: 2011-11-30 16:21:46
dateupload: 1322698906
tags: square squareformat hudson iphoneography instagramapp uploaded:by=instagram foursquare:venue=4be894da88ed2d7ff911cc1d
license: 0
latitude: 19.429586
longitude: -155.257451
accuracy: 16
views: 1
interestingness: 171 out of 145

photo: 6433584365 7e794d84bf 7014
owner: 96133611@N00
title: Back in baires
originalsecret: null
originalformat: null
o_height: null
o_width: null
datetaken: 2011-11-30 21:21:24
dateupload: 1322698884
tags: square squareformat normal iphoneography instagramapp uploaded:by=instagram foursquare:venue=4b50f6f7f964a520e13a27e3
license: 0
latitude: -34.556958
longitude: -58.414008
accuracy: 16
views: 0
interestingness: 172 out of 145

photo: 6433573625 334993ea5a 7008
owner: 20278762@N00
title: Sunset over Latona
originalsecret: e91d9121e1
originalformat: jpg
o_height: 612
o_width: 612
datetaken: 2011-11-30 18:18:41
dateupload: 1322698721
tags: square squareformat lomofi iphoneography instagramapp uploaded:by=instagram foursquare:venue=49f1121df964a52088691fe3
license: 2
latitude: 47.68145
longitude: -122.327003
accuracy: 16
views: 15
interestingness: 173 out of 145

photo: 6433572469 6985bdecdf 7173
owner: 80505420@N00
title: Sulphur vents
originalsecret: ea487f748b
originalformat: jpg
o_height: 612
o_width: 612
datetaken: 2011-11-30 16:18:24
dateupload: 1322698704
tags: square squareformat hefe iphoneography instagramapp uploaded:by=instagram foursquare:venue=4c5f5ce7cd522d7fe9f9cb3f
license: 0
latitude: 19.431362
longitude: -155.261877
accuracy: 16
views: 0
interestingness: 174 out of 145

photo: 6433571273 aefa7793cf 7160
owner: 25648653@N05
title: Walking dog
originalsecret: 53bf839bc0
originalformat: jpg
o_height: 612
o_width: 612
datetaken: 2011-11-30 16:18:05
dateupload: 1322698685
tags: square squareformat iphoneography instagramapp xproii uploaded:by=instagram foursquare:venue=4ba17368f964a5201fb837e3
license: 0
latitude: 47.693125
longitude: -122.126169
accuracy: 16
views: 0
interestingness: 175 out of 145

photo: 6433563475 3bdcb6d6de 7008
owner: 54911002@N03
title: ?????????
originalsecret: 1c73140e34
originalformat: jpg
o_height: 612
o_width: 612
datetaken: 2011-12-01 09:16:01
dateupload: 1322698561
tags: square squareformat hudson iphoneography instagramapp uploaded:by=instagram foursquare:venue=4daa6022cda1652a2b8c9d25
license: 0
latitude: 35.629925
longitude: 139.254938
accuracy: 16
views: 1
interestingness: 176 out of 145

photo: 6433563333 3b76e3657f 7168
owner: 25648653@N05
title: Backpacking it again
originalsecret: c506cf7f5e
originalformat: jpg
o_height: 612
o_width: 612
datetaken: 2011-11-30 16:15:59
dateupload: 1322698559
tags: square squareformat iphoneography instagramapp xproii uploaded:by=instagram foursquare:venue=4ba17368f964a5201fb837e3
license: 0
latitude: 47.693125
longitude: -122.126169
accuracy: 16
views: 0
interestingness: 177 out of 145

photo: 6433557399 79011e2de9 7033
owner: 37943725@N04
title: study session 4
originalsecret: null
originalformat: null
o_height: null
o_width: null
datetaken: 2011-11-30 19:14:14
dateupload: 1322698454
tags: square squareformat brannan iphoneography instagramapp uploaded:by=instagram foursquare:venue=49e7cf89f964a5201f651fe3
license: 0
latitude: 42.367793
longitude: -71.187144
accuracy: 16
views: 4
interestingness: 178 out of 145

photo: 6433555455 04bc9b65c2 7016
owner: 68877041@N08
title: Looking for a home #takata #nardi #worksbell
originalsecret: null
originalformat: null
o_height: null
o_width: null
datetaken: 2011-11-30 19:13:40
dateupload: 1322698420
tags: square squareformat hudson iphoneography instagramapp uploaded:by=instagram foursquare:venue=4d5aed07296d5481b2a968b1
license: 0
latitude: 28.450716
longitude: -81.438469
accuracy: 16
views: 0
interestingness: 179 out of 145

photo: 6433553451 ff9ccae3a5 7021
owner: 28383744@N00
title: M?d? & Virgil
originalsecret: null
originalformat: null
o_height: null
o_width: null
datetaken: 2011-11-30 16:13:07
dateupload: 1322698387
tags: square nashville squareformat iphoneography instagramapp uploaded:by=instagram foursquare:venue=4c95178ef7cfa1cdb137ba15
license: 0
latitude: 44.431787
longitude: 26.100704
accuracy: 16
views: 1
interestingness: 180 out of 145

photo: 6433552121 b2b5b729f0 7149
owner: 25863002@N03
title: #Bazafro bombando Com @larissaluzara @MagaryLord
originalsecret: null
originalformat: null
o_height: null
o_width: null
datetaken: 2011-11-30 22:12:45
dateupload: 1322698365
tags: square squareformat earlybird iphoneography instagramapp uploaded:by=instagram foursquare:venue=4e19215bc65b6bfb59161be4
license: 0
latitude: -13.012679
longitude: -38.491412
accuracy: 16
views: 4
interestingness: 181 out of 145

photo: 6433549657 4bd74cd86a 7173
owner: 47439768@N08
title: Sunset TC.
originalsecret: a8a04d0d7b
originalformat: jpg
o_height: 612
o_width: 612
datetaken: 2011-11-30 16:12:03
dateupload: 1322698323
tags: square squareformat rise iphoneography instagramapp uploaded:by=instagram foursquare:venue=4a98806cf964a520632c20e3
license: 0
latitude: 45.510166
longitude: -122.781778
accuracy: 16
views: 17
interestingness: 182 out of 145

photo: 6433543439 2a9a0b98dd 7143
owner: 24591843@N08
title: #jfkt5 #jetblue #jfk #xmas #christmas #hudson #iphone4s #terminal5
originalsecret: null
originalformat: null
o_height: null
o_width: null
datetaken: 2011-12-01 09:10:18
dateupload: 1322698218
tags: square squareformat hudson iphoneography instagramapp uploaded:by=instagram foursquare:venue=49c046f1f964a5205b551fe3
license: 2
latitude: 40.645577
longitude: -73.776433
accuracy: 16
views: 4
interestingness: 183 out of 145

photo: 6433533067 079a235444 7017
owner: 77751386@N00
title: dirty thirty #crazyhair #gpoyw
originalsecret: 601408126a
originalformat: jpg
o_height: 612
o_width: 612
datetaken: 2011-11-30 14:07:29
dateupload: 1322698049
tags: square squareformat brannan iphoneography instagramapp uploaded:by=instagram foursquare:venue=4c89b3266418a14352c5d9ce
license: 0
latitude: 21.386537
longitude: -158.007085
accuracy: 16
views: 0
interestingness: 184 out of 145

photo: 6433532037 40de8ff44a 7006
owner: 58159433@N05
title: Amazing
originalsecret: c362e142f1
originalformat: jpg
o_height: 612
o_width: 612
datetaken: 2011-11-30 19:07:13
dateupload: 1322698033
tags: square squareformat amaro iphoneography instagramapp uploaded:by=instagram foursquare:venue=4ada6d36f964a520802221e3
license: 0
latitude: 43.64898
longitude: -79.420601
accuracy: 16
views: 0
interestingness: 185 out of 145

photo: 6433526807 b5ae5c34d8 7006
owner: 26549508@N08
title: J? ? Natal no Humait?.
originalsecret: null
originalformat: null
o_height: null
o_width: null
datetaken: 2011-11-30 22:05:47
dateupload: 1322697947
tags: square squareformat lordkelvin iphoneography instagramapp uploaded:by=instagram foursquare:venue=4d3e2ac76b3d236ad1607064
license: 0
latitude: -22.959999
longitude: -43.202333
accuracy: 16
views: 0
interestingness: 186 out of 145

photo: 6433510319 b3925aec96 7141
owner: 43073036@N00
title: Ahhhhh
originalsecret: null
originalformat: null
o_height: null
o_width: null
datetaken: 2011-11-30 22:01:18
dateupload: 1322697678
tags: square squareformat normal iphoneography instagramapp uploaded:by=instagram foursquare:venue=4e6cc7dc52b14562867bb874
license: 3
latitude: -20.429661
longitude: -51.343819
accuracy: 16
views: 2
interestingness: 187 out of 145

photo: 6433509593 097290a3aa 7168
owner: 87314317@N00
title: Autores, diretores e elenco do Pizza 2. Foto de @bmmello
originalsecret: null
originalformat: null
o_height: null
o_width: null
datetaken: 2011-11-30 22:01:05
dateupload: 1322697665
tags: square squareformat normal iphoneography instagramapp uploaded:by=instagram foursquare:venue=4b058728f964a520b08222e3
license: 0
latitude: -22.973855
longitude: -43.226971
accuracy: 16
views: 4
interestingness: 188 out of 145

photo: 6433507115 15527c76eb 7029
owner: 32515924@N03
title: Golden light
originalsecret: 91133dc543
originalformat: jpg
o_height: 612
o_width: 612
datetaken: 2011-11-30 18:00:27
dateupload: 1322697627
tags: square squareformat rise iphoneography instagramapp uploaded:by=instagram foursquare:venue=4bce14d8b6c49c749f839691
license: 3
latitude: 44.046534
longitude: -123.074222
accuracy: 16
views: 0
interestingness: 189 out of 145

photo: 6434050119 556a8bc598 7020
owner: 23987742@N02
title: look at these two girls, just look at them!
originalsecret: a46240a9dd
originalformat: jpg
o_height: 612
o_width: 612
datetaken: 2011-11-30 21:15:50
dateupload: 1322705750
tags: square squareformat amaro iphoneography instagramapp uploaded:by=instagram
license: 0
latitude: 43.50975
longitude: -70.38252
accuracy: 16
views: 2
interestingness: 190 out of 145

photo: 6433932305 02c69e7b2f 7017
owner: 49635094@N00
title: Along the Canal 2
originalsecret: 747fb57ea9
originalformat: jpg
o_height: 612
o_width: 612
datetaken: 2011-11-30 17:47:42
dateupload: 1322704062
tags: square squareformat rise iphoneography instagramapp uploaded:by=instagram
license: 0
latitude: 34.1902
longitude: -118.5933
accuracy: 16
views: 0
interestingness: 191 out of 145

photo: 6433920717 7b285ec7df 7006
owner: 50818025@N00
title: #pier45 at #sunset
originalsecret: a1ceedfb7e
originalformat: jpg
o_height: 612
o_width: 612
datetaken: 2011-11-30 17:44:39
dateupload: 1322703879
tags: square squareformat hefe iphoneography instagramapp uploaded:by=instagram
license: 0
latitude: 37.81049
longitude: -122.4176
accuracy: 16
views: 1
interestingness: 192 out of 145

photo: 6433882417 71b3d5a5dd 7025
owner: 7208465@N08
title: ???????
originalsecret: null
originalformat: null
o_height: null
o_width: null
datetaken: 2011-12-01 09:34:55
dateupload: 1322703295
tags: square squareformat lomofi iphoneography instagramapp uploaded:by=instagram
license: 0
latitude: 24.98983
longitude: 121.5273
accuracy: 16
views: 1
interestingness: 193 out of 145

photo: 6433803505 1be5a45301 7153
owner: 48611646@N05
title: #seveneleven #cafe #kohi
originalsecret: null
originalformat: null
o_height: null
o_width: null
datetaken: 2011-12-01 10:15:39
dateupload: 1322702139
tags: square squareformat normal iphoneography instagramapp uploaded:by=instagram
license: 0
latitude: 34.67326
longitude: 135.6151
accuracy: 16
views: 0
interestingness: 194 out of 145

photo: 6433784087 d593688b43 7152
owner: 23002103@N02
title: Just chilling by the pond #byronbay #nsw
originalsecret: 9f84d02ba8
originalformat: jpg
o_height: 612
o_width: 612
datetaken: 2011-12-01 01:10:54
dateupload: 1322701854
tags: square squareformat iphoneography instagramapp uploaded:by=instagram foursquare:venue=4bb5d8f72f70c9b6408e8430
license: 4
latitude: -28.644705
longitude: 153.605067
accuracy: 16
views: 2
interestingness: 195 out of 145

photo: 6433768733 608ca72244 7167
owner: 37724699@N04
title: thanks~*
originalsecret: null
originalformat: null
o_height: null
o_width: null
datetaken: 2011-12-01 10:07:04
dateupload: 1322701624
tags: square squareformat hefe iphoneography instagramapp uploaded:by=instagram
license: 0
latitude: 37.48117
longitude: 126.9978
accuracy: 16
views: 0
interestingness: 196 out of 145

photo: 6433733203 9080f63363 7035
owner: 48129490@N07
title: Push On Thru. | #toronto #rexdale #silverstone #riders #cyclists #igtoronto #igerstoronto
originalsecret: null
originalformat: null
o_height: null
o_width: null
datetaken: 2011-11-30 19:58:14
dateupload: 1322701094
tags: square squareformat normal iphoneography instagramapp uploaded:by=instagram
license: 0
latitude: 43.70256
longitude: -79.5489
accuracy: 16
views: 0
interestingness: 197 out of 145

photo: 6433708709 82225ae024 7003
owner: 44412893@N02
title: MELBOURNE
originalsecret: b4323780c8
originalformat: jpg
o_height: 612
o_width: 612
datetaken: 2011-12-01 08:51:46
dateupload: 1322700706
tags: square squareformat hefe iphoneography instagramapp uploaded:by=instagram
license: 0
latitude: -37.827141
longitude: 145.046997
accuracy: 7
views: 2
interestingness: 198 out of 145

photo: 6433708227 9126a5922b 7026
owner: 54177821@N03
title: The mall, Gran Estaci?n, back again in Bogot?,
originalsecret: null
originalformat: null
o_height: null
o_width: null
datetaken: 2011-11-30 19:51:37
dateupload: 1322700697
tags: square squareformat hefe iphoneography instagramapp uploaded:by=instagram
license: 0
latitude: 4.647833
longitude: -74.1015
accuracy: 16
views: 0
interestingness: 199 out of 145

photo: 6433684405 376d7e0397 7028
owner: 38780705@N03
title: mojo!
originalsecret: 1a3e508fbc
originalformat: jpg
o_height: 612
o_width: 612
datetaken: 2011-11-30 19:45:56
dateupload: 1322700356
tags: square squareformat amaro iphoneography instagramapp uploaded:by=instagram
license: 0
latitude: 37.7745
longitude: -122.4152
accuracy: 16
views: 6
interestingness: 200 out of 145

photo: 6433666573 5344b72855 7028
owner: 28464353@N06
title: a escada
originalsecret: null
originalformat: null
o_height: null
o_width: null
datetaken: 2011-11-30 22:41:42
dateupload: 1322700102
tags: square squareformat hefe iphoneography instagramapp uploaded:by=instagram
license: 0
latitude: -23.69596
longitude: -46.54614
accuracy: 16
views: 1
interestingness: 201 out of 145

photo: 6433630915 47126c4416 7005
owner: 59088180@N02
title: A.K.A. #chester and #charlie 's heaven!
originalsecret: null
originalformat: null
o_height: null
o_width: null
datetaken: 2011-11-30 18:32:47
dateupload: 1322699567
tags: square squareformat iphoneography instagramapp uploaded:by=instagram foursquare:venue=4b1ad33ef964a5209df223e3
license: 0
latitude: 32.754076
longitude: -97.352364
accuracy: 16
views: 2
interestingness: 202 out of 145

photo: 6433617397 93b2e3c015 7173
owner: 92128427@N00
title: 
originalsecret: null
originalformat: null
o_height: null
o_width: null
datetaken: 2011-11-30 19:59:27
dateupload: 1322699367
tags: square squareformat normal iphoneography instagramapp uploaded:by=instagram
license: 0
latitude: 10.46548
longitude: -66.59048
accuracy: 16
views: 1
interestingness: 203 out of 145

photo: 6433606279 e73640aa6a 7157
owner: 32085324@N06
title: After the final presentation
originalsecret: 2f904b39c3
originalformat: jpg
o_height: 612
o_width: 612
datetaken: 2011-12-01 07:26:43
dateupload: 1322699203
tags: square squareformat amaro iphoneography instagramapp uploaded:by=instagram
license: 0
latitude: 50.91728
longitude: -1.400114
accuracy: 16
views: 1
interestingness: 204 out of 145

photo: 6433605313 4b849a97fa 7158
owner: 43367529@N00
title: 
originalsecret: b2ffbb3ccd
originalformat: jpg
o_height: 612
o_width: 612
datetaken: 2011-11-30 19:26:28
dateupload: 1322699188
tags: square squareformat normal iphoneography instagramapp uploaded:by=instagram
license: 0
latitude: 41.18365
longitude: -73.54197
accuracy: 16
views: 4
interestingness: 205 out of 145

photo: 6433595127 732753aa7a 7154
owner: 83795895@N00
title: My lap dog for the week
originalsecret: fc8c1806f0
originalformat: jpg
o_height: 612
o_width: 612
datetaken: 2011-11-30 16:23:55
dateupload: 1322699035
tags: valencia square squareformat iphoneography instagramapp uploaded:by=instagram
license: 0
latitude: 40.53283
longitude: -75.50066
accuracy: 16
views: 1
interestingness: 206 out of 145

photo: 6433584823 05d3b77f16 7164
owner: 96133611@N00
title: Startup competition day2 #redinnova
originalsecret: null
originalformat: null
o_height: null
o_width: null
datetaken: 2011-11-30 21:21:31
dateupload: 1322698891
tags: square squareformat normal iphoneography instagramapp uploaded:by=instagram
license: 0
latitude: -23.56422
longitude: -46.69409
accuracy: 16
views: 0
interestingness: 207 out of 145

photo: 6433570873 edfc8db819 7156
owner: 10570305@N07
title: All I post are #seattle #sunset  I need to branch out.
originalsecret: e156de7f56
originalformat: jpg
o_height: 612
o_width: 612
datetaken: 2011-11-30 19:17:58
dateupload: 1322698678
tags: square squareformat hefe iphoneography instagramapp uploaded:by=instagram
license: 0
latitude: 47.621245
longitude: -122.361722
accuracy: 15
views: 10
interestingness: 208 out of 145

photo: 6433517271 90e25376b5 7005
owner: 66266120@N00
title: Picture on a perfect rainy day...
originalsecret: null
originalformat: null
o_height: null
o_width: null
datetaken: 2011-12-01 08:03:13
dateupload: 1322697793
tags: square squareformat iphoneography instagramapp xproii uploaded:by=instagram
license: 0
latitude: 1.350399
longitude: 103.848747
accuracy: 11
views: 8
interestingness: 209 out of 145

photo: 6433514943 f65b2480dd 7022
owner: 41541762@N00
title: 
originalsecret: null
originalformat: null
o_height: null
o_width: null
datetaken: 2011-11-30 16:02:34
dateupload: 1322697754
tags: square squareformat normal iphoneography instagramapp uploaded:by=instagram
license: 0
latitude: 38.932974
longitude: -74.96212
accuracy: 11
views: 0
interestingness: 210 out of 145


mintime: 1322706597.89 maxtime: 1322719108.67
numimgs: 311
total pages: 2
visiting only 2 pages ( up to 500 images)
photo: 6425622847 8be1967bcd 6214
owner: 22636309@N06
title: Kt@Awajishima Waterfall
originalsecret: null
originalformat: null
o_height: null
o_width: null
datetaken: 2011-08-11 10:33:11
dateupload: 1322711797
tags: park light portrait people woman white black flower sexy slr art water girl beautiful japan umbrella canon dark asian photography waterfall interesting women natural bokeh good feminine awesome flash explore more most portraiture mostinteresting ambient 5d format canon5d dslr softbox reflector tomomi ? ?? ? ?????? ? ?? aiya awajishima ilko asianbeauty ??? ?? chinen ???? strobist ???? 80x60 ?????? beautyshoots allexandroff ???
license: 0
latitude: 34.309923
longitude: 134.876695
accuracy: 12
views: 972
interestingness: 1 out of 311

photo: 6434429187 6cf6112b14 7006
owner: 7370135@N03
title: 166/365- Birds and branches
originalsecret: null
originalformat: null
o_height: null
o_width: null
datetaken: 2011-11-30 22:49:03
dateupload: 1322711343
tags: sky cloud bird birds clouds photography florida cloudy o branches darkclouds matic apps group3 iphone cwd project365 i365 iphone4 takeaclasswithdaveanddave pixlr iphonography elineart elineartphotography birdsandbranches iphone365 snapseed cwd2511 cwd2511~birdorbirds
license: 0
latitude: 26.272489
longitude: -80.253059
accuracy: 11
views: 104
interestingness: 2 out of 311

photo: 6434320571 968d009686 7152
owner: 7370135@N03
title: 165/365- Light at the end
originalsecret: null
originalformat: null
o_height: null
o_width: null
datetaken: 2011-11-30 22:22:55
dateupload: 1322709775
tags: light blackandwhite bw white black photography florida photos o theend tunnel end matic apps group3 iphone odc project365 blackwhitephotos lightattheend i365 iphone4 pixlr iphonography elineart elineartphotography iphone365 ourdailychallenge snapseed
license: 0
latitude: 26.272489
longitude: -80.253059
accuracy: 11
views: 81
interestingness: 3 out of 311

photo: 6434670437 3fdd24367c 7147
owner: 93254204@N00
title: I'm Too...
originalsecret: null
originalformat: null
o_height: null
o_width: null
datetaken: 2011-11-30 10:58:52
dateupload: 1322714908
tags: autumn holland fall netherlands amsterdam europe wicked nophotoshop lifeisgood android app carpediem htc 2011 mobilephonecam amstersam reflectah amstersm amsterdamthebestcityintheworld reflectionsofamsterdam checkoutmywebsitewwwamstersamcom wickedreflections thewickedreflectah amstersmthewickedreflectah htcdesire camera360 htcdesiremobilephonecam
license: 0
latitude: 52.372887
longitude: 4.892821
accuracy: 14
views: 170
interestingness: 4 out of 311

photo: 6434437255 10358f0322 7023
owner: 53117932@N05
title: Post Osorno y ceniza del cord?n caulle, aqu? estoy.
originalsecret: null
originalformat: null
o_height: null
o_width: null
datetaken: 2011-12-01 00:51:00
dateupload: 1322711460
tags: square squareformat iphoneography instagramapp xproii uploaded:by=instagram
license: 0
latitude: -39.818689
longitude: -73.229026
accuracy: 11
views: 19
interestingness: 5 out of 311

photo: 6434759557 4b638eee8a 7001
owner: 44124472358@N01
title: Dinner at Book Bindery
originalsecret: null
originalformat: null
o_height: null
o_width: null
datetaken: 2011-11-30 21:14:04
dateupload: 1322716444
tags: food iphone bookbindery project365 dipticapp
license: 0
latitude: 47.647833
longitude: -122.352834
accuracy: 16
views: 92
interestingness: 6 out of 311

photo: 6434294985 8f8cc2116e 7150
owner: 64360454@N02
title: Roof is on lighter!
originalsecret: ebed52b089
originalformat: jpg
o_height: 612
o_width: 612
datetaken: 2011-12-01 04:16:20
dateupload: 1322709380
tags: contrast square photography squareformat ombres amaro iphotography iphonephotography iphoneography instagram instagramapp uploaded:by=instagram instragram instagramer instagramuser instagramhub
license: 0
latitude: 51.22208
longitude: 4.397709
accuracy: 11
views: 44
interestingness: 7 out of 311

photo: 6434109021 fbc5774c9a 7173
owner: 32148883@N02
title: Welcome to Lincoln Center. #NYC
originalsecret: null
originalformat: null
o_height: null
o_width: null
datetaken: 2011-11-30 21:30:00
dateupload: 1322706600
tags: square squareformat earlybird iphoneography instagramapp uploaded:by=instagram foursquare:venue=4ad507bff964a520660121e3
license: 0
latitude: 40.772238
longitude: -73.982732
accuracy: 16
views: 142
interestingness: 8 out of 311

photo: 6434208793 7c326f68b3 7011
owner: 27418263@N06
title: 38/365: When You Are Old
originalsecret: null
originalformat: null
o_height: null
o_width: null
datetaken: 2011-11-30 18:54:19
dateupload: 1322708059
tags: old square poem sleep squareformat yeats inkwell williambutleryeats totw iphoneography instagramapp uploaded:by=instagram
license: 0
latitude: 37.91495
longitude: -122.307586
accuracy: 9
views: 13
interestingness: 9 out of 311

photo: 6434230007 7d231caebb 7011
owner: 33884801@N02
title: Sea Lions! Unfortunately, no Sea Lambs in sight ;(
originalsecret: d4c6ba62bd
originalformat: jpg
o_height: 612
o_width: 612
datetaken: 2011-11-30 22:00:19
dateupload: 1322708419
tags: square squareformat lomofi iphoneography instagramapp uploaded:by=instagram foursquare:venue=4bf1be9b78cec928dec3ba86
license: 0
latitude: 22.887988
longitude: -109.904854
accuracy: 16
views: 22
interestingness: 10 out of 311

photo: 6434601869 fd2989455b 7172
owner: 10788219@N00
title: Eat your heart out Mariah!
originalsecret: null
originalformat: null
o_height: null
o_width: null
datetaken: 2011-11-30 20:31:08
dateupload: 1322713868
tags: toronto ontario canada square squareformat normal mariahcarey jennycraig iphoneography icecreamdairyqueen instagramapp uploaded:by=instagram snapseed foursquare:venue=4bb13e55f964a52092863ce3
