
mintime: 1322697600 maxtime: 1322771381.02
numimgs: 241
total pages: 1
visiting only 1 pages ( up to 250 images)
photo: 6435796803 5665821986 7035
owner: 54880604@N06
title: The Forbidden Great Wall of China, Shuiguan
originalsecret: null
originalformat: null
o_height: null
o_width: null
datetaken: 2011-11-14 15:03:29
dateupload: 1322739510
tags: china original people blackandwhite bw man black wall pen landscape solitude olympus walker mann greatwall schwarzweiss schwarz 45mm theblackstar addeadesokan
license: 0
latitude: 36.894451
longitude: 104.165649
accuracy: 2
views: 430
interestingness: 1 out of 241

photo: 429323695 71073b412b 148
owner: 99398068@N00
title: mice in venice # 4
originalsecret: null
originalformat: null
o_height: null
o_width: null
datetaken: 1984-10-01 00:00:00
dateupload: 1322720728
tags: leica venice blackandwhite bw italy film water 35mm mouse glasses blackwhite comic boots noiretblanc circus clown mice oar actor gondola venezia cirque gondolier artiste canalgrande mostexcellent leobassi noireblanc artlibre bwphotoaward artandphotography antipodist manuelcristaldi thebestnothingelse feltlife coolestphotographers thebestgallery myverypersonalbw
license: 0
latitude: 45.430985
longitude: 12.329521
accuracy: 11
views: 552
interestingness: 2 out of 241

photo: 6436606147 79bcbbb146 7164
owner: 33618837@N02
title: Staircase for fire exit in Musikverein - Vienna, Wien
originalsecret: 203c039a67
originalformat: jpg
o_height: 775
o_width: 1032
datetaken: 2011-11-06 20:27:45
dateupload: 1322753261
tags: vienna wien stairs austria staircase redcarpet fireexit balustrades ironwrought musikverein
license: 0
latitude: 48.200965
longitude: 16.37142
accuracy: 15
views: 375
interestingness: 3 out of 241

photo: 6437082423 3be326d697 7158
owner: 59096591@N07
title: ? Birthday Gift for Model (Mai Qu?nh and Me)
originalsecret: null
originalformat: null
o_height: null
o_width: null
datetaken: 2011-12-01 21:51:52
dateupload: 1322759624
tags: 
license: 0
latitude: 10.839667
longitude: 106.6735
accuracy: 16
views: 1306
interestingness: 4 out of 241

photo: 6436286829 f4a19a5a7e 7165
owner: 48945861@N06
title: European Starling in Flight
originalsecret: null
originalformat: null
o_height: null
o_width: null
datetaken: 2011-11-07 16:58:34
dateupload: 1322748566
tags: california canon bravo ngc handheld europeanstarling sturnusvulgaris playadelrey naturesfinest supershot explored ?allrightsreserved specanimal ballonawetlandsecologicalreserve avianexcellence blinkagain bestofblinkwinners ?patriciaware
license: 0
latitude: 33.963713
longitude: -118.4492
accuracy: 16
views: 255
interestingness: 5 out of 241

photo: 6435386387 bda772431a 7152
owner: 34096574@N06
title: Verona : Arena by night
originalsecret: b78c5e5336
originalformat: jpg
o_height: 2806
o_width: 4067
datetaken: 2011-09-25 21:23:57
dateupload: 1322730021
tags: plaza italy night square noche nikon italia place arena verona piazza amphitheater notte rawfile amphith??tre verone d90 ar?nes br? bellitalia nikonpassion nikonflickraward 1685mmf3556 ringexcellence
license: 3
latitude: 45.43898
longitude: 10.99418
accuracy: 16
views: 300
interestingness: 6 out of 241

photo: 6436998139 d88b6e5ff4 7150
owner: 52080577@N04
title: Road to Nowhere
originalsecret: null
originalformat: null
o_height: null
o_width: null
datetaken: 2011-12-01 08:48:30
dateupload: 1322758471
tags: california road ca trees fern landscape photography pacific landscaping path tripod adobe nik pismobeach hdr highdynamicrange highway101 shellbeach onone reallyrightstuff rrs cablerelease mirrorlockup photomatix tonemapping tonemap 11exposures nikond7000 nikkor1635mmf4 markgvazdinskas silentgphotography perfecteffects
license: 0
latitude: 35.154479
longitude: -120.66954
accuracy: 11
views: 204
interestingness: 7 out of 241

photo: 6435491877 9ca9aa5b38 7153
owner: 45152378@N00
title: Dawn on day 28
originalsecret: null
originalformat: null
o_height: null
o_width: null
datetaken: 2011-11-28 08:09:12
dateupload: 1322732576
tags: canoneos5dmkii canonef50mmf12lusm digital digi newyorkcity newyork 5thavenue manhattan usa america steam cyclist dawn sun zebracrossing bicycle bike timbest timbest1972
license: 0
latitude: 40.759083
longitude: -73.976504
accuracy: 14
views: 227
interestingness: 8 out of 241

photo: 6433776991 9161942556 7144
owner: 39539844@N07
title: Pomegranates 3 (Explored)
originalsecret: null
originalformat: null
o_height: null
o_width: null
datetaken: 2011-11-30 17:38:23
dateupload: 1322701751
tags: flowers light stilllife flower color art floral beautiful beauty studio flora colorful dramatic olympus pomegranates sunflowers bloom cutflowers freshflowers greatphotographers studioflash flickrsbest electronicflash zuiko35mmf35macro olympuse30 aphotographersnature ascorflash glixpix quartzlight kevindrenz
license: 0
latitude: 35.060177
longitude: -106.580021
accuracy: 14
views: 256
interestingness: 9 out of 241

photo: 6437221297 8dc29a8c28 7005
owner: 14838182@N00
title: Rooftop views
originalsecret: 85d53fd88d
originalformat: jpg
o_height: 847
o_width: 1641
datetaken: 2011-11-19 10:29:39
dateupload: 1322761400
tags: world life old city morning roof sky urban panorama orange painterly color colour tower history yellow mobile clouds sunrise buildings turkey painting fire gold cosmopolitan colorful paint phone dynamic vibrant minaret painted sony sonyericsson horizon fake cellphone dramatic istanbul mosque roofs explore busy filter blended colourful process multicultural drama effect postprocess galatasaray stitched sweep hdr beyoglu android app edit mosques blend galata x10 incamera thriving multiethnic hdrlike maistora xperia picsay inphone explored1dec11
license: 3
latitude: 41.034094
longitude: 28.983714
accuracy: 16
views: 279
interestingness: 10 out of 241

photo: 6435388517 8955d962ec 7148
owner: 64881935@N06
title: The red fence
originalsecret: 0de033879f
originalformat: jpg
o_height: 667
o_width: 1000
datetaken: 2011-10-14 11:15:54
dateupload: 1322730075
tags: red metal canon fence reading dof bokeh depthoffield berkshire hff canon5dmkii 5dmkii fencefriday
license: 0
latitude: 51.456805
longitude: -0.967368
accuracy: 16
views: 320
interestingness: 11 out of 241

photo: 6436800039 6061e7db82 7014
owner: 29238259@N06
title: Toconao (01)
originalsecret: null
originalformat: null
o_height: null
o_width: null
datetaken: 2011-11-14 18:11:46
dateupload: 1322755848
tags: chile sky car desert wideangle olympus explore atacama desierto frontpage hdr e30 toconao zuico918mm turichile
license: 0
latitude: -23.184629
longitude: -68.000907
accuracy: 12
views: 1655
interestingness: 12 out of 241

photo: 6434426929 c61d911799 7014
owner: 34561876@N07
title: Awe-Inspiring
originalsecret: null
originalformat: null
o_height: null
o_width: null
datetaken: 2011-11-29 16:48:59
dateupload: 1322711310
tags: ocean california november light sunset red sea sky orange sun west color detail reflection beach wet water weather yellow clouds composition contrast photoshop mirror evening coast pier interestingness high cool nice interesting twilight sand exposure flickr paradise surf waves dynamic angle pacific sandiego wind dusk air tide horizon low tripod fine wide perspective smooth clarity calm sharp explore adobe level stunning local capture range tranquil hdr infinite imperialbeach endless photomatix bracketed ef1635mmf28l americasfinestcity cs5 canoneos5dmarkii
license: 0
latitude: 32.579672
longitude: -117.133376
accuracy: 14
views: 619
interestingness: 13 out of 241

photo: 6410775323 64c5347bd9 7026
owner: 48036003@N04
title: Lonely in the Dark
originalsecret: dbe135d4c4
originalformat: jpg
o_height: 3456
o_width: 5184
datetaken: 2011-11-24 13:41:14
dateupload: 1322738047
tags: black love me dark king alone heart you best lonely why k2i4n6g8
license: 0
latitude: 21.439697
longitude: 39.837616
accuracy: 16
views: 309
interestingness: 14 out of 241

photo: 6435877907 58b80bf7ec 7002
owner: 63947271@N06
title: Observatory
originalsecret: null
originalformat: null
o_height: null
o_width: null
datetaken: 2011-11-28 17:28:07
dateupload: 1322741184
tags: uk longexposure blue autumn light reflection night landscape evening scotland edinburgh cityscape wind dusk illumination windy illuminated reflected observatory gusty oldtown caltonhill
license: 0
latitude: 55.955014
longitude: -3.184103
accuracy: 14
views: 245
interestingness: 15 out of 241

photo: 6435873249 20ff69752d 7162
owner: 22643488@N06
title: Trascendeza -bis-
originalsecret: null
originalformat: null
o_height: null
o_width: null
datetaken: 2011-10-10 23:49:45
dateupload: 1322741084
tags: travel blue italy vatican rome roma church nikon italia blu vaticano chiesa viaggio lazio colonne colonna pellegrini seduto d40
license: 0
latitude: 41.901398
longitude: 12.45738
accuracy: 14
views: 158
interestingness: 16 out of 241

photo: 6436004321 7d9e7857e9 7023
owner: 33703183@N03
title: Awakening
originalsecret: null
originalformat: null
o_height: null
o_width: null
datetaken: 2011-11-08 06:11:00
dateupload: 1322743665
tags: sanfrancisco california usa landscape cityscape awakening bayarea sausalito marinheadlands goldenhour sanfranciscocityscape pichayaviwatrujirapong
license: 0
latitude: 37.831399
longitude: -122.47698
accuracy: 16
views: 187
interestingness: 17 out of 241

photo: 6434845123 526e34a940 7027
owner: 38108318@N00
title: Headlights And Taillights Under The Stars
originalsecret: null
originalformat: null
o_height: null
o_width: null
datetaken: 2011-11-29 22:04:11
dateupload: 1322718053
tags: longexposure sky mountain mountains cold nature water weather night stars colorado headlights alpine rockymountains lighttrails cupid taillights allrightsreserved lovelandpass summitcounty continentaldivide lightpollution arapahoebasin grizzlypeak blendedexposures deepskystacker coloradocaptures copyright2011bymikeberenson
license: 0
latitude: 39.654572
longitude: -105.875501
accuracy: 13
views: 118
interestingness: 18 out of 241

photo: 6434737789 da1b500bf7 7158
owner: 49822414@N07
title: Timbrado Canary
originalsecret: 088860afa5
originalformat: jpg
o_height: 2848
o_width: 2930
datetaken: 2011-09-03 16:55:48
dateupload: 1322716053
tags: birds bloedelconservatory africanfinch vancouverattractions jayeshmodha timbradocanary jayeshmodhanikond90 spanishtimbradocanary bloedelconservatorybirds
license: 0
latitude: 49.26044
longitude: -123.114028
accuracy: 11
views: 159
interestingness: 19 out of 241

photo: 6424079087 ba78b21977 7160
owner: 33062170@N08
title: iPod Shuffle2 - Because The Night
originalsecret: null
originalformat: null
o_height: null
o_width: null
datetaken: 2011-11-26 18:10:23
dateupload: 1322745900
tags: street camera uk winter portrait woman white girl smile fashion st lady female night dark hair manchester 50mm evening claire hands women focus soft dof bokeh box circles f14 coat teeth flash style smith off tony ring leopard blond shallow softbox tib hotpix tonysmith strobist bokehbokeh tonysmithhotpix
license: 0
latitude: 53.483251
longitude: -2.23583
accuracy: 15
views: 937
interestingness: 20 out of 241

photo: 6434188953 6d8d8f8431 7009
owner: 48949874@N08
title: Lion Awaits Manna (Raw Meat Balls) from Above at Zoo Atlanta, Georgia
originalsecret: b2353a4b52
originalformat: jpg
o_height: 1600
o_width: 1146
datetaken: 2011-09-25 20:02:52
dateupload: 1322707747
tags: atlanta georgia zoo lion zooatlanta atlantazoo africanlion lionafrican
license: 0
latitude: 33.735823
longitude: -84.37133
accuracy: 15
views: 106
interestingness: 21 out of 241

photo: 6437456043 f5a677f960 7021
owner: 12888173@N00
title: Welcome to Pandora
originalsecret: null
originalformat: null
o_height: null
o_width: null
datetaken: 2011-11-30 17:57:49
dateupload: 1322764613
tags: blue autumn light art field museum night evening twilight bath long exposure bruce wide super tokina installation hdr optic fibre munro 2011 holburne 1116mm 5000bulbs
license: 0
latitude: 51.385488
longitude: -2.351411
accuracy: 16
views: 294
interestingness: 22 out of 241

photo: 6435282789 41f5ca130c 7171
owner: 21506908@N07
title: Peacock Door Chandra Mahal...Jaipur
originalsecret: null
originalformat: null
o_height: null
o_width: null
datetaken: 2006-04-13 07:03:04
dateupload: 1322727480
tags: door india jaipur rajasthan explorewinnersoftheworld peacockdoor
license: 0
latitude: 26.898415
longitude: 75.808158
accuracy: 9
views: 207
interestingness: 23 out of 241

photo: 6432467947 16207caacf 7142
owner: 54595324@N04
title: LRP
originalsecret: 5ce4205986
originalformat: jpg
o_height: 2581
o_width: 3872
datetaken: 2011-07-30 10:06:29
dateupload: 1322704020
tags: auto park italy cars beautiful beauty car rock race america canon eos rebel cool interesting italian automobile italia european day connecticut rear fast ct convertible 360 ferrari best explore cs lime modena expensive rare exclusive challenge fastest extraordinary v8 automobiles naturally stradale limerock pirelli lakeville lrp trofeo 2011 engined explored 200mph aspirated shutterspeedphotos
license: 0
latitude: 41.964271
longitude: -73.440467
accuracy: 11
views: 158
interestingness: 24 out of 241

photo: 6436781019 01e4e40dbe 7019
owner: 49191827@N00
title: cowboys and aliens. los angeles, ca. 2011.
originalsecret: null
originalformat: null
o_height: null
o_width: null
datetaken: 2011-07-16 00:00:00
dateupload: 1322755588
tags: california street red signs cinema color 120 6x6 mamiya film analog mediumformat movie advertising square typography la losangeles boulevard kodak bluesky icon ishootfilm billboard negative socal lamppost hollywood edgewood storefront signage type analogue framing mamiya6 portra labrea midwilshire typographic emulsion greygoose c41 danielcraig 160nc primes kodakportra160nc angeleno eyetwist 6mf mamiya6mf theicon ishootkodak epsonv750pro recentlyprocessedfilm filmexif filmtagger eyetwistkevinballuff colornegativec41 cowboysandaliens
license: 0
latitude: 34.054401
longitude: -118.343396
accuracy: 16
views: 262
interestingness: 25 out of 241

photo: 6436000069 af1952c63d 7001
owner: 38745062@N02
title: Stars over Grand Teton Mountain Range
originalsecret: null
originalformat: null
o_height: null
o_width: null
datetaken: 2011-09-29 01:06:28
dateupload: 1322743588
tags: park sky mountain nature night dark way stars evening twilight shiny long exposure heaven glow shine nightscape time dusk infinity space deep peak grand twinkle astro sparkle galaxy national astrophotography astronomy teton universe exploration range milky cosmic starry cosmos astrology constellation distant milkyway starlight starrynightsky
license: 0
latitude: 43.717961
longitude: -110.660294
accuracy: 16
views: 137
interestingness: 26 out of 241

photo: 6435204733 ab9d4fed0a 7147
owner: 28432918@N04
title: to see a light at the end of the tunnel?
originalsecret: e856d0641b
originalformat: jpg
o_height: 768
o_width: 1024
datetaken: 2011-12-01 15:33:00
dateupload: 1322753580
tags: munich regierungvonoberbayern wernerboehm
license: 0
latitude: 48.138412
longitude: 11.586042
accuracy: 15
views: 92
interestingness: 27 out of 241

photo: 6437683615 8147d5d246 7150
owner: 8402213@N06
title: It is never dark
originalsecret: 73d62212ef
originalformat: jpg
o_height: 1152
o_width: 2048
datetaken: 2011-05-08 11:23:41
dateupload: 1322767742
tags: trust mansbestfriend saarlooswolfhond
license: 0
latitude: 52.375697
longitude: 5.198593
accuracy: 15
views: 379
interestingness: 28 out of 241

photo: 6433626981 be191fcc1d 7027
owner: 40755436@N04
title: Fingerpainters attack
originalsecret: 6c88cc541b
originalformat: jpg
o_height: 768
o_width: 1024
datetaken: 2011-11-30 17:31:49
dateupload: 1322699509
tags: vegas autodesk conference tribute rabbits collaboration ipad sketchbookpro benjaminrabe chrischeung salnavarro au2011 mattseydalconnors jacquespena takakotsur?utani joseantoniofundoandgabrielpalacios
license: 0
latitude: 36.122424
longitude: -115.168873
accuracy: 16
views: 198
interestingness: 29 out of 241

photo: 6435321077 1bd0440a9f 7019
owner: 47226420@N02
title: # Nh?n v?o ??i m?t ?y ?? kh?ng c?n nh? l?c x?a. Th? th?i h?y xa nhau t?m ??n n?i thu?c v?.
originalsecret: null
originalformat: null
o_height: null
o_width: null
datetaken: 2011-11-24 16:19:29
dateupload: 1322728372
tags: colorphotoaward
license: 0
latitude: 10.79542
longitude: 106.648707
accuracy: 15
views: 73
interestingness: 30 out of 241

photo: 6436239153 dd88d1f5c9 7163
owner: 53726327@N03
title: Dont be sad...
originalsecret: null
originalformat: null
o_height: null
o_width: null
datetaken: 2011-12-01 00:21:57
dateupload: 1322747800
tags: whimsicalsadfacesornamentsgoldenexpressionsbokehornamentscreativetreechristmas
license: 0
latitude: 32.296516
longitude: -81.221769
accuracy: 11
views: 97
interestingness: 31 out of 241

photo: 6435820563 fd990014ae 7035
owner: 59214428@N03
title: Mirrored Glass
originalsecret: null
originalformat: null
o_height: null
o_width: null
datetaken: 2011-12-01 19:51:07
dateupload: 1322739986
tags: sunset seascape clouds reflections landscape sand rocks australia textures nsw 5d longreef canoneos5dmark11 longreefheadland johnarmytage wwwjohnarmytagephotographycom canon1635lf28iiusm
license: 0
latitude: -33.741684
longitude: 151.316877
accuracy: 13
views: 128
interestingness: 32 out of 241

photo: 6435414805 b236acb4c7 7016
owner: 44257486@N05
title: Canadian Pacific Holiday Train 2011
originalsecret: null
originalformat: null
o_height: null
o_width: null
datetaken: 2011-12-01 04:07:55
dateupload: 1322730701
tags: trains cp cpr lightroom cprail christmastrain railroadphotography cs5 nikond80 canadianpacificholidaytrain hamiltonphotographer canadianpacificrailwaychristmastrain ?michaelwhrysko2011allrightsreserved mwhphotography TGAM:photodesk=details TGAM:photodesk=architecture
license: 0
latitude: 43.252189
longitude: -79.91131
accuracy: 14
views: 123
interestingness: 33 out of 241

photo: 6436515597 b887c244d8 7173
owner: 51035555243@N01
title: Don't Let Me Fall
originalsecret: 940d8bee5e
originalformat: jpg
o_height: 3744
o_width: 5616
datetaken: 2010-01-04 13:52:13
dateupload: 1322751936
tags: sanfrancisco california bw usa unitedstates 10 unitedstatesofamerica coittower nobhill fav10
license: 2
latitude: 37.791891
longitude: -122.412376
accuracy: 16
views: 182
interestingness: 34 out of 241

photo: 6437336231 992be90c3e 7010
owner: 25937668@N08
title: Sea Witch
originalsecret: 2a76739cdb
originalformat: jpg
o_height: 3098
o_width: 3510
datetaken: 2011-11-30 15:03:23
dateupload: 1322762958
tags: road street uk red england london boat britain speedboat e17 motorboat walthamstow eastlondon seawitch canong12 img5361edwm
license: 0
latitude: 51.588509
longitude: -0.036263
accuracy: 14
views: 122
interestingness: 35 out of 241

photo: 6437839165 e8bfce3e4a 7157
owner: 60270902@N04
title: Sea at dusk
originalsecret: null
originalformat: null
o_height: null
o_width: null
datetaken: 2011-11-13 17:27:28
dateupload: 1322769873
tags: sea seascape water norway clouds landscape coast nikon rocks waves dusk giske sigma18200 ndgradfilter m?reandromsdal d7000
license: 0
latitude: 62.550641
longitude: 6.010894
accuracy: 11
views: 69
interestingness: 36 out of 241

photo: 6435574141 65e876bcd0 7013
owner: 54459739@N08
title: Durham Coalminers
originalsecret: 061db72907
originalformat: jpg
o_height: 669
o_width: 1000
datetaken: 2011-11-30 14:28:07
dateupload: 1322734664
tags: uk november england london 30 canon walking demo march durham britain budget protest smiles photojournalism nov30 explore 99 1984 friendly strike 5d unions nut teachers coal banners northeast cuts crisis num protesters n30 harbinger placards reportage miners markii marchers strikers 2011 pensions publicsector austerity coalnotdole righttowork 30nov
license: 0
latitude: 51.512915
longitude: -0.118081
accuracy: 15
views: 155
interestingness: 37 out of 241

photo: 6435912739 557dffd1ef 7151
owner: 57181139@N03
title: Kazma Meteor
originalsecret: 98a045966e
originalformat: jpg
o_height: 664
o_width: 999
datetaken: 2011-11-24 12:31:17
dateupload: 1322741891
tags: mountains star kuwait starts meteor ???? ???? ???? kazma ???? ????? ???? ???? ?????????
license: 1
latitude: 29.449503
longitude: 47.718681
accuracy: 11
views: 153
interestingness: 38 out of 241

photo: 5223014675 1114fd2fc3 4145
owner: 40848766@N06
title: Car and Snow
originalsecret: f1172995b5
originalformat: jpg
o_height: 1039
o_width: 1200
datetaken: 2010-12-01 12:14:33
dateupload: 1322742625
tags: uk winter england house snow ice home window car scunthorpe lotsofsnow northlincolnshire renaultmegane carinsnow snowphotography northlincs snowimage december2010 southhumberside ukbigfreeze paulsimpsonphotography renaultmeganeinsnow uksnowimages uksnowphotos scunthorpesnow scunthorpesnow2010
license: 0
latitude: 53.562858
longitude: -0.63064
accuracy: 14
views: 367
interestingness: 39 out of 241

photo: 6437664219 aa15a87f5f 7164
owner: 47126942@N07
title: Deep Blue Day
originalsecret: null
originalformat: null
o_height: null
o_width: null
datetaken: 2011-11-29 09:02:40
dateupload: 1322767811
tags: blue sea sky beach sunrise dawn northeast berwickupontweed spittal d90
license: 0
latitude: 55.757065
longitude: -1.985435
accuracy: 11
views: 106
interestingness: 40 out of 241

photo: 6437581959 f198baa745 7171
owner: 56118141@N00
title: Autumn Lane.
originalsecret: null
originalformat: null
o_height: null
o_width: null
datetaken: 2011-11-27 11:45:19
dateupload: 1322767260
tags: autumn trees woods nikon d90 castlecochwoods nikond90 forestfawr 18105vr
license: 0
latitude: 51.548056
longitude: -3.23778
accuracy: 16
views: 94
interestingness: 41 out of 241

photo: 6433668863 151d61cdf4 7159
owner: 42852007@N07
title: 334/365 - 11/30/2011 [explore]
originalsecret: null
originalformat: null
o_height: null
o_width: null
datetaken: 2011-11-30 18:49:32
dateupload: 1322700135
tags: macro photoshop toys shark comic bruce jaws 1975 comicstrip matchbox greatwhiteshark greatwhite favoritemovie day334 johnwilliams stephenspielberg youregonnaneedabiggerboat royscheider carcharodoncarcharias peterbenchley chiefbrody round14 day334365 d7000 amitypolice 3652011 365the2011edition getpushed 11302011 getpushedround14
license: 0
latitude: 41.457651
longitude: -70.587844
accuracy: 10
views: 167
interestingness: 42 out of 241

photo: 6434082511 111a68bf56 7155
owner: 35557179@N04
title: Grain Silo (April)
originalsecret: 0f53f6d1ae
originalformat: jpg
o_height: 4067
o_width: 2711
datetaken: 2011-04-19 14:58:50
dateupload: 1322706231
tags: blue plants yellow photoshop canon eos spring silo april crops 1785 efs hdr westyorkshire oilseed niks nhb photomatix gradfilter 40d nhbphotography 85mm136on35mm colourefexs
license: 0
latitude: 53.673222
longitude: -1.396937
accuracy: 13
views: 57
interestingness: 43 out of 241

photo: 6435077321 be32a73ee3 7018
owner: 29084098@N00
title: The black knight
originalsecret: ccc922a1ce
originalformat: jpg
o_height: 900
o_width: 1200
datetaken: 2011-07-09 20:29:44
dateupload: 1322722827
tags: auto black square automobile place casino montecarlo monaco best porsche vehicle gt supercar carrera carreragt casinosquare porschecarreragt casinomontecarlo placeducasino blackporsche straightpipes bestporsche alexsmolik bestporscheever porschesupercar
license: 0
latitude: 43.738349
longitude: 7.42429
accuracy: 2
views: 90
interestingness: 44 out of 241

photo: 6435971081 27560b3ed8 7151
owner: 27531711@N08
title: Grand Prismatic Pool
originalsecret: null
originalformat: null
o_height: null
o_width: null
datetaken: 2011-09-24 13:59:40
dateupload: 1322743048
tags: usa sunny yellowstonenationalpark wyoming largest grandprismaticspring midwaygeyserbasin johncothron cothronphotography thermalactivityhotspringssteammineraldepositsvolcanic
license: 0
latitude: 44.522986
longitude: -110.83925
accuracy: 16
views: 91
interestingness: 45 out of 241

photo: 6435004895 b91c57085d 7167
owner: 40291484@N00
title: Goodbye November
originalsecret: null
originalformat: null
o_height: null
o_width: null
datetaken: 2011-11-30 18:37:29
dateupload: 1322721214
tags: winter panorama skyline vancouver hdr
license: 0
latitude: 49.271672
longitude: -123.17605
accuracy: 16
views: 200
interestingness: 46 out of 241

photo: 6437048945 44cd939b20 7161
owner: 23693759@N08
title: Sploooooossssssshh! (334/365)
originalsecret: null
originalformat: null
o_height: null
o_width: null
datetaken: 2011-12-01 12:36:43
dateupload: 1322759174
tags: man water puddle brighton 365 splash seafront hdr pookaphotography
license: 0
latitude: 50.818503
longitude: -0.129046
accuracy: 14
views: 73
interestingness: 47 out of 241

photo: 6437913223 875e078632 7170
owner: 53323105@N02
title: Nothin' But Blue Skies Do I See
originalsecret: 786dcc23b8
originalformat: jpg
o_height: 3564
o_width: 2376
datetaken: 2011-12-01 13:38:21
dateupload: 1322770897
tags: blue sky music montana clear havre creativecommons blueskies prairie willienelson 2011 hillcounty hiline decemberdiary
license: 1
latitude: 48.533457
longitude: -109.667315
accuracy: 14
views: 45
interestingness: 48 out of 241

photo: 6435827197 a40d103b81 7157
owner: 33592670@N00
title: jaipur -- museum trust
originalsecret: null
originalformat: null
o_height: null
o_width: null
datetaken: 2010-07-10 03:25:01
dateupload: 1322740128
tags: india d200 jaipur rajasthan museumtrust colorefexpro4
license: 0
latitude: 26.89467
longitude: 75.784179
accuracy: 11
views: 48
interestingness: 49 out of 241

photo: 6437584163 293fff71c8 7149
owner: 43292422@N03
title: Enchanted Forest
originalsecret: 8d4391b93d
originalformat: jpg
o_height: 709
o_width: 1260
datetaken: 2011-10-12 11:04:09
dateupload: 1322766396
tags: autumn trees light red orange green fall yellow forest path newhampshire kancamangus kancamagus
license: 3
latitude: 44.045894
longitude: -71.556411
accuracy: 15
views: 79
interestingness: 50 out of 241

photo: 6436486311 364f85dddc 7013
owner: 50739201@N07
title: Clifford's Tower
originalsecret: e7dce66958
originalformat: jpg
o_height: 3456
o_width: 5184
datetaken: 2011-11-29 11:16:31
dateupload: 1322751506
tags: york sky blackandwhite clouds cliffordstower
license: 0
latitude: 53.955883
longitude: -1.080189
accuracy: 16
views: 30
interestingness: 51 out of 241

photo: 6436130765 f4c4cd09e0 7018
owner: 41288529@N00
title: The Windows of heaven are open.
originalsecret: c1c88a59ab
originalformat: jpg
o_height: 3872
o_width: 2592
datetaken: 2011-11-26 18:39:34
dateupload: 1322745912
tags: blue sky white reflection blanco window glass azul clouds ventana leon cielo nubes cristal reflejos
license: 0
latitude: 42.60207
longitude: -5.579627
accuracy: 16
views: 73
interestingness: 52 out of 241

photo: 6435830281 ac76a75673 7028
owner: 60118722@N04
title: 
originalsecret: cca4a0760f
originalformat: jpg
o_height: 10010
o_width: 4312
datetaken: 2011-12-01 10:06:29
dateupload: 1322740194
tags: madrid morning weather clouds sunrise spain wow1 r?omanzanares
license: 0
latitude: 40.427728
longitude: -3.730448
accuracy: 16
views: 81
interestingness: 53 out of 241

photo: 6435151367 46d1a2b841 7006
owner: 39460523@N02
title: ?"Let me light my lamp", says the star, "And never debate if it will help to remove the darkness? ~Rabindranath Tagore
originalsecret: 5427929d38
originalformat: jpg
o_height: 2592
o_width: 3888
datetaken: 2011-11-05 00:35:01
dateupload: 1322724434
tags: flickraward
license: 0
latitude: 31.102223
longitude: 77.17153
accuracy: 13
views: 46
interestingness: 54 out of 241

photo: 6437769619 dec0d0006a 7015
owner: 57896932@N03
title: Pink Home
originalsecret: null
originalformat: null
o_height: null
o_width: null
datetaken: 2011-11-12 16:00:29
dateupload: 1322768957
tags: pink houses house home denmark nikon danmark nikond5000
license: 0
latitude: 54.766161
longitude: 11.484661
accuracy: 14
views: 79
interestingness: 55 out of 241

photo: 6415990511 40c8a2db81 7156
owner: 33363480@N05
title: The City Palace in Udaipur .Rajasthan ..  India .. rated the top city in the World
originalsecret: 61f3f99310
originalformat: jpg
o_height: 2693
o_width: 4000
datetaken: 1997-01-27 09:21:36
dateupload: 1322765343
tags: india palace raj rajasthan udaipur
license: 1
latitude: 24.575831
longitude: 73.683071
accuracy: 14
views: 59
interestingness: 56 out of 241

photo: 6437601809 d42cf1b528 7163
owner: 55790422@N02
title: THE BLACK SWAN
originalsecret: b0887396d3
originalformat: jpg
o_height: 1296
o_width: 1944
datetaken: 2011-02-08 16:08:32
dateupload: 1322766650
tags: swan wildlife blackswan avian wildbirds britishbirds birdphotos birdsofthebritishisles snapdecisions theworldofbirds birdsofbritonandeurope
license: 0
latitude: 51.887878
longitude: 0.942914
accuracy: 16
views: 133
interestingness: 57 out of 241

photo: 6437557861 5b1e7d00a5 7168
owner: 49217637@N03
title: Audi R8 V10 Spyder
originalsecret: null
originalformat: null
o_height: null
o_width: null
datetaken: 2011-08-07 20:05:48
dateupload: 1322766038
tags: r8 rs5 audi v10 spyder peschiera del garda italy lagio lake lago di stefan poppelaars canon rims toronto summer vacation holiday yacht rich expensive ship fame austria worldcars
license: 0
latitude: 45.441175
longitude: 10.696676
accuracy: 16
views: 92
interestingness: 58 out of 241

photo: 6434754823 66d66280c0 7173
owner: 49625194@N02
title: Red-Tailed Hawk in NYC [Explore]
originalsecret: null
originalformat: null
o_height: null
o_width: null
datetaken: 2011-11-30 10:29:32
dateupload: 1322716363
tags: nyc newyorkcity bird flying high wings feathers soaring redtailedhawk tamron75300mm mickcanon
license: 0
latitude: 40.731887
longitude: -73.810615
accuracy: 13
views: 74
interestingness: 59 out of 241

photo: 6436949789 2a0afc8035 7023
owner: 23693759@N08
title: Splaaaaatttttt!!!!!! (333/365)
originalsecret: null
originalformat: null
o_height: null
o_width: null
datetaken: 2011-11-30 15:44:49
dateupload: 1322757829
tags: street man jump brighton joe 365 starshaped starjump pookaphotography
license: 0
latitude: 50.826948
longitude: -0.139517
accuracy: 14
views: 97
interestingness: 60 out of 241

photo: 6433879039 387d22ba0e 7159
owner: 24206407@N07
title: Higher Ground
originalsecret: null
originalformat: null
o_height: null
o_width: null
datetaken: 2011-08-03 09:37:52
dateupload: 1322758080
tags: mountains montana glaciernationalpark peaks twomedicinelake scenicpointtrail twomedicinearea
license: 0
latitude: 48.48521
longitude: -113.324661
accuracy: 10
views: 70
interestingness: 61 out of 241

photo: 3424574295 4650206620 3094
owner: 31385447@N07
title: Desert Palette
originalsecret: ecdd9c8ce6
originalformat: jpg
o_height: 1704
o_width: 2272
datetaken: 2009-04-08 19:56:48
dateupload: 1322738388
tags: canon ps powershot pointandshoot g2 cormend stateoftheunionnv
license: 0
latitude: 36.428464
longitude: -114.472045
accuracy: 10
views: 57
interestingness: 62 out of 241

photo: 6435388881 7637e9468c 7010
owner: 21709252@N08
title: jonglerie feu (10)
originalsecret: 0db7c568cd
originalformat: jpg
o_height: 2132
o_width: 4896
datetaken: 2011-11-30 22:43:19
dateupload: 1322730085
tags: france bestof reims ext?rieur nuit strobe jonglerie strobist
license: 0
latitude: 49.260833
longitude: 4.029833
accuracy: 16
views: 60
interestingness: 63 out of 241

photo: 6435316565 ff905976f6 7005
owner: 60556382@N03
title: St. Salvator Cathedral from The Belfry
originalsecret: 6f8052d6e6
originalformat: jpg
o_height: 1897
o_width: 3716
datetaken: 2011-11-27 15:35:07
dateupload: 1322728266
tags: city sunset silhouette skyline canon belgium brugge bruges rebelxs 1000d
license: 0
latitude: 51.208173
longitude: 3.219852
accuracy: 11
views: 92
interestingness: 64 out of 241

photo: 6437196147 eef8312faa 7175
owner: 45866629@N07
title: This little piggy went to market....
originalsecret: d1e3a62985
originalformat: jpg
o_height: 714
o_width: 1920
datetaken: 2011-11-16 16:57:45
dateupload: 1322761092
tags: mexico mazatlan hasselbladxpan sinola kodalektar100 f445mm
license: 4
latitude: 23.196858
longitude: -106.42559
accuracy: 11
views: 143
interestingness: 65 out of 241

photo: 6435082671 34374fd7a7 7173
owner: 66606673@N00
title: On Golden Pond with Reeds
originalsecret: 88d6fc037f
originalformat: jpg
o_height: 1322
o_width: 1800
datetaken: 2011-11-20 16:33:38
dateupload: 1322722938
tags: autumn arizona lake fall nature water composition reflections reeds golden duck pond seasons fourseasons goldenhour shimmer waterranch gilbertriparianpreserve riparianpreserve
license: 1
latitude: 33.364799
longitude: -111.730529
accuracy: 16
views: 80
interestingness: 66 out of 241

photo: 6435604161 da4da84f9f 7004
owner: 11516254@N00
title: Nicole (#13/100)
originalsecret: null
originalformat: null
o_height: null
o_width: null
datetaken: 2011-11-30 11:29:02
dateupload: 1322735430
tags: nicole stranger slough berkshire kevday no13 100strangers
license: 0
latitude: 51.511176
longitude: -0.592231
accuracy: 16
views: 121
interestingness: 67 out of 241

photo: 6429157883 1862f7fc67 6050
owner: 41254428@N05
title: The Hallway
originalsecret: null
originalformat: null
o_height: null
o_width: null
datetaken: 2011-09-21 18:07:55
dateupload: 1322699037
tags: light shadow blackandwhite bw monochrome lines contrast canon blackwhite taiwan beautifullight wideangle indoor line taipei contrasty wideanglelens llens digitalmonochrome geo76 canoneos5dmarkii 1635mmf28llens ????
license: 0
latitude: 25.028197
longitude: 121.532515
accuracy: 16
views: 60
interestingness: 68 out of 241

photo: 6434896011 08fbde0c13 7145
owner: 21648944@N05
title: Through Vyso?ina fields
originalsecret: null
originalformat: null
o_height: null
o_width: null
datetaken: 2011-11-06 14:03:25
dateupload: 1322719018
tags: autumn fall field landscape highlands view czech meadow czechrepublic overlook vyso?ina ?esko ?esk?republika vysocina lipnice vrchovina ceskomoravska czechmoravian ?eskomoravsk?vrchovina sv?tl?nads?zavou ceskomoravskavrchovina czechmoravianhighlands
license: 0
latitude: 49.647291
longitude: 15.410957
accuracy: 16
views: 48
interestingness: 69 out of 241

photo: 6433763487 8c4262db09 7019
owner: 25983538@N05
title: J&J
originalsecret: null
originalformat: null
o_height: null
o_width: null
datetaken: 2011-11-30 03:38:47
dateupload: 1322701545
tags: beauty lady jewelry grace blond chic elegance vandanovodomszky 2img7484
license: 0
latitude: 52.36648
longitude: 4.84497
accuracy: 11
views: 156
interestingness: 70 out of 241

photo: 6435982355 a29925ab85 7001
owner: 48538984@N07
title: Yellow Leaf Road
originalsecret: null
originalformat: null
o_height: null
o_width: null
datetaken: 2011-11-23 15:33:45
dateupload: 1322743261
tags: road autumn trees portrait fall love nature beautiful yellow japan canon season outdoors temple happy golden leaf couple shrine tripod 7d romantic shimane aki bestfriend soulmate izumo soulmates yellowbrickroad ?? ?? gakuenji ?? ???
license: 0
latitude: 35.420601
longitude: 132.746171
accuracy: 16
views: 247
interestingness: 71 out of 241

photo: 6436475389 744f6954b4 7165
owner: 26104563@N00
title: Day 308/365 - Bang!!
originalsecret: ec34e499c5
originalformat: jpg
o_height: 2648
o_width: 4280
datetaken: 2011-11-04 18:59:38
dateupload: 1322751339
tags: seattle november blackandwhite bw slr film monochrome analog 35mm project eos blackwhite washington video iso400 awesome scarecrow ishootfilm 35mmfilm 365 tamron 3000v ilford universitydistrict theave vhs videostore udistrict videotape canonrebelti 28200mm 2011 seattlewashington scarecrowvideo project365 ilfordxp2super400 filmisnotdead canoneosrebelti latentimage tamronaf28200mm november2011 tamronasphericalaf28200mm
license: 1
latitude: 47.665914
longitude: -122.316976
accuracy: 16
views: 63
interestingness: 72 out of 241

photo: 6435274639 4785bd1773 7167
owner: 24431382@N03
title: Changes in San Francisco between 1852 and 1853
originalsecret: be6a828d00
originalformat: jpg
o_height: 6138
o_width: 4807
datetaken: 2011-12-01 00:14:59
dateupload: 1322727299
tags: sanfrancisco map overlay coastsurvey
license: 4
latitude: 37.794982
longitude: -122.405118
accuracy: 16
views: 210
interestingness: 73 out of 241

photo: 6437158109 7a1956d47d 7150
owner: 49800054@N02
title: Airport Rush: "a sense of motion and/or speed"
originalsecret: null
originalformat: null
o_height: null
o_width: null
datetaken: 2011-11-28 12:03:54
dateupload: 1322760616
tags: people motion speed canon airport movement powershot rush traveling pushed conveyer schiphol challenge haast beweging mensen reizen g12 vliegveld luchthaven snelheid ndfilter amsterdamairportschiphol r14 lopendeband sooc getpushed
license: 0
latitude: 52.311469
longitude: 4.758882
accuracy: 15
views: 96
interestingness: 74 out of 241

photo: 6434224397 803b92bc10 7015
owner: 32039444@N05
title: Manhattan Bridge #2
originalsecret: null
originalformat: null
o_height: null
o_width: null
datetaken: 2011-11-27 09:03:23
dateupload: 1322708327
tags: nyc bridge newyork brooklyn photoshop manhattanbridge
license: 0
latitude: 40.700137
longitude: -73.987727
accuracy: 15
views: 29
interestingness: 75 out of 241

photo: 6436471441 285dcea536 7149
owner: 33604386@N08
title: Jackdaw
originalsecret: 842ea1b527
originalformat: jpg
o_height: 566
o_width: 800
datetaken: 2011-11-17 14:35:11
dateupload: 1322751281
tags: blinkagain
license: 0
latitude: 51.593842
longitude: -2.745552
accuracy: 13
views: 80
interestingness: 76 out of 241

photo: 6434902249 70f8e91fcf 7002
owner: 21648944@N05
title: Village of Dobr?
originalsecret: null
originalformat: null
o_height: null
o_width: null
datetaken: 2011-10-09 16:29:01
dateupload: 1322719154
tags: autumn sunset fall field landscape highlands view czech meadow illumination czechrepublic overlook dobra vyso?ina ?esko ?esk?republika vysocina lipnice p?ibyslav vrchovina dobr? ceskomoravska czechmoravian ?eskomoravsk?vrchovina sv?tl?nads?zavou ceskomoravskavrchovina czechmoravianhighlands
license: 0
latitude: 49.578553
longitude: 15.728273
accuracy: 14
views: 73
interestingness: 77 out of 241

photo: 6434841121 5acbdf4486 7012
owner: 59061468@N07
title: Clouds Are Rolling
originalsecret: 0d0a177ae1
originalformat: jpg
o_height: 2854
o_width: 1914
datetaken: 2011-11-12 13:47:34
dateupload: 1322717974
tags: sky house clouds missouri hdr rolling chesterfield faustpark tenuouslink nikond40 111211 gregbizzle
license: 0
latitude: 38.653629
longitude: -90.55352
accuracy: 11
views: 64
interestingness: 78 out of 241

photo: 6434670437 3fdd24367c 7147
owner: 93254204@N00
title: I'm Too...
originalsecret: null
originalformat: null
o_height: null
o_width: null
datetaken: 2011-11-30 10:58:52
dateupload: 1322714908
tags: autumn holland fall netherlands amsterdam europe wicked nophotoshop lifeisgood android app carpediem htc 2011 mobilephonecam amstersam reflectah amstersm amsterdamthebestcityintheworld reflectionsofamsterdam checkoutmywebsitewwwamstersamcom wickedreflections thewickedreflectah amstersmthewickedreflectah htcdesire camera360 htcdesiremobilephonecam
license: 0
latitude: 52.372887
longitude: 4.892821
accuracy: 14
views: 170
interestingness: 79 out of 241

photo: 6437211779 d419db2d46 7027
owner: 41894170737@N01
title: Interdimensional architecture
originalsecret: null
originalformat: null
o_height: null
o_width: null
datetaken: 2011-12-01 11:54:57
dateupload: 1322761282
tags: madrid reflection architecture mirrors
license: 0
latitude: 40.416632
longitude: -3.699495
accuracy: 15
views: 28
interestingness: 80 out of 241

photo: 6437071887 bb131ffbfd 7146
owner: 41894170737@N01
title: Interdimensional architecture
originalsecret: null
originalformat: null
o_height: null
o_width: null
datetaken: 2011-12-01 11:51:59
dateupload: 1322759481
tags: madrid reflection architecture mirrors
license: 0
latitude: 40.416738
longitude: -3.699281
accuracy: 15
views: 65
interestingness: 81 out of 241

photo: 6434928779 f0660c7654 7168
owner: 53400759@N06
title: WHEN LOVE FINDS YOU ... IT MIGHT BE IN PARIS
originalsecret: 4cca7dc30d
originalformat: jpg
o_height: 521
o_width: 530
datetaken: 2011-12-01 01:05:46
dateupload: 1322719681
tags: wedding favorite texture lady blessing squarecrop azraviolet9
license: 0
latitude: 48.856918
longitude: 2.341209
accuracy: 11
views: 27
interestingness: 82 out of 241

photo: 6435419701 779cbd666a 7006
owner: 28182844@N07
title: Skyscrapers
originalsecret: null
originalformat: null
o_height: null
o_width: null
datetaken: 2011-11-15 14:19:55
dateupload: 1322730828
tags: building travelling history broken colors beautiful beauty rock canon landscape golden amazing colorful asia artist tour artistic random landmark visit tourist best historic traveller clear impact land historical visual 1224mm wandering amazed delightful dazzling astonishing behappy kaulalumpur canon500d
license: 0
latitude: 2.718267
longitude: 101.818199
accuracy: 11
views: 35
interestingness: 83 out of 241

photo: 6433552497 1bc78c8d9f 7019
owner: 64482733@N02
title: Elizabeth
originalsecret: null
originalformat: null
o_height: null
o_width: null
datetaken: 2010-11-08 14:35:32
dateupload: 1322698371
tags: life california hot sexy love beautiful 50mm nikon bokeh gorgeous malibu intelligent fianc? d700
license: 0
latitude: 34.035306
longitude: -118.696632
accuracy: 11
views: 80
interestingness: 84 out of 241

photo: 6436469375 740bb8bc21 7004
owner: 57624410@N06
title: 
originalsecret: null
originalformat: null
o_height: null
o_width: null
datetaken: 2011-09-22 19:00:33
dateupload: 1322751246
tags: africa pink girl hand zambia
license: 0
latitude: -15.618159
longitude: 30.406379
accuracy: 12
views: 45
interestingness: 85 out of 241

photo: 6435391495 9dbe217b31 7155
owner: 21709252@N08
title: jonglerie feu (9)
originalsecret: dd94b333e1
originalformat: jpg
o_height: 3744
o_width: 5616
datetaken: 2011-11-30 22:36:26
dateupload: 1322730147
tags: france bestof reims ext?rieur nuit strobe jonglerie strobist
license: 0
latitude: 49.260833
longitude: 4.029833
accuracy: 16
views: 49
interestingness: 86 out of 241

photo: 6433624619 8406820231 7026
owner: 40755436@N04
title: Battle
originalsecret: 03c574d12f
originalformat: jpg
o_height: 768
o_width: 1024
datetaken: 2011-11-30 17:31:15
dateupload: 1322699475
tags: vegas comic strip convention conference ipad mobileart sketchbookpro benjaminrabe chrischeung fingerpainters mattconners au2011
license: 0
latitude: 36.122341
longitude: -115.168819
accuracy: 16
views: 208
interestingness: 87 out of 241

photo: 6433533257 65bc92d850 7154
owner: 45939540@N05
title: Dolce - Mamiya C33
originalsecret: 1e1536f497
originalformat: jpg
o_height: 1024
o_width: 1039
datetaken: 2011-11-30 02:01:47
dateupload: 1322698052
tags: 
license: 4
latitude: 45.515609
longitude: -122.678146
accuracy: 11
views: 91
interestingness: 88 out of 241

photo: 6436635879 25b63a9f67 7171
owner: 48267086@N06
title: Day Three Hundred and Thirty Five
originalsecret: null
originalformat: null
o_height: null
o_width: null
datetaken: 2011-12-01 20:08:02
dateupload: 1322753681
tags: winter snow colors japan shop night 35mm project lights sapporo nikon hokkaido nicola sake 365 d300 bernardi project365 365project 3652011 2011inphotos
license: 0
latitude: 43.062366
longitude: 141.354217
accuracy: 9
views: 181
interestingness: 89 out of 241

photo: 6434073665 48a6cdf88f 7156
owner: 18351145@N06
title: It's Party Time!  48 / 52
originalsecret: null
originalformat: null
o_height: null
o_width: null
datetaken: 2011-11-30 11:06:57
dateupload: 1322706101
tags: dog pet white studio sitting bowtie boxer companion gromit
license: 0
latitude: 37.475556
longitude: -122.43879
accuracy: 14
views: 91
interestingness: 90 out of 241

photo: 6436403937 c854f88d96 7035
owner: 23693759@N08
title: Guard Dog!
originalsecret: null
originalformat: null
o_height: null
o_width: null
datetaken: 2011-11-30 16:32:37
dateupload: 1322750283
tags: street dog man hat person hdr homless pookaphotography
license: 0
latitude: 50.827991
longitude: -0.141234
accuracy: 14
views: 83
interestingness: 91 out of 241

photo: 6436370453 bfde084f42 7159
owner: 53048314@N08
title: First shot in 2009
originalsecret: null
originalformat: null
o_height: null
o_width: null
datetaken: 2009-02-28 12:25:42
dateupload: 1322749790
tags: windmill river landscape
license: 0
latitude: 51.879681
longitude: 4.644935
accuracy: 16
views: 48
interestingness: 92 out of 241

photo: 6435601917 840f5fe487 7016
owner: 50070022@N08
title: Evening light
originalsecret: d25a7e699a
originalformat: jpg
o_height: 1398
o_width: 2910
datetaken: 2010-12-17 15:07:55
dateupload: 1322735374
tags: trees wall sheep lancashire hedgerows longridge jacobsheep ribblevalley toplodge
license: 0
latitude: 53.839538
longitude: -2.588782
accuracy: 15
views: 68
interestingness: 93 out of 241

photo: 6434471695 a1d89a06d0 7025
owner: 63148975@N00
title: Eeeeek!
originalsecret: null
originalformat: null
o_height: null
o_width: null
datetaken: 2011-08-20 20:28:28
dateupload: 1322711964
tags: california usa scary patrick roadtrip pale mendocino amerika madeingermany bestpal muchmissed
license: 0
latitude: 39.309763
longitude: -123.810095
accuracy: 15
views: 54
interestingness: 94 out of 241

photo: 6436830505 34d048179e 7149
owner: 22402785@N04
title: Briggs
originalsecret: null
originalformat: null
o_height: null
o_width: null
datetaken: 2011-11-30 14:51:11
dateupload: 1322756270
tags: 
license: 0
latitude: 43.439949
longitude: -124.236649
accuracy: 15
views: 19
interestingness: 95 out of 241

photo: 6435841033 a7f07c4228 7030
owner: 37481130@N07
title: ? ? Mali Lo?inj ? Island Lo?inj  Croatia ?
originalsecret: null
originalformat: null
o_height: null
o_width: null
datetaken: 2011-12-01 12:53:35
dateupload: 1322740415
tags: nikon europa europe outdoor croatia kroatien nikonflickraward photospourtousphotosforall malilosinje
license: 0
latitude: 44.534925
longitude: 14.466462
accuracy: 14
views: 54
interestingness: 96 out of 241

photo: 6437277207 38097d4615 7168
owner: 25877284@N04
title: Midnight in Montparnasse
originalsecret: null
originalformat: null
o_height: null
o_width: null
datetaken: 2011-11-20 18:07:38
dateupload: 1322762154
tags: pictures uk wedding portrait white black colour sexy london girl fashion lady studio photography book design high model women shoot photographer post image low creative event commercial agency subject retouch cheap retouching thebest expencive usman affordable ervin verygood fashionphotographer alltypes potrfolio photographerinlondon commercialphotographerinlondon ervinusmancom wwwervinusmancouk wwwervinusmancom ervinusman centrelondonstudio testshootportfoilo eventphotographerinlondon fashionphotographerinlondon portfoliophotographerinlondon catalogphotographerinlondon
license: 0
latitude: 51.519558
longitude: -0.098426
accuracy: 15
views: 73
interestingness: 97 out of 241

photo: 6434669903 b49a3d0128 7168
owner: 93254204@N00
title: ...Sexy For...
originalsecret: null
originalformat: null
o_height: null
o_width: null
datetaken: 2011-10-06 12:13:44
dateupload: 1322714900
tags: autumn holland fall netherlands amsterdam europe wicked nophotoshop lifeisgood carpediem unedited htc 2011 mobilephonecam amstersam reflectah amstersm amsterdamthebestcityintheworld reflectionsofamsterdam checkoutmywebsitewwwamstersamcom wickedreflections thewickedreflectah amstersmthewickedreflectah htcdesire htcdesiremobilephonecam
license: 0
latitude: 52.372887
longitude: 4.892821
accuracy: 14
views: 111
interestingness: 98 out of 241

photo: 6436881629 7ec80c109c 7167
owner: 61824872@N00
title: Red and Black
originalsecret: null
originalformat: null
o_height: null
o_width: null
datetaken: 2009-10-28 08:17:55
dateupload: 1322756951
tags: red flora poppy papawer
license: 0
latitude: -33.949972
longitude: 18.849846
accuracy: 15
views: 20
interestingness: 99 out of 241

photo: 6435590003 3c923d03e0 7141
owner: 59540304@N05
title: Measured Step
originalsecret: null
originalformat: null
o_height: null
o_width: null
datetaken: 2011-09-13 16:43:09
dateupload: 1322735073
tags: street people blackandwhite india monochrome canon asia candid streetphotography streetphoto candidphotography blackwhitephotos streettogs streetphotographycandidphotography
license: 6
latitude: 25.577672
longitude: 91.873168
accuracy: 16
views: 38
interestingness: 100 out of 241

photo: 6435985839 4f9b0eb483 7019
owner: 43024648@N06
title: Mercy's Color
originalsecret: 35d0b0f472
originalformat: jpg
o_height: 2423
o_width: 2472
datetaken: 2011-11-30 12:21:05
dateupload: 1322743330
tags: mercy mercyme poodlepuppy standardpoodlepuppy spoopuppy mercybuckets brindledphantompoodlepuppy
license: 0
latitude: 43.541486
longitude: -71.459155
accuracy: 14
views: 25
interestingness: 101 out of 241

photo: 6434696875 17387f720c 7167
owner: 35870491@N02
title: Tongue Tied
originalsecret: null
originalformat: null
o_height: null
o_width: null
datetaken: 2011-11-30 19:51:55
dateupload: 1322715338
tags: selfportrait color feet fun lyrics shoes floor legs angles canvas splash dailyphoto ankles indiekids musicaddicts imemine indiefashion blipfoto mysexylegs retrofeel seattleeveryday showusyourbest portraitswithoutaface lovelifeandbeauty tonguetiedbygrouplove
license: 0
latitude: 47.601417
longitude: -122.334823
accuracy: 11
views: 97
interestingness: 102 out of 241

photo: 6434188089 bb09b68f1d 7156
owner: 48949874@N08
title: Green Tree Python at the Zoo Atlanta, Georgia
originalsecret: 8ff13e1a37
originalformat: jpg
o_height: 1174
o_width: 1600
datetaken: 2011-09-28 12:35:15
dateupload: 1322707733
tags: atlanta georgia zoo python zooatlanta greentreepython treepython treepythongreen
license: 0
latitude: 33.735885
longitude: -84.371244
accuracy: 15
views: 7
interestingness: 103 out of 241

photo: 6435035551 4e38d21d15 7015
owner: 63565933@N04
title: sony a77 w/30mm macro.
originalsecret: null
originalformat: null
o_height: null
o_width: null
datetaken: 2011-11-30 20:13:18
dateupload: 1322721898
tags: 
license: 0
latitude: 26.364971
longitude: -80.134041
accuracy: 16
views: 81
interestingness: 104 out of 241

photo: 6433553613 076d1e6126 7022
owner: 62068316@N06
title: best part of this state
originalsecret: null
originalformat: null
o_height: null
o_width: null
datetaken: 2011-11-30 05:48:17
dateupload: 1322698389
tags: winter sunset mountains colorado boulder louisville rockymountains openspace bouldercolorado bouldersunset
license: 0
latitude: 39.971858
longitude: -105.157742
accuracy: 14
views: 90
interestingness: 105 out of 241

photo: 6435865717 2f93e341ae 7024
owner: 64226457@N05
title: Old Timer
originalsecret: 08dee05b0c
originalformat: jpg
o_height: 2000
o_width: 3008
datetaken: 2011-11-28 03:49:23
dateupload: 1322740926
tags: 
license: 0
latitude: 30.74095
longitude: -98.044738
accuracy: 10
views: 39
interestingness: 106 out of 241

photo: 6433779665 3eee55db8f 7141
owner: 69797303@N04
title: The best years of our lives, the hope of it survives.
originalsecret: null
originalformat: null
o_height: null
o_width: null
datetaken: 2011-11-29 23:55:30
dateupload: 1322701790
tags: 
license: 0
latitude: 85.754219
longitude: 124.804687
accuracy: 1
views: 70
interestingness: 107 out of 241

photo: 6435773989 103b21b782 7012
owner: 22131083@N08
title: Sydney Opera House - World Aids Day 2011
originalsecret: f2ed68789a
originalformat: jpg
o_height: 3024
o_width: 4032
datetaken: 2011-12-01 20:41:30
dateupload: 1322739033
tags: sydney australia olympus sydneyharbour sydneyoperahouse 2011 epl3 olympusepl3 worldaidsday2011
license: 3
latitude: -33.856945
longitude: 151.215219
accuracy: 14
views: 101
interestingness: 108 out of 241

photo: 6437839035 b67f01bb05 7002
owner: 66025415@N03
title: Fall Color in Arizona
originalsecret: 94947e5bb4
originalformat: jpg
o_height: 1600
o_width: 1200
datetaken: 2011-12-01 13:04:31
dateupload: 1322769871
tags: family camping nature photography fallcolor hiking
license: 0
latitude: 35.199201
longitude: -111.656799
accuracy: 11
views: 45
interestingness: 109 out of 241

photo: 6436619297 37c121d99d 7168
owner: 68124715@N00
title: Tunnel To Parking Lot - HDR/Tone-Mapped
originalsecret: null
originalformat: null
o_height: null
o_width: null
datetaken: 2011-12-01 10:30:48
dateupload: 1322753448
tags: nikon backalley hamilton gimp tunnel hdr luminance tonemapped 18105mm d5000 qtpfsgui
license: 0
latitude: 43.255785
longitude: -79.865356
accuracy: 16
views: 59
interestingness: 110 out of 241

photo: 6437844173 4ed61a9bb1 7174
owner: 45220772@N06
title: The Big Lemon, P162TDW
originalsecret: c349d5acf7
originalformat: jpg
o_height: 1370
o_width: 1810
datetaken: 2011-11-09 12:04:25
dateupload: 1322769940
tags: bus plaxtonbeaver thebiglemon p162tdw mercedesbenz0709
license: 0
latitude: 50.842559
longitude: -0.119991
accuracy: 15
views: 24
interestingness: 111 out of 241

photo: 6435984197 bbef8f77c5 7158
owner: 35290479@N02
title: Cygnet # 2
originalsecret: e47e767fde
originalformat: jpg
o_height: 590
o_width: 788
datetaken: 2011-11-25 12:01:54
dateupload: 1322743299
tags: birds charnwoodwater countryparksamdparks
license: 0
latitude: 52.762606
longitude: -1.192016
accuracy: 15
views: 15
interestingness: 112 out of 241

photo: 6435810581 c986e7f8c3 7027
owner: 53048314@N08
title: Playing in the dark
originalsecret: null
originalformat: null
o_height: null
o_width: null
datetaken: 2011-10-02 18:19:47
dateupload: 1322739775
tags: sunset sea beach landscape
license: 0
latitude: 51.932583
longitude: 4.081506
accuracy: 16
views: 51
interestingness: 113 out of 241

photo: 6434421999 b728c51815 7149
owner: 28530821@N05
title: day forty three - bye bye November
originalsecret: null
originalformat: null
o_height: null
o_width: null
datetaken: 2011-11-30 23:36:13
dateupload: 1322711707
tags: selfportrait canada home me self hair montreal 365 pinkhair sideways ness 365days
license: 0
latitude: 45.558895
longitude: -73.568415
accuracy: 15
views: 71
interestingness: 114 out of 241

photo: 6434388423 f276761a1e 7003
owner: 53573929@N07
title: Flying Around the Marina
originalsecret: null
originalformat: null
o_height: null
o_width: null
datetaken: 2011-11-26 06:47:55
dateupload: 1322710771
tags: lighthouse india beach rain kids marina canon fun fly sand play dive beaches marinabeach chennai playful tamilnadu acrobatic cwc playtimes nammachennai sx20is ragavendran flyingaroundthemarina
license: 0
latitude: 13.044194
longitude: 80.280532
accuracy: 16
views: 77
interestingness: 115 out of 241

photo: 6435053305 06b896dbb2 7149
owner: 36959168@N05
title: Amber doing what she does best..
originalsecret: e30627e5de
originalformat: jpg
o_height: 511
o_width: 1024
datetaken: 2011-11-30 10:45:58
dateupload: 1322722303
tags: park autumn fall beauty leaves fun laughter brunette
license: 0
latitude: 33.82801
longitude: -118.198677
accuracy: 1
views: 428
interestingness: 116 out of 241

photo: 6433620401 d756d6f0fd 7169
owner: 34954144@N04
title: Upward
originalsecret: 2514aaf9f3
originalformat: jpg
o_height: 792
o_width: 1152
datetaken: 2011-04-16 16:33:45
dateupload: 1322699411
tags: 
license: 0
latitude: 37.782112
longitude: -122.441253
accuracy: 10
views: 38
interestingness: 117 out of 241

photo: 6268894724 874b58b331 6041
owner: 29864302@N05
title: 
originalsecret: null
originalformat: null
o_height: null
o_width: null
datetaken: 2011-10-15 10:40:00
dateupload: 1322755980
tags: copenhagen nikond700 prophotorgbcolorspace cz235
license: 0
latitude: 55.676311
longitude: 12.56935
accuracy: 11
views: 37
interestingness: 118 out of 241

photo: 6435612697 c70c1c0b68 7153
owner: 69505063@N05
title: Louise Stephanie I : The Best of Brussels Luxury Apartments
originalsecret: null
originalformat: null
o_height: null
o_width: null
datetaken: 2011-12-01 04:33:47
dateupload: 1322735627
tags: apartments belgium rentals brusselsluxuryapartments brusselsapartmentrentals apartmentsforrentinbrusselsapartmentsrentalstobelgium
license: 0
latitude: 50.848381
longitude: 4.349679
accuracy: 11
views: 123
interestingness: 119 out of 241

photo: 6434855647 ed8cb601f8 7163
owner: 53638540@N00
title: B-52
originalsecret: null
originalformat: null
o_height: null
o_width: null
datetaken: 2011-11-30 22:37:44
dateupload: 1322718243
tags: new usa zeiss mexico us ross force kodak air albuquerque airshow hasselblad carl 100 usaf f4 cf b52 afb 500cm sonnar ektar kirtland 150mm stratofortress finnie
license: 0
latitude: 35.047466
longitude: -106.591919
accuracy: 16
views: 111
interestingness: 120 out of 241

photo: 6434355109 5c2cae53cb 7142
owner: 11185080@N03
title: National Union of Teachers :  #n30 #strike Pensions Protest : Fishergate Preston :
originalsecret: null
originalformat: null
o_height: null
o_width: null
datetaken: 2011-11-30 03:14:47
dateupload: 1322710268
tags: england people english digital photoshop nikon zoom flash north lancashire adobe preston british nikkor lenses nikond1x d1x alienskinexposure 70210mmf4af metz54mz3 nikonzoom70210mmf4series nikkor70210mmf4afzoom solidarityandworkers
license: 0
latitude: 53.758518
longitude: -2.697289
accuracy: 16
views: 47
interestingness: 121 out of 241

photo: 6434352185 cb841c0471 7020
owner: 53573929@N07
title: 1KD On the Prowl ;)
originalsecret: null
originalformat: null
o_height: null
o_width: null
datetaken: 2011-11-19 07:56:37
dateupload: 1322710226
tags: sky sun india silhouette canon photographer walk chennai tamilnadu cwc walkingtall karthick 1000d sx20is ragavendran
license: 0
latitude: 13.05696
longitude: 80.063331
accuracy: 13
views: 44
interestingness: 122 out of 241

photo: 6435540963 33ff7fa947 7161
owner: 62392205@N00
title: Panoramic of Bas?lica i Temple Expiatori de la Sagrada Fam?lia
originalsecret: a39e43c16c
originalformat: jpg
o_height: 6137
o_width: 1694
datetaken: 2011-11-24 05:31:43
dateupload: 1322733816
tags: barcelona espa?a church temple spain stitch basilica columns iglesia panoramic ceiling altar nave panoramica gaud? catalunya antoni templo catalu?a techo columnas bas?licaitempleexpiatoridelasagradafam?lia bas?licaytemploexpiatoriodelasagradafamilia basilicaandexpiatorychurchoftheholyfamily
license: 0
latitude: 41.403225
longitude: 2.174429
accuracy: 16
views: 23
interestingness: 123 out of 241

photo: 6435393807 e0d52400f9 7029
owner: 21709252@N08
title: jonglerie feu (11)
originalsecret: 579b6aab59
originalformat: jpg
o_height: 2127
o_width: 4230
datetaken: 2011-11-30 22:46:38
dateupload: 1322730197
tags: france bestof reims ext?rieur nuit strobe jonglerie strobist
license: 0
latitude: 49.260833
longitude: 4.029833
accuracy: 16
views: 55
interestingness: 124 out of 241

photo: 6437175685 8936caea8e 7023
owner: 25877284@N04
title: Somewhere Else
originalsecret: null
originalformat: null
o_height: null
o_width: null
datetaken: 2011-11-20 18:53:19
dateupload: 1322760842
tags: pictures uk wedding portrait white black colour sexy london girl fashion lady studio photography book design high model women shoot photographer post image low creative event commercial agency subject retouch cheap retouching thebest expencive usman affordable ervin verygood fashionphotographer alltypes potrfolio photographerinlondon commercialphotographerinlondon ervinusmancom wwwervinusmancouk wwwervinusmancom ervinusman centrelondonstudio testshootportfoilo eventphotographerinlondon fashionphotographerinlondon portfoliophotographerinlondon catalogphotographerinlondon
license: 0
latitude: 51.519558
longitude: -0.098426
accuracy: 15
views: 51
interestingness: 125 out of 241

photo: 6436676179 b918496f26 7021
owner: 66397367@N05
title: Dusk at the Quay
originalsecret: null
originalformat: null
o_height: null
o_width: null
datetaken: 2011-11-25 16:35:09
dateupload: 1322754225
tags: sunset seagulls fish water birds evening boat north tyne quay shields d3100
license: 1
latitude: 55.008068
longitude: -1.437664
accuracy: 14
views: 70
interestingness: 126 out of 241

photo: 6435768061 223256748c 7146
owner: 14331809@N00
title: Finished!
originalsecret: null
originalformat: null
o_height: null
o_width: null
datetaken: 2011-11-28 15:59:19
dateupload: 1322738904
tags: door nanowrimo girl glasses mess tea desk monitor human stuff headphones libby 365 barney mybedroom gingercat messydesk 365days 3654 lionmask barnabee 365days4 ricsandersmug
license: 0
latitude: 51.489273
longitude: 0.338923
accuracy: 16
views: 135
interestingness: 127 out of 241

photo: 6434988753 d93a72769e 7030
owner: 23801881@N03
title: Tree
originalsecret: b441676497
originalformat: jpg
o_height: 5148
o_width: 3406
datetaken: 2011-11-26 11:30:02
dateupload: 1322720865
tags: autumn arizona color fall festival superior arboretum foliage handheld thompson hdr boyce boycethompsonarboretum bta boycethompson fallfoliagefestival jhaskellus jhaskell jackhaskell
license: 0
latitude: 33.281462
longitude: -111.131858
accuracy: 11
views: 418
interestingness: 128 out of 241

photo: 6434636293 dcc801784d 7172
owner: 20741443@N00
title: she tried her best, but to no avail - he didn't make it
originalsecret: 8555990aef
originalformat: jpg
o_height: 3824
o_width: 2868
datetaken: 2011-09-07 18:47:26
dateupload: 1322714381
tags: toronto ontario canada promotion movie gimp patient bubble nurse eatoncentre contagion ufraw september9 nothingspreadslikefear dsc49576edit
license: 1
latitude: 43.656062
longitude: -79.38107
accuracy: 16
views: 98
interestingness: 129 out of 241

photo: 6434429937 8eb4bcdf8e 7144
owner: 24395354@N02
title: Day 334 - Ahhhh?.I Love this Place?.
originalsecret: 96505d2d68
originalformat: jpg
o_height: 471
o_width: 640
datetaken: 2011-11-30 12:44:15
dateupload: 1322711355
tags: water plane flickr photoaday burrardinlet 365 northvancouver iphone 2011 project365 365days 365challenge 365community
license: 0
latitude: 49.29
longitude: -123.119
accuracy: 16
views: 38
interestingness: 130 out of 241

photo: 6436905273 2609625d0f 7014
owner: 34773196@N05
title: take a risk with your best friend
originalsecret: facbc95040
originalformat: jpg
o_height: 573
o_width: 1024
datetaken: 2011-12-01 08:32:55
dateupload: 1322757249
tags: venice friends italy playing boys kids children diptych play risk games boardgame bestfriends
license: 0
latitude: 45.497563
longitude: 12.415494
accuracy: 12
views: 22
interestingness: 131 out of 241

photo: 6435505129 104867c814 7029
owner: 41960506@N02
title: Just another one...........
originalsecret: null
originalformat: null
o_height: null
o_width: null
datetaken: 2011-11-26 16:43:23
dateupload: 1322732899
tags: statepark blue trees sky orange color water colors clouds river dark evening nikon connecticut newengland ct groton sunest southeastern bluffpoint norhteast d5000
license: 0
latitude: 41.330403
longitude: -72.036731
accuracy: 14
views: 27
interestingness: 132 out of 241

photo: 6435790543 0b77bec422 7168
owner: 11185080@N03
title: Mounted Police :  #n30 #strike Pensions Protest : Birley Street : Preston :
originalsecret: null
originalformat: null
o_height: null
o_width: null
datetaken: 2011-11-30 03:40:07
dateupload: 1322739385
tags: uk england people english digital photoshop nikon zoom lancashire adobe preston british nikkor lenses nikond1x d1x alienskinexposure 70210mmf4af nikonzoom70210mmf4series nikkor70210mmf4afzoom
license: 0
latitude: 53.759377
longitude: -2.699106
accuracy: 16
views: 78
interestingness: 133 out of 241

photo: 6436875939 b38990a5eb 7014
owner: 51472814@N08
title: Day 99 of 365 - Which one?
originalsecret: null
originalformat: null
o_height: null
o_width: null
datetaken: 2011-12-01 10:26:10
dateupload: 1322756877
tags: orange white black color cat diptych feline bokeh kitty surprised meow 365 pick clinic could choose suprise
license: 0
latitude: 41.613079
longitude: -88.060417
accuracy: 16
views: 17
interestingness: 134 out of 241

photo: 6435816591 1910575d19 7001
owner: 11185080@N03
title: Police Presence :  #n30 #strike Pensions Protest : Flag Market : Preston : Lancs Constabulary Central Division :
originalsecret: null
originalformat: null
o_height: null
o_width: null
datetaken: 2011-11-30 03:39:39
dateupload: 1322739899
tags: england english digital photoshop nikon zoom north lancashire adobe preston british nikkor lenses nikond1x d1x alienskinexposure 70210mmf4af nikonzoom70210mmf4series nikkor70210mmf4afzoom
license: 0
latitude: 53.759285
longitude: -2.699342
accuracy: 16
views: 54
interestingness: 135 out of 241

photo: 6434850671 c31721da57 7149
owner: 14573979@N00
title: Unusual
originalsecret: 7d50f16ab0
originalformat: jpg
o_height: 980
o_width: 1280
datetaken: 2011-12-01 15:42:34
dateupload: 1322718154
tags: geotagged australia queensland diptera granitebelt mgjefferies girraweennp geo:country=australia taxonomy:genus=pelecorhynchus pelecorhynchus pelecorhynchidae geo:lat=28877617 geo:lon=151968019 mtnormandayusepark taxonomy:binomial=pelecorhynchuslunulatus pelecorhynchuslunulatus
license: 2
latitude: -28.877626
longitude: 151.967707
accuracy: 16
views: 36
interestingness: 136 out of 241

photo: 6433901131 e282c8c773 7027
owner: 11185080@N03
title: Preston Fishergate :  #strike #n30 Pensions Protest March : UNITE Union : A very colourful character ? :
originalsecret: null
originalformat: null
o_height: null
o_width: null
datetaken: 2011-11-30 03:10:22
dateupload: 1322703567
tags: england people english digital photoshop nikon zoom north lancashire adobe preston british nikkor lenses nikond1x d1x alienskinexposure 70210mmf4af nikonzoom70210mmf4series nikkor70210mmf4afzoom
license: 0
latitude: 53.758308
longitude: -2.69966
accuracy: 16
views: 29
interestingness: 137 out of 241

photo: 6435387709 420cabccfc 7019
owner: 21709252@N08
title: jonglerie feu (8)
originalsecret: e805d78379
originalformat: jpg
o_height: 5616
o_width: 3744
datetaken: 2011-11-30 22:29:24
dateupload: 1322730055
tags: france bestof reims ext?rieur nuit strobe jonglerie strobist
license: 0
latitude: 49.260833
longitude: 4.029833
accuracy: 16
views: 35
interestingness: 138 out of 241

photo: 6437270653 d279f5e873 7151
owner: 25877284@N04
title: Latte Mocha
originalsecret: null
originalformat: null
o_height: null
o_width: null
datetaken: 2011-11-20 18:04:23
dateupload: 1322762066
tags: pictures uk wedding portrait white black colour sexy london girl fashion lady studio photography book design high model women shoot photographer post image low creative event commercial agency subject retouch cheap retouching thebest expencive usman affordable ervin verygood fashionphotographer alltypes potrfolio photographerinlondon commercialphotographerinlondon ervinusmancom wwwervinusmancouk wwwervinusmancom ervinusman centrelondonstudio testshootportfoilo eventphotographerinlondon fashionphotographerinlondon portfoliophotographerinlondon catalogphotographerinlondon
license: 0
latitude: 51.519558
longitude: -0.098426
accuracy: 15
views: 42
interestingness: 139 out of 241

photo: 6437035247 9b9acd7cba 7013
owner: 8562789@N03
title: Russo's Bakery
originalsecret: cb42bcf41c
originalformat: jpg
o_height: 2424
o_width: 3636
datetaken: 2011-11-28 15:45:32
dateupload: 1322758985
tags: cakes cookies italian ct pizza bakery pies sweets kelly pastries enfield topnotch cannolli 06082
license: 0
latitude: 42.002653
longitude: -72.592635
accuracy: 15
views: 64
interestingness: 140 out of 241

photo: 6434669291 c00c23aedb 7020
owner: 93254204@N00
title: ...My Job
originalsecret: null
originalformat: null
o_height: null
o_width: null
datetaken: 2011-11-30 14:07:47
dateupload: 1322714892
tags: autumn holland fall netherlands amsterdam europe wicked nophotoshop lifeisgood android app carpediem htc 2011 mobilephonecam amstersam reflectah amstersm amsterdamthebestcityintheworld reflectionsofamsterdam checkoutmywebsitewwwamstersamcom wickedreflections thewickedreflectah amstersmthewickedreflectah htcdesire camera360 htcdesiremobilephonecam
license: 0
latitude: 52.372887
longitude: 4.892821
accuracy: 14
views: 94
interestingness: 141 out of 241

photo: 6434276405 3a2b82912e 7160
owner: 52995822@N05
title: juvenile eagle flyby
originalsecret: null
originalformat: null
o_height: null
o_width: null
datetaken: 2011-11-30 09:30:45
dateupload: 1322709112
tags: canada nikon eagle britishcolumbia wildlife baldeagle bald raptor immature juvenile baldy birdofprey d7000 sigma150500apodgos
license: 0
latitude: 49.261867
longitude: -121.950387
accuracy: 13
views: 19
interestingness: 142 out of 241

photo: 6437672119 08e8d2eca2 7022
owner: 36816911@N04
title: Coucher de soleil,
originalsecret: 639f9209a9
originalformat: jpg
o_height: 2415
o_width: 3623
datetaken: 2011-12-01 16:58:28
dateupload: 1322767593
tags: bestof lieux pyr?n?esorientales autre
license: 0
latitude: 42.672086
longitude: 2.988624
accuracy: 11
views: 8
interestingness: 143 out of 241

photo: 6437839255 b83e691987 7151
owner: 66025415@N03
title: It's raining leaves
originalsecret: 9b1db2dcbd
originalformat: jpg
o_height: 1600
o_width: 1200
datetaken: 2011-12-01 13:04:34
dateupload: 1322769874
tags: family camping nature photography fallcolor hiking
license: 0
latitude: 35.217715
longitude: -111.647872
accuracy: 11
views: 12
interestingness: 144 out of 241

photo: 6437447779 5b295de59f 7027
owner: 25877284@N04
title: Gift Has a Potential
originalsecret: null
originalformat: null
o_height: null
o_width: null
datetaken: 2011-11-20 18:03:34
dateupload: 1322764495
tags: pictures uk wedding portrait white black colour sexy london girl fashion lady studio photography book design high model women shoot photographer post image low creative event commercial agency subject retouch cheap retouching thebest expencive usman affordable ervin verygood fashionphotographer alltypes potrfolio photographerinlondon commercialphotographerinlondon ervinusmancom wwwervinusmancouk wwwervinusmancom ervinusman centrelondonstudio testshootportfoilo eventphotographerinlondon fashionphotographerinlondon portfoliophotographerinlondon catalogphotographerinlondon
license: 0
latitude: 51.519558
longitude: -0.098426
accuracy: 15
views: 49
interestingness: 145 out of 241

photo: 6429918573 eb56d588f6 7149
owner: 56546681@N00
title: Hoop Hoop Hooray
originalsecret: 5d6a2dbcac
originalformat: jpg
o_height: 1821
o_width: 3188
datetaken: 2011-11-20 15:19:05
dateupload: 1322738590
tags: bird spain lanzarote canarias canaries canaryislands upupaepops hoopoe islascanarias bricheno
license: 0
latitude: 29.001853
longitude: -13.482563
accuracy: 15
views: 10
interestingness: 146 out of 241

photo: 6437054419 71bb8a0ba3 7141
owner: 21509490@N04
title: Marianas Trench
originalsecret: null
originalformat: null
o_height: null
o_width: null
datetaken: 2011-11-29 19:08:56
dateupload: 1322759246
tags: new york city nyc newyorkcity november ny newyork mike matt ian michael joshua matthew manhattan josh trench timessquare mattwebb webb ramsay casselman marianas 2011 nokiatheater nokiatheatre joshramsay marianastrench ayley mikeayley iancasselman bestbuytheater gyho getyourheartontour
license: 0
latitude: 40.757851
longitude: -73.986493
accuracy: 16
views: 12
interestingness: 147 out of 241

photo: 6435773051 ed0d16e3bf 7022
owner: 10901231@N06
title: Mari Maia
originalsecret: null
originalformat: null
o_height: null
o_width: null
datetaken: 2011-09-11 15:20:41
dateupload: 1322739014
tags: 
license: 0
latitude: -30.113596
longitude: -51.178407
accuracy: 14
views: 38
interestingness: 148 out of 241

photo: 6435723391 5ebf67b1db 7154
owner: 46038908@N02
title: Project 365 (Day 333)
originalsecret: null
originalformat: null
o_height: null
o_width: null
datetaken: 2011-12-01 10:09:13
dateupload: 1322737964
tags: poinsettia
license: 0
latitude: 52.396469
longitude: -0.53222
accuracy: 11
views: 23
interestingness: 149 out of 241

photo: 6434742487 a15615806b 7156
owner: 75698896@N00
title: Logan Square library bike parking
originalsecret: 101b21bd13
originalformat: jpg
o_height: 2175
o_width: 2900
datetaken: 2011-11-29 15:36:35
dateupload: 1322716144
tags: bicycling entrance bikerack cpl chicagopubliclibrary bikeparking entracen fullertonavenue 50feetrule
license: 1
latitude: 41.924968
longitude: -87.703697
accuracy: 16
views: 43
interestingness: 150 out of 241

photo: 6437316503 5561e4db50 7172
owner: 74116534@N00
title: Paddington Station Tilt-Shift
originalsecret: 8ab4b72366
originalformat: jpg
o_height: 2560
o_width: 1920
datetaken: 2011-12-01 12:20:02
dateupload: 1322762685
tags: london station train railway paddington tiltshift
license: 0
latitude: 51.516113
longitude: -0.176832
accuracy: 14
views: 77
interestingness: 151 out of 241

photo: 6435901653 8b9ce42a8a 7008
owner: 53048314@N08
title: Time tunnel ????
originalsecret: null
originalformat: null
o_height: null
o_width: null
datetaken: 2011-11-05 12:45:02
dateupload: 1322741671
tags: bw
license: 0
latitude: 51.97954
longitude: 4.120903
accuracy: 14
views: 35
interestingness: 152 out of 241

photo: 6435483369 ed5cfed010 7171
owner: 44797459@N04
title: Whitby Pier on a Blustery Day!
originalsecret: e6782f033d
originalformat: jpg
o_height: 1200
o_width: 1800
datetaken: 2011-09-11 13:37:09
dateupload: 1322732374
tags: bay coast pier sand wind yorkshire gales september whitby 2011
license: 0
latitude: 54.491704
longitude: -0.617809
accuracy: 13
views: 8
interestingness: 153 out of 241

photo: 6433611215 3dc2c3b928 7161
owner: 38428539@N02
title: Vaulted arches and fluted pillars
originalsecret: null
originalformat: null
o_height: null
o_width: null
datetaken: 2011-11-30 13:13:34
dateupload: 1322699397
tags: museum scotland nikon gallery dundee mcmanus d3000
license: 0
latitude: 56.462496
longitude: -2.970997
accuracy: 16
views: 7
interestingness: 154 out of 241

photo: 6435786675 f70e4268f5 7018
owner: 27455330@N02
title: Nuthatch on Guard
originalsecret: c6fea17860
originalformat: jpg
o_height: 720
o_width: 608
datetaken: 2011-11-30 12:55:42
dateupload: 1322739303
tags: bird nuthatch staffordshire cannockchase broctoncoppice
license: 0
latitude: 52.769227
longitude: -2.032699
accuracy: 11
views: 41
interestingness: 155 out of 241

photo: 6435227413 11e0d59b54 7142
owner: 48935799@N05
title: View from Byurakan Observatory
originalsecret: eca33254a2
originalformat: jpg
o_height: 950
o_width: 9093
datetaken: 2011-12-01 07:57:09
dateupload: 1322726229
tags: panorama pano gimp observatory armenia ???????? hugin ufraw ??????? ???????????? byurakan ??????? ???????????????????????
license: 2
latitude: 40.357532
longitude: 44.263916
accuracy: 10
views: 26
interestingness: 156 out of 241

photo: 6433141147 0aec6157e0 7022
owner: 7971895@N03
title: Carreteras Secundarias
originalsecret: null
originalformat: null
o_height: null
o_width: null
datetaken: 2011-11-29 12:18:10
dateupload: 1322724180
tags: carretera pastor burgos merindad angelpastor carreterassecundarias
license: 0
latitude: 42.905142
longitude: -3.589353
accuracy: 11
views: 12
interestingness: 157 out of 241

photo: 6436790853 901324fb82 7024
owner: 50357135@N00
title: Roveredo - Anno scolastico 1965/66
originalsecret: d383f0a04c
originalformat: jpg
o_height: 1032
o_width: 1566
datetaken: 2011-12-01 13:56:35
dateupload: 1322755721
tags: canoe moesa mesolcina grigioni roveredo mariannamenini scolaelementareroveredo
license: 0
latitude: 46.236763
longitude: 9.14009
accuracy: 14
views: 28
interestingness: 158 out of 241

photo: 6435371145 642db80f44 7147
owner: 21709252@N08
title: jonglerie feu (1)
originalsecret: b8c618e597
originalformat: jpg
o_height: 5616
o_width: 3744
datetaken: 2011-11-30 22:09:19
dateupload: 1322729645
tags: france bestof reims ext?rieur nuit strobe jonglerie strobist
license: 0
latitude: 49.260833
longitude: 4.029833
accuracy: 16
views: 13
interestingness: 159 out of 241

photo: 6434275823 5f45febc24 7141
owner: 15875314@N08
title: ReservoirGate35_06
originalsecret: 4dc4d59976
originalformat: jpg
o_height: 1024
o_width: 1280
datetaken: 2011-11-27 16:36:09
dateupload: 1322709103
tags: sunset bird water rocks hawk reservoir wachusett cellarholes gate35
license: 3
latitude: 42.397414
longitude: -71.735964
accuracy: 16
views: 24
interestingness: 160 out of 241

photo: 6434016147 65bc2fa915 7153
owner: 21737986@N06
title: Bridge8706
originalsecret: b9708f24a8
originalformat: jpg
o_height: 750
o_width: 1125
datetaken: 2011-11-24 22:09:55
dateupload: 1322705270
tags: texas canonefs1855mm japanesegardens fortworth topaz canoneos60d
license: 0
latitude: 32.737328
longitude: -97.364273
accuracy: 11
views: 11
interestingness: 161 out of 241

photo: 6437216661 efb901b95a 7031
owner: 25877284@N04
title: Time to Skip a Day
originalsecret: null
originalformat: null
o_height: null
o_width: null
datetaken: 2011-11-20 18:55:58
dateupload: 1322761344
tags: pictures uk wedding portrait white black colour sexy london girl fashion lady studio photography book design high model women shoot photographer post image low creative event commercial agency subject retouch cheap retouching thebest expencive usman affordable ervin verygood fashionphotographer alltypes potrfolio photographerinlondon commercialphotographerinlondon ervinusmancom wwwervinusmancouk wwwervinusmancom ervinusman centrelondonstudio testshootportfoilo eventphotographerinlondon fashionphotographerinlondon portfoliophotographerinlondon catalogphotographerinlondon
license: 0
latitude: 51.519558
longitude: -0.098426
accuracy: 15
views: 39
interestingness: 162 out of 241

photo: 6437096535 06e6c642af 7001
owner: 25877284@N04
title: Softnoise Dark Revolution
originalsecret: null
originalformat: null
o_height: null
o_width: null
datetaken: 2011-11-20 17:25:20
dateupload: 1322759812
tags: pictures uk wedding portrait white black colour sexy london girl fashion lady studio photography book design high model women shoot photographer post image low creative event commercial agency subject retouch cheap retouching thebest expencive usman affordable ervin verygood fashionphotographer alltypes potrfolio photographerinlondon commercialphotographerinlondon ervinusmancom wwwervinusmancouk wwwervinusmancom ervinusman centrelondonstudio testshootportfoilo eventphotographerinlondon fashionphotographerinlondon portfoliophotographerinlondon catalogphotographerinlondon
license: 0
latitude: 51.519558
longitude: -0.098426
accuracy: 15
views: 26
interestingness: 163 out of 241

photo: 6436613279 2c231648b4 7157
owner: 22525955@N05
title: Pancake House's Beef Tapsilog
originalsecret: 50b3621ddc
originalformat: jpg
o_height: 854
o_width: 1280
datetaken: 2011-11-17 18:14:31
dateupload: 1322753363
tags: lumix tapa pancakehouse lx5 beeftapa panasoniclumixlx5
license: 0
latitude: 14.620585
longitude: 121.055002
accuracy: 13
views: 32
interestingness: 164 out of 241

photo: 6435385861 001339b858 7018
owner: 21709252@N08
title: jonglerie feu (7)
originalsecret: 628edeb2f1
originalformat: jpg
o_height: 5616
o_width: 3744
datetaken: 2011-11-30 22:26:08
dateupload: 1322730007
tags: france bestof reims ext?rieur nuit strobe jonglerie strobist
license: 0
latitude: 49.260833
longitude: 4.029833
accuracy: 16
views: 12
interestingness: 165 out of 241

photo: 6434220349 307f46fe71 7017
owner: 11185080@N03
title: UNISON  #n30 #strike Preston  : " Average NHS Pension - ?7K Is that Goldplated ? Dave Snooty & his Eton Rifles  - Daily Sieg Heil / Diana / EDL / Mailey Torygraph / Murdoch's Comic ???
originalsecret: null
originalformat: null
o_height: null
o_width: null
datetaken: 2011-11-30 03:11:47
dateupload: 1322708257
tags: uk england people english digital photoshop nikon zoom flash lancashire adobe preston british nikkor lenses nikond1x d1x alienskinexposure 70210mmf4af metz54mz3 nikonzoom70210mmf4series nikkor70210mmf4afzoom
license: 0
latitude: 53.758365
longitude: -2.699182
accuracy: 16
views: 36
interestingness: 166 out of 241

photo: 6433833833 44cdb5337d 7162
owner: 31299420@N03
title: Doc: The best restaurant (there).
originalsecret: null
originalformat: null
o_height: null
o_width: null
datetaken: 2011-11-14 09:13:44
dateupload: 1322702586
tags: blackandwhite canada restaurant s90 deepriver
license: 0
latitude: 46.098068
longitude: -77.492652
accuracy: 11
views: 10
interestingness: 167 out of 241

photo: 6437815097 92fac987ef 7144
owner: 56947320@N02
title: Doug on Holiday
originalsecret: 41bf325ffb
originalformat: jpg
o_height: 2480
o_width: 3520
datetaken: 2009-08-21 13:08:54
dateupload: 1322769560
tags: ocean blue sea summer dog holiday wales doug sunny penbryn dougan
license: 0
latitude: 52.151081
longitude: -4.489974
accuracy: 11
views: 5
interestingness: 168 out of 241

photo: 6437583811 cce12c66e6 7003
owner: 94056408@N00
title: WJ King Brighton Best
originalsecret: 6253823c80
originalformat: jpg
o_height: 2592
o_width: 1552
datetaken: 2011-12-01 19:04:48
dateupload: 1322766391
tags: art beer illustration design brighton king ale best clip pump brewery pint bitter wj alcahol pumpclip wjking brightonbest flickrandroidapp:filter=none
license: 4
latitude: 51.461921
longitude: -0.08046
accuracy: 16
views: 7
interestingness: 169 out of 241

photo: 6437438361 b9e37dbfb2 7160
owner: 35535885@N03
title: Best Friend and Hero - pug dog tree
originalsecret: 07d42907d4
originalformat: jpg
o_height: 2173
o_width: 2253
datetaken: 2011-11-30 13:14:09
dateupload: 1322764362
tags: christmas trees decorations dog hospital pug ornaments decorating childrens primary
license: 0
latitude: 40.580336
longitude: -111.890505
accuracy: 16
views: 4
interestingness: 170 out of 241

photo: 6437240021 0c18345403 7014
owner: 21509490@N04
title: Get Your Heart On tour
originalsecret: null
originalformat: null
o_height: null
o_width: null
datetaken: 2011-11-29 17:54:29
dateupload: 1322761654
tags: new york city nyc newyorkcity november ny newyork kids manhattan cab plan trench timessquare forever simple sickest the marianas simpleplan 2011 nokiatheater nokiatheatre ftsk marianastrench thecab foreverthesickestkids bestbuytheater gyho getyourheartontour
license: 0
latitude: 40.757851
longitude: -73.986493
accuracy: 16
views: 23
interestingness: 171 out of 241

photo: 6437236749 6bc22af4cd 7033
owner: 21509490@N04
title: Get Your Heart On tour
originalsecret: null
originalformat: null
o_height: null
o_width: null
datetaken: 2011-11-29 17:54:43
dateupload: 1322761609
tags: new york city nyc newyorkcity november ny newyork kids manhattan cab plan trench timessquare forever simple sickest the marianas simpleplan 2011 nokiatheater nokiatheatre ftsk marianastrench thecab foreverthesickestkids bestbuytheater gyho getyourheartontour
license: 0
latitude: 40.757851
longitude: -73.986493
accuracy: 16
views: 23
interestingness: 172 out of 241

photo: 6437203261 6683e15a21 7168
owner: 25877284@N04
title: Somewhere Else Black
originalsecret: null
originalformat: null
o_height: null
o_width: null
datetaken: 2011-11-20 18:53:19
dateupload: 1322761177
tags: pictures uk wedding portrait white black colour sexy london girl fashion lady studio photography book design high model women shoot photographer post image low creative event commercial agency subject retouch cheap retouching thebest expencive usman affordable ervin verygood fashionphotographer alltypes potrfolio photographerinlondon commercialphotographerinlondon ervinusmancom wwwervinusmancouk wwwervinusmancom ervinusman centrelondonstudio testshootportfoilo eventphotographerinlondon fashionphotographerinlondon portfoliophotographerinlondon catalogphotographerinlondon
license: 0
latitude: 51.519558
longitude: -0.098426
accuracy: 15
views: 20
interestingness: 173 out of 241

photo: 6437057735 1bff785d7c 7023
owner: 21509490@N04
title: Marianas Trench
originalsecret: null
originalformat: null
o_height: null
o_width: null
datetaken: 2011-11-29 19:13:54
dateupload: 1322759289
tags: new york city nyc newyorkcity november ny newyork mike matt ian michael joshua matthew manhattan josh trench timessquare mattwebb webb ramsay casselman marianas 2011 nokiatheater nokiatheatre joshramsay marianastrench ayley mikeayley iancasselman bestbuytheater gyho getyourheartontour
license: 0
latitude: 40.757851
longitude: -73.986493
accuracy: 16
views: 14
interestingness: 174 out of 241

photo: 6437057079 c0e2f487a6 7018
owner: 21509490@N04
title: Marianas Trench
originalsecret: null
originalformat: null
o_height: null
o_width: null
datetaken: 2011-11-29 19:07:34
dateupload: 1322759281
tags: new york city nyc newyorkcity november ny newyork mike matt ian michael joshua matthew manhattan josh trench timessquare mattwebb webb ramsay casselman marianas 2011 nokiatheater nokiatheatre joshramsay marianastrench ayley mikeayley iancasselman bestbuytheater gyho getyourheartontour
license: 0
latitude: 40.757851
longitude: -73.986493
accuracy: 16
views: 10
interestingness: 175 out of 241

photo: 6437056429 83c2082bec 7018
owner: 21509490@N04
title: Marianas Trench
originalsecret: null
originalformat: null
o_height: null
o_width: null
datetaken: 2011-11-29 19:11:52
dateupload: 1322759272
tags: new york city nyc newyorkcity november ny newyork mike matt ian michael joshua matthew manhattan josh trench timessquare mattwebb webb ramsay casselman marianas 2011 nokiatheater nokiatheatre joshramsay marianastrench ayley mikeayley iancasselman bestbuytheater gyho getyourheartontour
license: 0
latitude: 40.757851
longitude: -73.986493
accuracy: 16
views: 12
interestingness: 176 out of 241

photo: 6437055805 eb33bd0435 7160
owner: 21509490@N04
title: Marianas Trench
originalsecret: null
originalformat: null
o_height: null
o_width: null
datetaken: 2011-11-29 19:10:31
dateupload: 1322759263
tags: new york city nyc newyorkcity november ny newyork mike matt ian michael joshua matthew manhattan josh trench timessquare mattwebb webb ramsay casselman marianas 2011 nokiatheater nokiatheatre joshramsay marianastrench ayley mikeayley iancasselman bestbuytheater gyho getyourheartontour
license: 0
latitude: 40.757851
longitude: -73.986493
accuracy: 16
views: 12
interestingness: 177 out of 241

photo: 6437055043 42fa01a467 7004
owner: 21509490@N04
title: Marianas Trench
originalsecret: null
originalformat: null
o_height: null
o_width: null
datetaken: 2011-11-29 19:03:54
dateupload: 1322759254
tags: new york city nyc newyorkcity november ny newyork mike matt ian michael joshua matthew manhattan josh trench timessquare mattwebb webb ramsay casselman marianas 2011 nokiatheater nokiatheatre joshramsay marianastrench ayley mikeayley iancasselman bestbuytheater gyho getyourheartontour
license: 0
latitude: 40.757851
longitude: -73.986493
accuracy: 16
views: 15
interestingness: 178 out of 241

photo: 6437053839 27fb3abddf 7009
owner: 21509490@N04
title: Marianas Trench
originalsecret: null
originalformat: null
o_height: null
o_width: null
datetaken: 2011-11-29 19:05:01
dateupload: 1322759238
tags: new york city nyc newyorkcity november ny newyork mike matt ian michael joshua matthew manhattan josh trench timessquare mattwebb webb ramsay casselman marianas 2011 nokiatheater nokiatheatre joshramsay marianastrench ayley mikeayley iancasselman bestbuytheater gyho getyourheartontour
license: 0
latitude: 40.757851
longitude: -73.986493
accuracy: 16
views: 5
interestingness: 179 out of 241

photo: 6437053297 6eff38bf4c 7163
owner: 21509490@N04
title: Marianas Trench
originalsecret: null
originalformat: null
o_height: null
o_width: null
datetaken: 2011-11-29 19:08:21
dateupload: 1322759230
tags: new york city nyc newyorkcity november ny newyork mike matt ian michael joshua matthew manhattan josh trench timessquare mattwebb webb ramsay casselman marianas 2011 nokiatheater nokiatheatre joshramsay marianastrench ayley mikeayley iancasselman bestbuytheater gyho getyourheartontour
license: 0
latitude: 40.757851
longitude: -73.986493
accuracy: 16
views: 10
interestingness: 180 out of 241

photo: 6437052549 f284b71f6b 7019
owner: 21509490@N04
title: Marianas Trench
originalsecret: null
originalformat: null
o_height: null
o_width: null
datetaken: 2011-11-29 19:05:01
dateupload: 1322759221
tags: new york city nyc newyorkcity november ny newyork mike matt ian michael joshua matthew manhattan josh trench timessquare mattwebb webb ramsay casselman marianas 2011 nokiatheater nokiatheatre joshramsay marianastrench ayley mikeayley iancasselman bestbuytheater gyho getyourheartontour
license: 0
latitude: 40.757851
longitude: -73.986493
accuracy: 16
views: 6
interestingness: 181 out of 241

photo: 6437051999 b58a1c97be 7034
owner: 21509490@N04
title: Marianas Trench
originalsecret: null
originalformat: null
o_height: null
o_width: null
datetaken: 2011-11-29 19:04:13
dateupload: 1322759213
tags: new york city nyc newyorkcity november ny newyork mike matt ian michael joshua matthew manhattan josh trench timessquare mattwebb webb ramsay casselman marianas 2011 nokiatheater nokiatheatre joshramsay marianastrench ayley mikeayley iancasselman bestbuytheater gyho getyourheartontour
license: 0
latitude: 40.757851
longitude: -73.986493
accuracy: 16
views: 15
interestingness: 182 out of 241

photo: 6437051303 b60a1980fd 7164
owner: 21509490@N04
title: Marianas Trench
originalsecret: null
originalformat: null
o_height: null
o_width: null
datetaken: 2011-11-29 19:07:51
dateupload: 1322759205
tags: new york city nyc newyorkcity november ny newyork mike matt ian michael joshua matthew manhattan josh trench timessquare mattwebb webb ramsay casselman marianas 2011 nokiatheater nokiatheatre joshramsay marianastrench ayley mikeayley iancasselman bestbuytheater gyho getyourheartontour
license: 0
latitude: 40.757851
longitude: -73.986493
accuracy: 16
views: 16
interestingness: 183 out of 241

photo: 6436689145 21283def0b 7149
owner: 65972318@N00
title: EMS 2011
originalsecret: null
originalformat: null
o_height: null
o_width: null
datetaken: 2011-11-29 15:09:03
dateupload: 1322754401
tags: auto show cars car chopper essen expo fair racing harley rod oldtimer motor gt dtm tuning messe rallye motorshow motorsport bestofshow area51 costum hod 2011 gruga
license: 0
latitude: 51.428942
longitude: 6.9946
accuracy: 14
views: 13
interestingness: 184 out of 241

photo: 6436687133 af49b426be 7166
owner: 65972318@N00
title: EMS 2011
originalsecret: null
originalformat: null
o_height: null
o_width: null
datetaken: 2011-11-29 15:08:50
dateupload: 1322754371
tags: auto show cars car chopper essen expo fair racing harley rod oldtimer motor gt dtm tuning messe rallye motorshow motorsport bestofshow area51 costum hod 2011 gruga
license: 0
latitude: 51.428942
longitude: 6.9946
accuracy: 14
views: 5
interestingness: 185 out of 241

photo: 6436150277 40e0322ed6 7143
owner: 19561933@N00
title: OFF ROAD PARKING..301111
originalsecret: 26dbcdf434
originalformat: jpg
o_height: 2976
o_width: 3968
datetaken: 2011-11-30 13:57:43
dateupload: 1322746254
tags: olympus mishap spixworth mju9000
license: 0
latitude: 52.690872
longitude: 1.307287
accuracy: 13
views: 10
interestingness: 186 out of 241

photo: 6435888135 f745834798 7161
owner: 43806248@N08
title: Dim Sum
originalsecret: a6f1edba32
originalformat: jpg
o_height: 2592
o_width: 3888
datetaken: 2011-11-30 18:34:49
dateupload: 1322741403
tags: food green yellow hongkong hand chinese dimsum chopsticks 3am cantonese yumcha dumpling kennedytown
license: 0
latitude: 22.283
longitude: 114.128615
accuracy: 15
views: 13
interestingness: 187 out of 241

photo: 6435826729 b978d92fd6 7166
owner: 53048314@N08
title: float ?
originalsecret: null
originalformat: null
o_height: null
o_width: null
datetaken: 2011-11-13 14:52:46
dateupload: 1322740118
tags: bw lake water landscape
license: 0
latitude: 51.928819
longitude: 4.518771
accuracy: 15
views: 38
interestingness: 188 out of 241

photo: 6435526209 57615a6139 7170
owner: 65509306@N03
title: Day 107: "Decline of the West" by Conor Harrington
originalsecret: null
originalformat: null
o_height: null
o_width: null
datetaken: 2011-12-01 09:57:15
dateupload: 1322733435
tags: streetart square mural squareformat brannan e1 manonhorse declineofthewest postgrafitti conorharrington shoreditchart iphoneography instagramapp uploaded:by=instagram fashionstreetgrafitti
license: 0
latitude: 51.518397
longitude: -0.073871
accuracy: 15
views: 35
interestingness: 189 out of 241

photo: 6435438903 829d0fc020 7028
owner: 55492335@N08
title: Tahoe at 15
originalsecret: 9f5d3381f6
originalformat: jpg
o_height: 2560
o_width: 3200
datetaken: 2011-11-11 15:57:54
dateupload: 1322731279
tags: jack russell tahoe terrier
license: 0
latitude: 46.98498
longitude: -124.144692
accuracy: 16
views: 9
interestingness: 190 out of 241

photo: 6435328379 05c0e85ce0 7023
owner: 12494104@N00
title: Darlington Civic 6231
originalsecret: null
originalformat: null
o_height: null
o_width: null
datetaken: 2011-11-24 10:35:49
dateupload: 1322728568
tags: uk england cinema architecture teatro kino theater theatre cleveland olympus palace cine darlington civic e3 teesside edwardian grade2 listed hippodrome countydurham parkgate boroughroad newhippodrome owenward gordonhoskins
license: 0
latitude: 54.524659
longitude: -1.54859
accuracy: 16
views: 22
interestingness: 191 out of 241

photo: 6435084625 546d379cc1 7003
owner: 34325628@N05
title: Best Liquor Store - Atlantic City, NJ
originalsecret: 706cff8c2a
originalformat: jpg
o_height: 3168
o_width: 4752
datetaken: 2011-11-26 16:51:42
dateupload: 1322722981
tags: city urban signs reflections newjersey forsale bricks nj liquor posters atlanticcity jersey ac stores puddles jerseyshore bookcovers albumcovers jerze chrisgoldberg
license: 2
latitude: 39.363012
longitude: -74.420399
accuracy: 15
views: 61
interestingness: 192 out of 241

photo: 6433960493 c15158de39 7174
owner: 59284335@N05
title: Manoel Ferreira_239
originalsecret: 44c5aeac6e
originalformat: jpg
o_height: 2100
o_width: 1588
datetaken: 2011-11-06 16:27:48
dateupload: 1322704468
tags: nov2011
license: 3
latitude: -23.482334
longitude: -45.072834
accuracy: 16
views: 1
interestingness: 193 out of 241

photo: 6433935951 d96230fc38 7169
owner: 40900444@N05
title: missey_no.2
originalsecret: 44f71d4d38
originalformat: jpg
o_height: 804
o_width: 764
datetaken: 2011-11-29 17:41:23
dateupload: 1322704119
tags: portrait bw woman girl model graywolfx47
license: 5
latitude: 34.482027
longitude: -82.641928
accuracy: 14
views: 51
interestingness: 194 out of 241

photo: 6433627533 86b8bf10b6 7021
owner: 23164696@N00
title: Oh deer
originalsecret: null
originalformat: null
o_height: null
o_width: null
datetaken: 2011-12-01 09:31:58
dateupload: 1322699518
tags: valencia japan square bread reindeer tokyo december deer squareformat rudolf mitaka dear 2011 tohobakery iphoneography instagramapp uploaded:by=instagram foursquare:venue=4bd2993ccaff9521c039d3f0
license: 0
latitude: 35.691708
longitude: 139.56943
accuracy: 16
views: 24
interestingness: 195 out of 241

photo: 6437839487 c7c7cc0396 7019
owner: 66025415@N03
title: Fall Color in Arizona
originalsecret: a353a0d523
originalformat: jpg
o_height: 1026
o_width: 1552
datetaken: 2011-12-01 13:04:37
dateupload: 1322769877
tags: family camping nature photography fallcolor hiking
license: 0
latitude: 35.1982
longitude: -111.651298
accuracy: 11
views: 27
interestingness: 196 out of 241

photo: 6437193393 e20d2fca97 7153
owner: 25877284@N04
title: Time to Skip a Day
originalsecret: null
originalformat: null
o_height: null
o_width: null
datetaken: 2011-11-20 18:55:58
dateupload: 1322761061
tags: pictures uk wedding portrait white black colour sexy london girl fashion lady studio photography book design high model women shoot photographer post image low creative event commercial agency subject retouch cheap retouching thebest expencive usman affordable ervin verygood fashionphotographer alltypes potrfolio photographerinlondon commercialphotographerinlondon ervinusmancom wwwervinusmancouk wwwervinusmancom ervinusman centrelondonstudio testshootportfoilo eventphotographerinlondon fashionphotographerinlondon portfoliophotographerinlondon catalogphotographerinlondon
license: 0
latitude: 51.519558
longitude: -0.098426
accuracy: 15
views: 35
interestingness: 197 out of 241

photo: 6436514307 a673f1bc8c 7017
owner: 47642109@N04
title: best buds
originalsecret: c4193547d4
originalformat: jpg
o_height: 3000
o_width: 4000
datetaken: 2011-11-30 15:56:01
dateupload: 1322751918
tags: 
license: 1
latitude: 53.839618
longitude: -1.516631
accuracy: 16
views: 1
interestingness: 198 out of 241

photo: 6436512521 b24b305487 7155
owner: 43413480@N07
title: Hotel Kursaal.
originalsecret: null
originalformat: null
o_height: null
o_width: null
datetaken: 2009-07-18 14:14:22
dateupload: 1322751893
tags: italy italia 2009 umbria motorhometravel liamcheasty hymertheodyssey passignanosultrasimino palliodellabarche
license: 0
latitude: 43.1834
longitude: 12.149677
accuracy: 13
views: 4
interestingness: 199 out of 241

photo: 6434750045 636ef4b9d3 7027
owner: 9914689@N02
title: Best treats for my mind, especially after seeing doctor
originalsecret: null
originalformat: null
o_height: null
o_width: null
datetaken: 2011-11-30 21:11:21
dateupload: 1322716281
tags: coffee square cafe kubrick bookstore cappuccino coffeebean amaro iphoneography
license: 0
latitude: 22.310736
longitude: 114.168956
accuracy: 16
views: 2
interestingness: 200 out of 241

photo: 6434375755 5b0e05945d 7010
owner: 78309869@N00
title: Gentoo Penguins, Bertha's Beach
originalsecret: null
originalformat: null
o_height: null
o_width: null
datetaken: 2011-11-30 05:00:42
dateupload: 1322710580
tags: cute beach penguin islands penguins gentoo falklands falkland wildpenguin
license: 0
latitude: -51.880305
longitude: -58.355941
accuracy: 11
views: 4
interestingness: 201 out of 241

photo: 6437239969 c4e704e7f9 7002
owner: 25877284@N04
title: Time to Skip a Day
originalsecret: null
originalformat: null
o_height: null
o_width: null
datetaken: 2011-11-20 18:55:58
dateupload: 1322761653
tags: pictures uk wedding portrait white black colour sexy london girl fashion lady studio photography book design high model women shoot photographer post image low creative event commercial agency subject retouch cheap retouching thebest expencive usman affordable ervin verygood fashionphotographer alltypes potrfolio photographerinlondon commercialphotographerinlondon ervinusmancom wwwervinusmancouk wwwervinusmancom ervinusman centrelondonstudio testshootportfoilo eventphotographerinlondon fashionphotographerinlondon portfoliophotographerinlondon catalogphotographerinlondon
license: 0
latitude: 51.519558
longitude: -0.098426
accuracy: 15
views: 37
interestingness: 202 out of 241

photo: 6435392861 d553baa9af 7016
owner: 21709252@N08
title: jonglerie feu (12)
originalsecret: e2a65d4a60
originalformat: jpg
o_height: 1668
o_width: 4604
datetaken: 2011-11-30 22:57:04
dateupload: 1322730177
tags: france bestof reims ext?rieur nuit strobe jonglerie strobist
license: 0
latitude: 49.260833
longitude: 4.029833
accuracy: 16
views: 31
interestingness: 203 out of 241

photo: 6435383345 c293e3d873 7018
owner: 21709252@N08
title: jonglerie feu (6)
originalsecret: 728ae86b7b
originalformat: jpg
o_height: 3744
o_width: 5616
datetaken: 2011-11-30 22:24:17
dateupload: 1322729945
tags: france bestof reims ext?rieur nuit strobe jonglerie strobist
license: 0
latitude: 49.260833
longitude: 4.029833
accuracy: 16
views: 11
interestingness: 204 out of 241

photo: 6435380427 5f29bd15bb 7026
owner: 21709252@N08
title: jonglerie feu (5)
originalsecret: 9f8fee23e5
originalformat: jpg
o_height: 3744
o_width: 5616
datetaken: 2011-11-30 22:24:17
dateupload: 1322729869
tags: france bestof reims ext?rieur nuit strobe jonglerie strobist
license: 0
latitude: 49.260833
longitude: 4.029833
accuracy: 16
views: 10
interestingness: 205 out of 241

photo: 6435378051 a5dfbd5a20 7146
owner: 21709252@N08
title: jonglerie feu (4)
originalsecret: 0821402b7c
originalformat: jpg
o_height: 5616
o_width: 3744
datetaken: 2011-11-30 22:23:16
dateupload: 1322729809
tags: france bestof reims ext?rieur nuit strobe jonglerie strobist
license: 0
latitude: 49.260833
longitude: 4.029833
accuracy: 16
views: 8
interestingness: 206 out of 241

photo: 6435375371 0f22e85e72 7026
owner: 21709252@N08
title: jonglerie feu (3)
originalsecret: 5d50262168
originalformat: jpg
o_height: 5616
o_width: 3744
datetaken: 2011-11-30 22:16:42
dateupload: 1322729746
tags: france bestof reims ext?rieur nuit strobe jonglerie strobist
license: 0
latitude: 49.260833
longitude: 4.029833
accuracy: 16
