
mintime: 1322697600 maxtime: 1322733590.86
numimgs: 310
total pages: 2
visiting only 2 pages ( up to 500 images)
photo: 6433881325 28bcb446fe 7165
owner: 13547802@N05
title: Green Stream - Aurora near Reykjav?k Iceland
originalsecret: 0c62bd0748
originalformat: jpg
o_height: 650
o_width: 950
datetaken: 2011-11-30 22:23:41
dateupload: 1322703280
tags: winter sky mountain lake snow storm reflection green ice weather river photography solar iceland astro arctic aurora magnetic northernlights 2011 arcticphoto
license: 0
latitude: 64.209514
longitude: -21.608905
accuracy: 11
views: 1230
interestingness: 1 out of 310

photo: 6415639865 46d35c5e0f 7174
owner: 41543045@N08
title: Queen of Hearts
originalsecret: null
originalformat: null
o_height: null
o_width: null
datetaken: 2011-11-27 22:09:34
dateupload: 1322731980
tags: red portrait woman colour art girl canon studio hearts alicia flash queen wonderland angular photodrama colorphotoaward ultrangular extrangular
license: 0
latitude: 40.458057
longitude: -3.708501
accuracy: 15
views: 341
interestingness: 2 out of 310

photo: 6434095831 ab155cbaf5 7155
owner: 36799084@N07
title: "Point Peele in Full Moon" Explored 11/30/11 # 270 Thank you!
originalsecret: null
originalformat: null
o_height: null
o_width: null
datetaken: 2010-09-20 03:29:54
dateupload: 1322706416
tags: canada geotagged dreamworks texturen nikongroup artmix ninianlifstextureaddicts flickrtextures heartandsoulphotography thefarpavilions magicartoftextures artofimages distressedtextures workingwithtextures thetexturedlandscape createtolive perfectioninpictures artuniinternational breathtakingcapture irenesteeves textureinfinitebook temarisgalacticstudio galleryofwonders adriennesuntouchabledream excellentgallery texturegenius matsgallery elegantphotoart amazingtexturedphotos photoartisttextures texturingtheworld artclassandvalue theromanticstorybook witnesstheemergingspiritinvite treasuresofkeepyoureyesopenadminvite magicuniverseadminvite theawardtreeadminvite tatotinvite avpamaingrp texturemonamourinvite galleryofdreamsadminvite keepyoureyesopennopeople treasuresofthisworldnopeople theworldwelovenopeople womanscreativity naturebyseasonnomanmade texturemyworldadminvite bookofinspirationstextured aworldmadeoftexturesadminvite lovelymotherearthfinearts heartsofoakadminvite photoshopforever ictadminvite netartisticvirtualspaceadminvite natureoftheuniversenomanmade digitalartsceneproadminvite tbcptextures irresistablybeautifultexturesadminvite theworldofeleganttextures magicunicornverybestinvite enchantingatmospheresandevocativesensationsadminvite
license: 0
latitude: 41.909443
longitude: -82.508804
accuracy: 15
views: 487
interestingness: 3 out of 310

photo: 6435138627 0a9e7ab104 7032
owner: 53359531@N04
title: E' l'autunno baby.......
originalsecret: null
originalformat: null
o_height: null
o_width: null
datetaken: 2011-11-19 10:09:49
dateupload: 1322724165
tags: autumn light nature water fog photoshop landscape photography nikon italia industrial image picture sigma natura adobe nik sole nebbia autunno hdr luce paesaggio imagery veneto 2011 photomatix rewinds efex maurizio51
license: 0
latitude: 45.440621
longitude: 12.238769
accuracy: 10
views: 245
interestingness: 4 out of 310

photo: 6435479681 a87088f4d0 7029
owner: 63862131@N07
title: no reality
originalsecret: 7aee148f56
originalformat: png
o_height: 2884
o_width: 2620
datetaken: 2011-12-01 12:38:00
dateupload: 1322732280
tags: art photography sl similar boon fashio baiastice delmay costaricasims redpoly
license: 0
latitude: 59.952277
longitude: 30.311897
accuracy: 11
views: 228
interestingness: 5 out of 310

photo: 6434987575 3b8022e434 7153
owner: 29965389@N03
title: 
originalsecret: null
originalformat: null
o_height: null
o_width: null
datetaken: 2011-11-13 14:50:14
dateupload: 1322720839
tags: people color colour 35mm canon dirty creta crete dirtyharry nologos 5dmkii dirtyharrry nobanners pleasenobanners pleasenologos
license: 0
latitude: 35.330251
longitude: 24.604396
accuracy: 11
views: 417
interestingness: 6 out of 310

photo: 6435259039 e966afe0e8 7004
owner: 10989519@N06
title: Sierappeltjes - Crab apple tree
originalsecret: 6789434bff
originalformat: jpg
o_height: 2989
o_width: 4500
datetaken: 2011-11-30 15:16:03
dateupload: 1322726957
tags: blue autumn trees winter red wild sky orange sunlight color detail tree green fall apple nature against floral beautiful yellow closeup fruit garden season botanical outdoors golden berry flora colorful branch natural bright vibrant background branches details small group decoration crab sunny boom fresh foliage twig colored apples hornet crabs deciduous geel blauwe autumnal hemel tak oranje ripe takken crabapples detailed crabapple kleurrijk zonlicht genus kleur malus zonnig sierappel sierappels iucht
license: 0
latitude: 51.675043
longitude: 4.803514
accuracy: 15
views: 480
interestingness: 7 out of 310

photo: 6435448795 69672065e4 7143
owner: 41520324@N06
title: Cloud rising
originalsecret: null
originalformat: null
o_height: null
o_width: null
datetaken: 2010-05-24 17:08:30
dateupload: 1322731517
tags: trees sunset cloud mountain nature branch afternoon gangtok incredibleindia mygearandme
license: 0
latitude: 27.325262
longitude: 88.608169
accuracy: 11
views: 248
interestingness: 8 out of 310

photo: 6435476283 54e1fba31e 7172
owner: 63862131@N07
title: No reality
originalsecret: f9db611a7c
originalformat: png
o_height: 2692
o_width: 1872
datetaken: 2011-12-01 12:36:30
dateupload: 1322732190
tags: art photography sl similar boon fashio baiastice delmay costaricasims redpoly
license: 0
latitude: 59.952586
longitude: 30.314575
accuracy: 11
views: 132
interestingness: 9 out of 310

photo: 6435368705 17d45944da 7017
owner: 22586063@N03
title: Entre les branches un "H?ron Bihoreau" se cache.
originalsecret: feb0a7a98e
originalformat: jpg
o_height: 1012
o_width: 1438
datetaken: 2011-08-29 10:23:36
dateupload: 1322729585
tags: bird nature animal french oiseau camargue naturel h?ronbihoreau
license: 0
latitude: 43.506728
longitude: 4.437103
accuracy: 9
views: 101
interestingness: 10 out of 310

photo: 6435490747 3764d622bb 7161
owner: 57623308@N07
title: Mach II
originalsecret: null
originalformat: null
o_height: null
o_width: null
datetaken: 2011-11-15 19:57:24
dateupload: 1322732549
tags: longexposure light 50mm prime lowlight nikon streetlight sydney darlingharbour bluehour monorail publictransport reallyrightstuff primelens d700 tvc33
license: 0
latitude: -33.87042
longitude: 151.199995
accuracy: 16
views: 125
interestingness: 11 out of 310

photo: 6433679729 e3dd1250d4 7030
owner: 47715880@N04
title: Retreating Vapour
originalsecret: null
originalformat: null
o_height: null
o_width: null
datetaken: 2011-11-30 17:01:01
dateupload: 1322700291
tags: sunset lake 3 snow toronto ontario golden long exposure day post image first adobe hour processing beaches 1750 scarborough 28 bluffs non hdr vapour vapor lightroom 500d retreating
license: 0
latitude: 43.705034
longitude: -79.235308
accuracy: 14
views: 342
interestingness: 12 out of 310

photo: 6430825095 7be2b67c6c 7020
owner: 46040323@N08
title: "Happiness resides not in posessions and not in gold; the feeling of happiness dwells in the soul." - Democritus
originalsecret: null
originalformat: null
o_height: null
o_width: null
datetaken: 2011-11-25 11:05:31
dateupload: 1322715599
tags: autumn nature squirrel dof bokeh wildlife sooc hs10 hs11
license: 0
latitude: 42.354262
longitude: -71.069998
accuracy: 15
views: 183
interestingness: 13 out of 310

photo: 6433749813 ae3067c440 7145
owner: 40700587@N02
title: first day of winter
originalsecret: null
originalformat: null
o_height: null
o_width: null
datetaken: 2011-11-28 18:33:19
dateupload: 1322701341
tags: 
license: 0
latitude: 38.581251
longitude: 23.540568
accuracy: 14
views: 56
interestingness: 14 out of 310

photo: 6433676075 80e29bbf88 7011
owner: 51331020@N00
title: moscow #23 (b/w)
originalsecret: null
originalformat: null
o_height: null
o_width: null
datetaken: 2011-12-01 00:41:26
dateupload: 1322700238
tags: sky blackandwhite bw clouds river construction skyscrapers moscow wideangle futuristic moscowcity vents moscowriver
license: 0
latitude: 55.745877
longitude: 37.545003
accuracy: 16
views: 110
interestingness: 15 out of 310

photo: 6435421315 57ac006232 7153
owner: 52301160@N02
title: Cheerfulness
originalsecret: null
originalformat: null
o_height: null
o_width: null
datetaken: 2011-11-08 12:14:00
dateupload: 1322730868
tags: flowers blue light shadow two white flower color nature licht petals nikon couple blossom pair natur paar blumen pistil stamen coolpix sinningia blau blume makro bl?te weiss schatten zwei bl?tenbl?tter farben stempel bl?ten bl?tenstempel macrogloxinie
license: 0
latitude: 51.212314
longitude: 6.764831
accuracy: 13
views: 158
interestingness: 16 out of 310

photo: 6435194981 2ff1822456 7009
owner: 30493186@N03
title: Charles Bridge
originalsecret: 8e438b748f
originalformat: jpg
o_height: 656
o_width: 999
datetaken: 2010-10-23 17:14:19
dateupload: 1322725421
tags: bridge charles
license: 0
latitude: 50.086308
longitude: 14.412581
accuracy: 14
views: 119
interestingness: 17 out of 310

photo: 6433564103 3528fc5d4d 7170
owner: 27051251@N03
title: Di luar kau emas di dalam kau plastik... puihhhh
originalsecret: null
originalformat: null
o_height: null
o_width: null
datetaken: 2011-11-19 19:08:26
dateupload: 1322698572
tags: longexposure sunset seascape canon eos portdickson pasirpanjang gnd ef1740mmf4lusm leefilters azralfikri shazral 5dmark2 09soft
license: 0
latitude: 2.425537
longitude: 101.937675
accuracy: 12
views: 64
interestingness: 18 out of 310

photo: 6435021821 cf10fabc96 7171
owner: 50564229@N02
title: December 1st - National Day of Romania: Guard of Honour
originalsecret: f2a654e411
originalformat: jpg
o_height: 930
o_width: 1035
datetaken: 2011-12-01 12:22:53
dateupload: 1322721591
tags: december military guard parade romania 1stdecember honour day? parade? arch? ?national ?military ?triumph
license: 0
latitude: 44.451795
longitude: 26.086006
accuracy: 11
views: 106
interestingness: 19 out of 310

photo: 6418504171 decfc0c1ab 7168
owner: 47669904@N06
title: Wakko
originalsecret: null
originalformat: null
o_height: null
o_width: null
datetaken: 2011-11-26 16:12:01
dateupload: 1322703900
tags: light brazil music luz paran? rock brasil canon underground moda pb modelo curitiba musica urbana fotografia photograpy externa edi??o vitoraugusto
license: 0
latitude: -25.438624
longitude: -49.275398
accuracy: 11
views: 276
interestingness: 20 out of 310

photo: 6435338845 ca809625b7 7010
owner: 7997148@N05
title: Just get me through December so I can start again
originalsecret: a9198ff2c8
originalformat: jpg
o_height: 1940
o_width: 1342
datetaken: 2011-12-01 15:40:43
dateupload: 1322730463
tags: portrait film beach girl smile hat analog 35mm december emotion fujisuperia200 nikonfm
license: 2
latitude: 12.24987
longitude: 109.196029
accuracy: 11
views: 141
interestingness: 21 out of 310

photo: 6435109263 d0dd69150c 7152
owner: 36963547@N07
title: ...
originalsecret: null
originalformat: null
o_height: null
o_width: null
datetaken: 2011-12-01 08:12:07
dateupload: 1322723527
tags: camera old sea summer sky people italy woman film water girl analog umbrella 35mm toy seaside lomo lca xpro lomography san cross toycamera slide iso 200 processing sicily leone krab agrigento ??? ???? meerschaum ???? ?????? ???? ???? ???? ?????? ??????? ?ka ??????? ???? ???? peppopeppo ??? puddicinu ??????
license: 0
latitude: 37.250959
longitude: 13.603101
accuracy: 16
views: 138
interestingness: 22 out of 310

photo: 6434782845 0eb8740296 7156
owner: 7997148@N05
title: Hello December!
originalsecret: 671f139862
originalformat: jpg
o_height: 1405
o_width: 2031
datetaken: 2011-12-01 05:30:39
dateupload: 1322716839
tags: morning sky film beach silhouette clouds analog sunrise 35mm december nikonfm nhatrangvietnam ng??cs?ng uxisuper200
license: 2
latitude: 12.24987
longitude: 109.196029
accuracy: 11
views: 93
interestingness: 23 out of 310

photo: 6435217593 2fecfac7fa 7032
owner: 41520324@N06
title: Afternoon
originalsecret: null
originalformat: null
o_height: null
o_width: null
datetaken: 2010-05-26 17:52:49
dateupload: 1322725993
tags: trees sunset sky cloud nature silhouette gangtok incredibleindia
license: 0
latitude: 27.317789
longitude: 88.597869
accuracy: 11
views: 102
interestingness: 24 out of 310

photo: 6435486119 b7f8570b1a 7010
owner: 8771119@N02
title: IMG_7045
originalsecret: f30b2d2194
originalformat: jpg
o_height: 3372
o_width: 3524
datetaken: 2011-12-01 11:17:29
dateupload: 1322732442
tags: canoneos350d ?? ef20mmf28usm ??????? ???? ???????? 20111201 ????????? ????? ????? ????
license: 0
latitude: 22.991622
longitude: 120.204634
accuracy: 16
views: 55
interestingness: 25 out of 310

photo: 6434795577 d1587d48ee 7026
owner: 24101060@N00
title: Golden Sunset Glow Over The Sea
originalsecret: f630ac2e8c
originalformat: jpg
o_height: 1000
o_width: 1500
datetaken: 2011-11-30 19:26:02
dateupload: 1322717079
tags: ocean blue sunset sea newzealand sky seascape green nature beautiful canon landscape outside outdoors scenery sundown outdoor nik canon7d sbfaves sxbaird landscapelovers stewartbaird
license: 3
latitude: -41.094036
longitude: 174.854536
accuracy: 13
views: 82
interestingness: 26 out of 310

photo: 6434231917 c2ee4c9fac 7024
owner: 41304880@N05
title: The Night Is Not Over Yet
originalsecret: 368905db48
originalformat: jpg
o_height: 4288
o_width: 2848
datetaken: 2011-11-28 20:35:14
dateupload: 1322708449
tags: portrait girl fashion night model dress x100 nightonearth strobist
license: 0
latitude: 30.249762
longitude: -97.750082
accuracy: 16
views: 344
interestingness: 27 out of 310

photo: 6434972131 b5eef29394 7166
owner: 24161439@N00
title: RD-600
originalsecret: null
originalformat: null
o_height: null
o_width: null
datetaken: 2011-11-29 16:39:09
dateupload: 1322720521
tags: 
license: 0
latitude: 14.646392
longitude: 121.055109
accuracy: 14
views: 144
interestingness: 28 out of 310

photo: 6435198531 606c9ce987 7034
owner: 7997148@N05
title: Get me through December a promise I'll remember
originalsecret: 6b5173896d
originalformat: jpg
o_height: 1380
o_width: 2031
datetaken: 2011-12-01 14:45:09
dateupload: 1322728689
tags: portrait film beach girl smile hat analog 35mm december emotion fujisuperia200 nikonfm
license: 2
latitude: 12.24987
longitude: 109.196029
accuracy: 11
views: 66
interestingness: 29 out of 310

photo: 6434994951 c90d39b6f4 7021
owner: 47456945@N00
title: Watching the generation game ? Rob Watkins 2011
originalsecret: null
originalformat: null
o_height: null
o_width: null
datetaken: 2011-10-30 15:36:27
dateupload: 1322720993
tags: street old city uk pink england people white playing man fountain wall kids canon children photography climb other birmingham sitting play sweet coat watch watching climbing help sit 5d sat moment toddlers seated each helping streettogs
license: 0
latitude: 52.479941
longitude: -1.904053
accuracy: 16
views: 81
interestingness: 30 out of 310

photo: 6434509721 6b8756a6b5 7028
owner: 37087164@N07
title: Bok Tower Gardens Lighting Workshop | Lake Wales, FL | Thanksgiving Weekend 2011
originalsecret: null
originalformat: null
o_height: null
o_width: null
datetaken: 2011-11-26 18:34:09
dateupload: 1322712516
tags: canon florida workshop boktower 2011 lakewales strobist 5dmarkii zacharylong fenglongphotocom fenglongphotography
license: 0
latitude: 27.93927
longitude: -81.573582
accuracy: 15
views: 182
interestingness: 31 out of 310

photo: 6434686231 43796456d5 7161
owner: 51191642@N05
title: Shanghai - Out of the Clouds
originalsecret: null
originalformat: null
o_height: null
o_width: null
datetaken: 2011-11-05 16:35:15
dateupload: 1322715165
tags: scale fog architecture clouds nikon shanghai swfc d7000 photonmix
license: 0
latitude: 31.236141
longitude: 121.511192
accuracy: 11
views: 66
interestingness: 32 out of 310

photo: 6435420819 f3b043eb22 7151
owner: 52301160@N02
title: Dancing Sunrays
originalsecret: null
originalformat: null
o_height: null
o_width: null
datetaken: 2011-11-20 16:16:29
dateupload: 1322730856
tags: park trees sunset sky sun sunlight reflection nature grass clouds germany landscape deutschland nikon sonnenuntergang natur lawn perspective himmel wolken flare coolpix gras sunrays d?sseldorf landschaft sonne b?ume baum sonnenstrahlen flares reflektion rasen s?dpark sonnenlicht
license: 0
latitude: 51.202581
longitude: 6.804313
accuracy: 11
views: 42
interestingness: 33 out of 310

photo: 6434206073 5291280318 7014
owner: 49166677@N05
title: .
originalsecret: null
originalformat: null
o_height: null
o_width: null
datetaken: 2011-11-28 18:52:03
dateupload: 1322708016
tags: light leaf nikon briannajayde mreeeehhbfsidhf
license: 0
latitude: -34.67924
longitude: 150.850868
accuracy: 11
views: 48
interestingness: 34 out of 310

photo: 6434719461 4671309034 7023
owner: 22882051@N02
title: 
originalsecret: null
originalformat: null
o_height: null
o_width: null
datetaken: 2011-11-30 00:21:05
dateupload: 1322715723
tags: nyc urban ny building fall film architecture 35mm twins minolta centralpark manhattan foliage upperwestside gothamist expired cpw thelake atumn kodakportra thischarmingbroad lucyaboytes
license: 0
latitude: 40.777494
longitude: -73.974959
accuracy: 15
views: 334
interestingness: 35 out of 310

photo: 6433684153 a3f4101e84 7153
owner: 29122848@N04
title: Deep Purple Desert - Terlingua, Texas
originalsecret: 256b43771a
originalformat: jpg
o_height: 900
o_width: 1391
datetaken: 2011-04-29 20:22:44
dateupload: 1322700353
tags: usa canon texas terlingua westtexas bigbendnationalpark canonef1740mmf4lusm chisosmountains bigbendranchstatepark texaslandscapes christmasmountains texasmountaintrail adobephotoshoplightroom3 singhraylbwarmingpolarizerfilter
license: 0
latitude: 29.328798
longitude: -103.552772
accuracy: 15
views: 105
interestingness: 36 out of 310

photo: 6434712955 079480f3e4 7142
owner: 22882051@N02
title: 
originalsecret: null
originalformat: null
o_height: null
o_width: null
datetaken: 2011-11-29 23:45:25
dateupload: 1322715610
tags: nyc ny fall film 35mm minolta centralpark manhattan foliage expired uppereastside 5thave atumn kodakportra thischarmingbroad lucyaboytes
license: 0
latitude: 40.783311
longitude: -73.958963
accuracy: 16
views: 328
interestingness: 37 out of 310

photo: 6435019401 a2af70b9c2 7147
owner: 53892597@N05
title: The wrath of Theia
originalsecret: null
originalformat: null
o_height: null
o_width: null
datetaken: 2011-11-30 15:38:29
dateupload: 1322721541
tags: pictures christmas light portrait woman art lamp girl lady portraits photography nikon colorado photos indoor portraiture potrait selfie d5000 studiojan janclickr
license: 0
latitude: 39.73597
longitude: -104.991531
accuracy: 11
views: 30
interestingness: 38 out of 310

photo: 6434596561 b9652873c0 7021
owner: 58036240@N04
title: Shrimp and tomato with linguine
originalsecret: null
originalformat: null
o_height: null
o_width: null
datetaken: 2011-11-15 21:06:54
dateupload: 1322713795
tags: 
license: 0
latitude: 35.069037
longitude: 136.744251
accuracy: 15
views: 48
interestingness: 39 out of 310

photo: 6433713647 0d431499c2 7031
owner: 10433743@N06
title: Fog from the Road
originalsecret: 24df1ab1cf
originalformat: jpg
o_height: 1365
o_width: 2048
datetaken: 2011-11-27 16:07:27
dateupload: 1322700783
tags: road winter snow canada fog rural canon country manitoba oakbank
license: 0
latitude: 49.915972
longitude: -96.865425
accuracy: 11
views: 42
interestingness: 40 out of 310

photo: 6435476815 e7232edb9e 7147
owner: 55724731@N08
title: Achilles
originalsecret: null
originalformat: null
o_height: null
o_width: null
datetaken: 2011-11-05 09:02:41
dateupload: 1322732205
tags: staged stagedphotography line36 canoneos7d advertisementphotography inszeniertefotografie inszeniertes matthiasgrauwinkel grauwinkelphotography linie36 linie36bymatthiasgrauwinkel directoryphotography
license: 0
latitude: 52.516217
longitude: 13.376938
accuracy: 16
views: 38
interestingness: 41 out of 310

photo: 6433938503 cc40a8b05e 7032
owner: 38275388@N00
title: After Hours Study
originalsecret: null
originalformat: null
o_height: null
o_width: null
datetaken: 2011-11-30 19:57:45
dateupload: 1322704158
tags: nyc newyorkcity newyork pen nypl newyorkpubliclibrary computers olympus cellphones ep1 mzuiko17mm
license: 0
latitude: 40.75293
longitude: -73.981697
accuracy: 15
views: 58
interestingness: 42 out of 310

photo: 6433881879 243a8996c4 7024
owner: 34578976@N00
title: Loon Lake B-23 Isometric
originalsecret: 9f09128d99
originalformat: jpg
o_height: 2934
o_width: 3168
datetaken: 2011-11-30 19:11:18
dateupload: 1322703287
tags: lake 3d model bomber pap loon b23 meshlab hypr3d
license: 0
latitude: 45.15877
longitude: -115.841238
accuracy: 14
views: 92
interestingness: 43 out of 310

photo: 6433739115 1b8ba26caa 7171
owner: 10902037@N00
title: Dim Sum Lantern
originalsecret: null
originalformat: null
o_height: null
o_width: null
datetaken: 2011-08-28 12:25:59
dateupload: 1322701181
tags: china family lantern zhongshan
license: 0
latitude: 22.517789
longitude: 113.366031
accuracy: 16
views: 37
interestingness: 44 out of 310

photo: 6434253241 d41c6f92f2 7011
owner: 23238402@N04
title: Dream
originalsecret: null
originalformat: null
o_height: null
o_width: null
datetaken: 2011-11-30 01:34:50
dateupload: 1322708765
tags: 50mm nikon portra 160 ?18 fm10nikkor dkodak
license: 0
latitude: 3.815279
longitude: 103.322692
accuracy: 11
views: 67
interestingness: 45 out of 310

photo: 6434921975 ae4d67d84d 7016
owner: 29164991@N04
title: Celebremos la Navidad!
originalsecret: null
originalformat: null
o_height: null
o_width: null
datetaken: 2011-11-30 20:16:01
dateupload: 1322719542
tags: christmas club navidad luces fireworks honduras tegucigalpa campero 2011 fuegospirotecnicos kaleidoscopio jlduron jlduroncom
license: 0
latitude: 14.09506
longitude: -87.211967
accuracy: 11
views: 57
interestingness: 46 out of 310

photo: 6433793483 e3433a436f 7020
owner: 47432611@N07
title: Bark Of The Pacific Madrone
originalsecret: 97b36a2874
originalformat: jpg
o_height: 1067
o_width: 800
datetaken: 2011-11-30 15:00:11
dateupload: 1322701988
tags: plants tree outdoors bark madrona medicinal madrone pacificmadrone arbutusmenziesii peelingbark 365caws 111in2011 sootoolicksgrave
license: 0
latitude: 46.846852
longitude: -122.353073
accuracy: 15
views: 13
interestingness: 47 out of 310

photo: 6434640859 7df68a4a7b 7145
owner: 22416663@N05
title: Bolo (Le Gateau)Sans Rival
originalsecret: null
originalformat: null
o_height: null
o_width: null
datetaken: 2011-11-21 14:46:22
dateupload: 1322714453
tags: india cake french philippines goa eggs blogstuff bolo portuguese meringue cashewnuts gateau saffron canon100mmmacro cardamom layered frenchbuttercream daringbakers
license: 0
latitude: 15.35023
longitude: 74.013931
accuracy: 5
views: 63
interestingness: 48 out of 310

photo: 6430970731 4673776dd6 7025
owner: 47770928@N08
title: Del otro lado...
originalsecret: null
originalformat: null
o_height: null
o_width: null
datetaken: 2011-11-27 19:00:35
dateupload: 1322708398
tags: new light summer sky orange naturaleza sun color macro reflection verde green art love primavera luz nature argentina colors yellow photography luces photo google nikon flickr day foto dof photos bokeh top live colores nov30 explore amarillo reflejo contraste perspectiva jpg 365 proyect geo d?a naranja nueva day30 fot?grafo franco brillo week48 fotograf?a c?mara pring encuadre day332 day333 2011 enfoque nitidez explored nitido rostan i365 proyect365 proyecto365 d3100 nikond3100 francorostan load333
license: 0
latitude: -38.084175
longitude: -63.430938
accuracy: 11
views: 103
interestingness: 49 out of 310

photo: 6435139729 aec23e7e67 7012
owner: 59244826@N04
title: Misty Morning in Cape Town
originalsecret: 63594bd845
originalformat: jpg
o_height: 797
o_width: 1200
datetaken: 2011-08-07 07:28:26
dateupload: 1322724187
tags: southafrica capetown
license: 0
latitude: -33.905328
longitude: 18.400382
accuracy: 11
views: 32
interestingness: 50 out of 310

photo: 6433871817 9851a85100 7010
owner: 22885861@N05
title: 
originalsecret: null
originalformat: null
o_height: null
o_width: null
datetaken: 2011-12-01 10:00:18
dateupload: 1322703150
tags: people urban blackandwhite panorama film japan 35mm asia fuji candid rangefinder panoramic hasselblad 400 pro ?? fujifilm okinawa ?? ultrawide legacy rectangle xpan fujinon manualfocus rf environmentalportrait 454 tx2 ?? zanpa hasselbladxpanii xpanii tx1 ncps fujinonlens 24x65 fujilens 24x65mm legacypro legacypro400 rebrandedfujineopan 24x65format 24x65frame fujinonsuperebc45mmf4 hasselbladxpan445
license: 0
latitude: 26.230452
longitude: 127.678899
accuracy: 12
views: 27
interestingness: 51 out of 310

photo: 6433874747 2c95538183 7026
owner: 22885861@N05
title: 
originalsecret: null
originalformat: null
o_height: null
o_width: null
datetaken: 2011-12-01 10:00:20
dateupload: 1322703189
tags: people urban blackandwhite panorama film japan 35mm asia fuji candid rangefinder panoramic hasselblad 400 pro ?? fujifilm okinawa ?? ultrawide legacy rectangle xpan fujinon manualfocus rf environmentalportrait 454 tx2 ?? zanpa hasselbladxpanii xpanii tx1 ncps fujinonlens 24x65 fujilens 24x65mm legacypro legacypro400 rebrandedfujineopan 24x65format 24x65frame fujinonsuperebc45mmf4 hasselbladxpan445
license: 0
latitude: 26.25424
longitude: 127.738037
accuracy: 12
views: 33
interestingness: 52 out of 310

photo: 6433543545 cabd0e2d06 7005
owner: 67968452@N00
title: PhotonQ-John Bohannon Dance Your Ph.D
originalsecret: ccf271a5c9
originalformat: jpg
o_height: 684
o_width: 912
datetaken: 2011-12-01 01:10:20
dateupload: 1322698400
tags: brussels ted black john fun creativity dance movement europe belgium belgique label bruxelles danse your conference vs phd powerpoint bohannon palaisdesbeauxarts bozar 2011 photonquantique tedx danceyourphd johnbohannon
license: 3
latitude: 50.843982
longitude: 4.358519
accuracy: 16
views: 90
interestingness: 53 out of 310

photo: 6433864419 bf352e2e7d 7022
owner: 22885861@N05
title: 
originalsecret: null
originalformat: null
o_height: null
o_width: null
datetaken: 2011-12-01 10:14:19
dateupload: 1322703039
tags: people urban blackandwhite panorama film japan 35mm asia fuji candid rangefinder panoramic hasselblad 400 pro ?? fujifilm okinawa ?? ultrawide legacy rectangle xpan fujinon manualfocus rf environmentalportrait 454 tx2 ?? zanpa hasselbladxpanii xpanii tx1 ncps fujinonlens 24x65 fujilens 24x65mm legacypro legacypro400 rebrandedfujineopan 24x65format 24x65frame fujinonsuperebc45mmf4 hasselbladxpan445
license: 0
latitude: 26.44168
longitude: 127.715721
accuracy: 12
views: 19
interestingness: 54 out of 310

photo: 6433738349 391a57d00b 7159
owner: 10017367@N03
title: El Franco Lee Park
originalsecret: b68074ae89
originalformat: jpg
o_height: 3456
o_width: 5184
datetaken: 2011-11-30 17:55:39
dateupload: 1322701171
tags: november bird nature birds texas pearland 2011 canon7d canon14xii elfrancolee canon300mmf28isusm kenko14xpro300 elfrancoleepark
license: 0
latitude: 29.592565
longitude: -95.25919
accuracy: 16
views: 80
interestingness: 55 out of 310

photo: 6434733657 ae3580ca08 7149
owner: 46311820@N03
title: day 0
originalsecret: bff1a9f9a4
originalformat: jpg
o_height: 1600
o_width: 1200
datetaken: 2011-12-01 01:00:37
dateupload: 1322715975
tags: nsid
license: 0
latitude: 37.381411
longitude: -122.076373
accuracy: 14
views: 72
interestingness: 56 out of 310

photo: 6435268293 3d4a624182 7024
owner: 33434822@N07
title: 1st Advent
originalsecret: d13d4d9da2
originalformat: jpg
o_height: 2753
o_width: 3607
datetaken: 2011-12-01 08:52:28
dateupload: 1322727167
tags: baby daughter photoblog photojournal 2011 lilyeve blogjournal
license: 0
latitude: 55.93574
longitude: -3.015575
accuracy: 11
views: 75
interestingness: 57 out of 310

photo: 6433866727 3a081e90dc 7144
owner: 22885861@N05
title: 
originalsecret: null
originalformat: null
o_height: null
o_width: null
datetaken: 2011-12-01 10:09:57
dateupload: 1322703074
tags: people urban blackandwhite panorama film japan 35mm asia fuji candid rangefinder panoramic hasselblad 400 pro ?? fujifilm okinawa ?? ultrawide legacy rectangle xpan fujinon manualfocus rf environmentalportrait 454 tx2 ?? zanpa hasselbladxpanii xpanii tx1 ncps fujinonlens 24x65 fujilens 24x65mm legacypro legacypro400 rebrandedfujineopan 24x65format 24x65frame fujinonsuperebc45mmf4 hasselbladxpan445
license: 0
latitude: 26.44168
longitude: 127.715721
accuracy: 12
views: 28
interestingness: 58 out of 310

photo: 6433732505 077f545f5d 7168
owner: 10017367@N03
title: Snipe
originalsecret: 2129bc837e
originalformat: jpg
o_height: 2940
o_width: 3920
datetaken: 2011-11-30 18:12:25
dateupload: 1322701083
tags: november bird nature birds texas pearland snipe 2011 canon7d canon14xii elfrancolee canon300mmf28isusm kenko14xpro300 elfrancoleepark
license: 0
latitude: 29.592565
longitude: -95.25919
accuracy: 16
views: 14
interestingness: 59 out of 310

photo: 6434555583 263b381bea 7150
owner: 42450712@N06
title: We Came As Romans (2)
originalsecret: null
originalformat: null
o_height: null
o_width: null
datetaken: 2011-11-17 19:55:16
dateupload: 1322713202
tags: canon orlando concert florida livemusic 7d citywalk hardrocklive hrl wecameasromans wwwtheconcertshootercom
license: 0
latitude: 28.473755
longitude: -81.467689
accuracy: 16
views: 15
interestingness: 60 out of 310

photo: 6433734285 d76145240d 7151
owner: 10017367@N03
title: Snipe
originalsecret: 7e2af9b091
originalformat: jpg
o_height: 2918
o_width: 3891
datetaken: 2011-11-30 18:12:53
dateupload: 1322701111
tags: november bird nature birds texas pearland snipe 2011 canon7d canon14xii elfrancolee canon300mmf28isusm kenko14xpro300 elfrancoleepark
license: 0
latitude: 29.592565
longitude: -95.25919
accuracy: 16
views: 20
interestingness: 61 out of 310

photo: 6433783953 46642e5782 7166
owner: 53125972@N00
title: Paquete Funchal
originalsecret: 7ee1059855
originalformat: jpg
o_height: 609
o_width: 1306
datetaken: 2011-12-01 01:10:52
dateupload: 1322701852
tags: lisboa tejo cais embarca??es marvila caisdamatinha matinha paquetefunchal
license: 3
latitude: 38.749837
longitude: -9.093085
accuracy: 16
views: 7
interestingness: 62 out of 310

photo: 6434365355 4005f45090 7173
owner: 81753532@N00
title: Eiffel Tower
originalsecret: null
originalformat: null
o_height: null
o_width: null
datetaken: 2011-08-17 23:11:54
dateupload: 1322710418
tags: paris france tower eiffel ?? ??? ??
license: 0
latitude: 48.858418
longitude: 2.294039
accuracy: 14
views: 12
interestingness: 63 out of 310

photo: 6433735217 d1d1b21803 7023
owner: 10017367@N03
title: Snipe
originalsecret: b6e7771261
originalformat: jpg
o_height: 1715
o_width: 2572
datetaken: 2011-11-30 18:14:16
dateupload: 1322701125
tags: 2011 bird birds canon14xii canon300mmf28isusm canon7d elfrancolee elfrancoleepark kenko14xpro300 nature november pearland snipe texas
license: 0
latitude: 29.592565
longitude: -95.25919
accuracy: 16
views: 19
interestingness: 64 out of 310

photo: 6433632907 fc98559674 7168
owner: 7477245@N05
title: An?ncio Cigarros 116
originalsecret: de649d36d2
originalformat: jpg
o_height: 533
o_width: 407
datetaken: 2011-11-30 22:33:15
dateupload: 1322699595
tags: vintage ads advertising marketing moda modelos lingerie carros backgrounds autom?veis utilidades cigarros colorido an?ncios cal?ados propagandas vendas sele??es advertisings promo??es anunciantes modismo eletrodom?sticos reclames revistaplayboy anos1950 anos1980 anos1960 anos1940 fundosparatwitter anos1970 propagandasderevistas agenciasdepropagandas propagandasdassele??es propagandasdeguerra propagandasderevistasantigas propagandasantigasdeautom?veis propagandasantigasdecigarros
license: 4
latitude: -22.913653
longitude: -43.242874
accuracy: 11
views: 13
interestingness: 65 out of 310

photo: 6435093667 3a95edbe11 7145
owner: 24161439@N00
title: Ringflash, stripped
originalsecret: null
originalformat: null
o_height: null
o_width: null
datetaken: 2011-11-29 16:41:27
dateupload: 1322723178
tags: 
license: 0
latitude: 14.646392
longitude: 121.055109
accuracy: 14
views: 19
interestingness: 66 out of 310

photo: 6435514865 0102393ba3 7009
owner: 51390268@N04
title: ?? ?? Fuchu-si, Tokyo
originalsecret: 1408e98514
originalformat: jpg
o_height: 448
o_width: 640
datetaken: 2011-04-16 20:40:41
dateupload: 1322733162
tags: color japan tokyo minolta fujifilm ?? ??? minoltaaf50mmf28macro fujicolorsuperiavenus400 201105blog 35mmformatfilm minoltaa507si fuchusi
license: 0
latitude: 35.671216
longitude: 139.480404
accuracy: 15
views: 2
interestingness: 67 out of 310

photo: 6433633369 3d6b5e60fb 7016
owner: 7477245@N05
title: An?ncio Cigarros 118
originalsecret: 4c21edf052
originalformat: jpg
o_height: 533
o_width: 407
datetaken: 2011-11-30 22:33:20
dateupload: 1322699600
tags: vintage ads advertising marketing moda modelos lingerie carros backgrounds autom?veis utilidades cigarros colorido an?ncios cal?ados propagandas vendas sele??es advertisings promo??es anunciantes modismo eletrodom?sticos reclames revistaplayboy anos1950 anos1980 anos1960 anos1940 fundosparatwitter anos1970 propagandasderevistas agenciasdepropagandas propagandasdassele??es propagandasdeguerra propagandasderevistasantigas propagandasantigasdeautom?veis propagandasantigasdecigarros
license: 4
latitude: -22.913653
longitude: -43.242874
accuracy: 11
views: 36
interestingness: 68 out of 310

photo: 6433632679 b7b066a97a 7144
owner: 7477245@N05
title: An?ncio Cigarros 115
originalsecret: d866410a26
originalformat: jpg
o_height: 533
o_width: 407
datetaken: 2011-11-30 22:33:12
dateupload: 1322699592
tags: vintage ads advertising marketing moda modelos lingerie carros backgrounds autom?veis utilidades cigarros colorido an?ncios cal?ados propagandas vendas sele??es advertisings promo??es anunciantes modismo eletrodom?sticos reclames revistaplayboy anos1950 anos1980 anos1960 anos1940 fundosparatwitter anos1970 propagandasderevistas agenciasdepropagandas propagandasdassele??es propagandasdeguerra propagandasderevistasantigas propagandasantigasdeautom?veis propagandasantigasdecigarros
license: 4
latitude: -22.913653
longitude: -43.242874
accuracy: 11
views: 11
interestingness: 69 out of 310

photo: 6435515167 6516bcf1a9 7145
owner: 51390268@N04
title: ?? ?? Fuchu-si, Tokyo
originalsecret: 0a2c80f2ae
originalformat: jpg
o_height: 448
o_width: 640
datetaken: 2011-04-16 20:38:36
dateupload: 1322733169
tags: color sign japan tokyo minolta fujifilm ?? ??? minoltaaf50mmf28macro fujicolorsuperiavenus400 201105blog 35mmformatfilm minoltaa507si fuchusi ??????
license: 0
latitude: 35.671216
longitude: 139.480404
accuracy: 15
views: 2
interestingness: 70 out of 310

photo: 6435515073 4e3c595dfc 7021
owner: 51390268@N04
title: ?? ??????? Fuchu-si, Tokyo
originalsecret: cf77617928
originalformat: jpg
o_height: 640
o_width: 448
datetaken: 2011-04-16 20:33:16
dateupload: 1322733167
tags: color japan tokyo minolta fujifilm ?? ??? minoltaaf50mmf28macro fujicolorsuperiavenus400 stopandwait 201105blog 35mmformatfilm minoltaa507si fuchusi ????
license: 0
latitude: 35.671216
longitude: 139.480404
accuracy: 15
views: 2
interestingness: 71 out of 310

photo: 6435515019 3b6e918ccd 7019
owner: 51390268@N04
title: ?? ??????? Fuchu-si, Tokyo
originalsecret: 0b3c5252a0
originalformat: jpg
o_height: 640
o_width: 448
datetaken: 2011-04-16 20:33:24
dateupload: 1322733165
tags: color japan tokyo minolta fujifilm ?? ??? minoltaaf50mmf28macro fujicolorsuperiavenus400 stopandwait 201105blog 35mmformatfilm minoltaa507si fuchusi ????
license: 0
latitude: 35.671216
longitude: 139.480404
accuracy: 15
views: 2
interestingness: 72 out of 310

photo: 6435514953 ac05ee19e5 7027
owner: 51390268@N04
title: ?? ???????????? Fuchu-si, Tokyo
originalsecret: 1f3df369a4
originalformat: jpg
o_height: 640
o_width: 448
datetaken: 2011-04-16 20:33:50
dateupload: 1322733164
tags: color japan tokyo minolta fujifilm ?? ??? minoltaaf50mmf28macro fujicolorsuperiavenus400 stopandwait 201105blog 35mmformatfilm minoltaa507si fuchusi ???? ???? walkandrun
license: 0
latitude: 35.671216
longitude: 139.480404
accuracy: 15
views: 2
interestingness: 73 out of 310

photo: 6435514803 48d9a1d8d7 7143
owner: 51390268@N04
title: ?? ??????? Fuchu-si, Tokyo
originalsecret: 8aaa5327b1
originalformat: jpg
o_height: 448
o_width: 640
datetaken: 2011-04-16 20:40:55
dateupload: 1322733160
tags: color japan tokyo minolta fujifilm ?? ??? minoltaaf50mmf28macro fujicolorsuperiavenus400 201105blog 35mmformatfilm minoltaa507si fuchusi
license: 0
latitude: 35.671216
longitude: 139.480404
accuracy: 15
views: 2
interestingness: 74 out of 310

photo: 6435514713 7856a64d5d 7172
owner: 51390268@N04
title: ?? ?? Fuchu-si, Tokyo
originalsecret: 8404553e63
originalformat: jpg
o_height: 640
o_width: 448
datetaken: 2011-04-16 20:34:28
dateupload: 1322733158
tags: lighting color sign japan tokyo minolta fujifilm ?? ??? ?? minoltaaf50mmf28macro fujicolorsuperiavenus400 201105blog 35mmformatfilm minoltaa507si fuchusi ??????
license: 0
latitude: 35.671216
longitude: 139.480404
accuracy: 15
views: 1
interestingness: 75 out of 310

photo: 6435514605 9390a8f816 7152
owner: 51390268@N04
title: ?? ???? Fuchu-si, Tokyo
originalsecret: f8ae5718b7
originalformat: jpg
o_height: 640
o_width: 448
datetaken: 2011-04-16 20:34:37
dateupload: 1322733155
tags: color japan tokyo minolta fujifilm ?? ??? minoltaaf50mmf28macro fujicolorsuperiavenus400 201105blog 35mmformatfilm minoltaa507si fuchusi
license: 0
latitude: 35.67221
longitude: 139.480941
accuracy: 16
views: 2
interestingness: 76 out of 310

photo: 6435514517 0fca60f16d 7032
owner: 51390268@N04
title: ?? ??? Fuchu-si, Tokyo
originalsecret: 78e2552ac6
originalformat: jpg
o_height: 448
o_width: 640
datetaken: 2011-04-16 20:37:55
dateupload: 1322733153
tags: railroad color japan tokyo minolta fujifilm ?? ??? ?? minoltaaf50mmf28macro fujicolorsuperiavenus400 201105blog 35mmformatfilm minoltaa507si fuchusi
license: 0
latitude: 35.67221
longitude: 139.480941
accuracy: 16
views: 1
interestingness: 77 out of 310

photo: 6435514457 fc79f940c1 7141
owner: 51390268@N04
title: ??? ? Fuchu-si, Tokyo
originalsecret: 0f464fe8ba
originalformat: jpg
o_height: 640
o_width: 448
datetaken: 2011-04-16 20:31:41
dateupload: 1322733151
tags: color japan tokyo minolta fujifilm ?? ??? fujicolorsuperiavenus400 minoltaaf100300mmf4556 201105blog 35mmformatfilm minoltaa507si fuchusi
license: 0
latitude: 35.663398
longitude: 139.454483
accuracy: 14
views: 1
interestingness: 78 out of 310

photo: 6435514377 c3c89181ba 7171
owner: 51390268@N04
title: ??? ???? Fuchu-si, Tokyo
originalsecret: 85589bf495
originalformat: jpg
o_height: 448
o_width: 640
datetaken: 2011-04-16 20:39:06
dateupload: 1322733150
tags: color japan tokyo minolta fujifilm ?? ??? fujicolorsuperiavenus400 minoltaaf100300mmf4556 201105blog 35mmformatfilm minoltaa507si fuchusi
license: 0
latitude: 35.663398
longitude: 139.454483
accuracy: 14
views: 1
interestingness: 79 out of 310

photo: 6435514305 682089f4cb 7035
owner: 51390268@N04
title: ??? ???? Fuchu-si, Tokyo
originalsecret: 01dff1909b
originalformat: jpg
o_height: 448
o_width: 640
datetaken: 2011-04-16 20:39:22
dateupload: 1322733148
tags: color japan tokyo minolta fujifilm ?? ??? fujicolorsuperiavenus400 minoltaaf100300mmf4556 201105blog 35mmformatfilm minoltaa507si fuchusi
license: 0
latitude: 35.663398
longitude: 139.454483
accuracy: 14
views: 1
interestingness: 80 out of 310

photo: 6435505181 1b7daeb601 7173
owner: 51390268@N04
title: ?? ???????? Fuchu-si, Tokyo
originalsecret: 0975e8a6b0
originalformat: jpg
o_height: 477
o_width: 640
datetaken: 2011-04-15 01:00:20
dateupload: 1322732901
tags: plant color mamiya japan tokyo kodak ?? kodakportra160vc ?? ??? mediumformatfilm mamiya645protl mamiyasekorc45mmf28n 201105blog fuchusi ???? walkandrun
license: 0
latitude: 35.677395
longitude: 139.479911
accuracy: 15
views: 0
interestingness: 81 out of 310

photo: 6435504953 a548c5d67e 7160
owner: 51390268@N04
title: ?? ???????? Fuchu-si, Tokyo
originalsecret: 1ca4749120
originalformat: jpg
o_height: 470
o_width: 640
datetaken: 2011-04-15 00:58:34
dateupload: 1322732895
tags: plant color mamiya japan tokyo kodak motorcycle ?? kodakportra160vc ?? ??? mediumformatfilm mamiya645protl ???? stopandwait mamiyasekorc45mmf28n 201105blog fuchusi ????
license: 0
latitude: 35.677395
longitude: 139.479911
accuracy: 15
views: 0
interestingness: 82 out of 310

photo: 6435504877 6f24a63bbb 7170
owner: 51390268@N04
title: ?? ???????????? Fuchu-si, Tokyo
originalsecret: d972533df8
originalformat: jpg
o_height: 479
o_width: 640
datetaken: 2011-04-15 00:56:27
dateupload: 1322732892
tags: plant color mamiya japan tokyo kodak ?? kodakportra160vc ?? ??? mediumformatfilm mamiya645protl stopandwait mamiyasekorc45mmf28n 201105blog fuchusi ????
license: 0
latitude: 35.677395
longitude: 139.479911
accuracy: 15
views: 1
interestingness: 83 out of 310

photo: 6435504785 9c1feea0b5 7148
owner: 51390268@N04
title: ?? ???????? Fuchu-si, Tokyo
originalsecret: 9ee8fdde8e
originalformat: jpg
o_height: 477
o_width: 640
datetaken: 2011-04-15 00:54:56
dateupload: 1322732890
tags: plant color mamiya bicycle japan tokyo kodak ?? kodakportra160vc ?? ??? ??? mediumformatfilm mamiya645protl mamiyasekorc70mmf28 201105blog fuchusi ???? walkandrun
license: 0
latitude: 35.677395
longitude: 139.479911
accuracy: 15
views: 2
interestingness: 84 out of 310

photo: 6435504701 34bdf51c16 7158
owner: 51390268@N04
title: ?? ? Fuchu-si, Tokyo
originalsecret: 3cc23f8709
originalformat: jpg
o_height: 480
o_width: 640
datetaken: 2011-04-15 00:53:36
dateupload: 1322732887
tags: plant color mamiya japan tokyo kodak ?? kodakportra160vc ?? ??? mediumformatfilm mamiya645protl mamiyasekorc70mmf28 201105blog fuchusi
license: 0
latitude: 35.677395
longitude: 139.479911
accuracy: 15
views: 0
interestingness: 85 out of 310

photo: 6435252095 0b7f02589c 7010
owner: 65797661@N03
title: White Lotus Project in Mira Road Mumbai 1.5BHK, 1BHK, 2BHK Apartments
originalsecret: null
originalformat: null
o_height: null
o_width: null
datetaken: 2011-12-01 00:06:40
dateupload: 1322726800
tags: whitelotus mumbaiproperties mirabhayandar newprojectsinmiraroad whitelotusmiraroad whitelotusmumbai whitelotusmiraroadmumbai flatsinwhitelotus 1bhkflatsinwhitelotus 2bhkflatsinwhitelotus 15bhkflatsinwhitelotus 1bhkwhitelotus 2bhkwhitelotus 15bhkwhitelotus nearschoolinmiraroad underconstructionprojectinmiraroad
license: 0
latitude: 19.279752
longitude: 72.862744
accuracy: 13
views: 8
interestingness: 86 out of 310

photo: 6434775099 853f34e487 7012
owner: 30265340@N00
title: Church reconstruction
originalsecret: 2bc71163b5
originalformat: jpg
o_height: 1936
o_width: 2592
datetaken: 2011-12-01 12:55:36
dateupload: 1322716695
tags: church sydney australia scafolding nsw newsouthwales paddington recycle aus syd oxfordstreet reuse easternsuburbs traditionalstonemasonrycompany
license: 2
latitude: -33.885667
longitude: 151.228166
accuracy: 16
views: 12
interestingness: 87 out of 310

photo: 6434591453 2ac02a683a 7012
owner: 42450712@N06
title: Korn (16)
originalsecret: null
originalformat: null
o_height: null
o_width: null
datetaken: 2011-11-10 23:13:15
dateupload: 1322713722
tags: canon orlando concert florida livemusic 7d korn citywalk hardrocklive 2011 hrl wwwtheconcertshootercom
license: 0
latitude: 28.473755
longitude: -81.467689
accuracy: 16
views: 23
interestingness: 88 out of 310

photo: 6434591239 1796e3e925 7150
owner: 42450712@N06
title: Korn (15)
originalsecret: null
originalformat: null
o_height: null
o_width: null
datetaken: 2011-11-10 23:13:04
dateupload: 1322713719
tags: canon orlando concert florida livemusic 7d korn citywalk hardrocklive 2011 hrl wwwtheconcertshootercom
license: 0
latitude: 28.473755
longitude: -81.467689
accuracy: 16
views: 4
interestingness: 89 out of 310

photo: 6434591133 6074703b9f 7149
owner: 42450712@N06
title: Korn (14)
originalsecret: null
originalformat: null
o_height: null
o_width: null
datetaken: 2011-11-10 23:12:21
dateupload: 1322713717
tags: canon orlando concert florida livemusic 7d korn citywalk hardrocklive 2011 hrl wwwtheconcertshootercom
license: 0
latitude: 28.473755
longitude: -81.467689
accuracy: 16
views: 4
interestingness: 90 out of 310

photo: 6434590879 2fa2a70d59 7035
owner: 42450712@N06
title: Korn (13)
originalsecret: null
originalformat: null
o_height: null
o_width: null
datetaken: 2011-11-10 23:10:05
dateupload: 1322713714
tags: canon orlando concert florida livemusic 7d korn citywalk hardrocklive 2011 hrl wwwtheconcertshootercom
license: 0
latitude: 28.473755
longitude: -81.467689
accuracy: 16
views: 1
interestingness: 91 out of 310

photo: 6434590697 6acd596705 7034
owner: 42450712@N06
title: Korn (12)
originalsecret: null
originalformat: null
o_height: null
o_width: null
datetaken: 2011-11-10 23:09:41
dateupload: 1322713710
tags: canon orlando concert florida livemusic 7d korn citywalk hardrocklive 2011 hrl wwwtheconcertshootercom
license: 0
latitude: 28.473755
longitude: -81.467689
accuracy: 16
views: 17
interestingness: 92 out of 310

photo: 6434590477 9ef30c0508 7007
owner: 42450712@N06
title: Korn (11)
originalsecret: null
originalformat: null
o_height: null
o_width: null
datetaken: 2011-11-10 23:08:54
dateupload: 1322713707
tags: canon orlando concert florida livemusic 7d korn citywalk hardrocklive 2011 hrl wwwtheconcertshootercom
license: 0
latitude: 28.473755
longitude: -81.467689
accuracy: 16
views: 203
interestingness: 93 out of 310

photo: 6434590219 08da59173e 7019
owner: 42450712@N06
title: Korn (10)
originalsecret: null
originalformat: null
o_height: null
o_width: null
datetaken: 2011-11-10 23:08:38
dateupload: 1322713704
tags: canon orlando concert florida livemusic 7d korn citywalk hardrocklive 2011 hrl wwwtheconcertshootercom
license: 0
latitude: 28.473755
longitude: -81.467689
accuracy: 16
views: 6
interestingness: 94 out of 310

photo: 6434589981 afe73d0277 7033
owner: 42450712@N06
title: Korn (9)
originalsecret: null
originalformat: null
o_height: null
o_width: null
datetaken: 2011-11-10 23:06:43
dateupload: 1322713701
tags: canon orlando concert florida livemusic 7d korn citywalk hardrocklive 2011 hrl wwwtheconcertshootercom
license: 0
latitude: 28.473755
longitude: -81.467689
accuracy: 16
views: 2
interestingness: 95 out of 310

photo: 6434589795 6c6e2902af 7172
owner: 42450712@N06
title: Korn (8)
originalsecret: null
originalformat: null
o_height: null
o_width: null
datetaken: 2011-11-10 23:06:32
dateupload: 1322713698
tags: canon orlando concert florida livemusic 7d korn citywalk hardrocklive 2011 hrl wwwtheconcertshootercom
license: 0
latitude: 28.473755
longitude: -81.467689
accuracy: 16
views: 3
interestingness: 96 out of 310

photo: 6434589539 3d5901ce08 7015
owner: 42450712@N06
title: Korn (7)
originalsecret: null
originalformat: null
o_height: null
o_width: null
datetaken: 2011-11-10 23:06:25
dateupload: 1322713695
tags: canon orlando concert florida livemusic 7d korn citywalk hardrocklive 2011 hrl wwwtheconcertshootercom
license: 0
latitude: 28.473755
longitude: -81.467689
accuracy: 16
views: 2
interestingness: 97 out of 310

photo: 6434589377 7543c2a91b 7022
owner: 42450712@N06
title: Korn (6)
originalsecret: null
originalformat: null
o_height: null
o_width: null
datetaken: 2011-11-10 23:05:38
dateupload: 1322713692
tags: canon orlando concert florida livemusic 7d korn citywalk hardrocklive 2011 hrl wwwtheconcertshootercom
license: 0
latitude: 28.473755
longitude: -81.467689
accuracy: 16
views: 3
interestingness: 98 out of 310

photo: 6434589165 66fc23a8c9 7009
owner: 42450712@N06
title: Korn (5)
originalsecret: null
originalformat: null
o_height: null
o_width: null
datetaken: 2011-11-10 23:05:26
dateupload: 1322713689
tags: canon orlando concert florida livemusic 7d korn citywalk hardrocklive 2011 hrl wwwtheconcertshootercom
license: 0
latitude: 28.473755
longitude: -81.467689
accuracy: 16
views: 18
interestingness: 99 out of 310

photo: 6434589037 16274f1c45 7174
owner: 42450712@N06
title: Korn (4)
originalsecret: null
originalformat: null
o_height: null
o_width: null
datetaken: 2011-11-10 23:04:57
dateupload: 1322713687
tags: canon orlando concert florida livemusic 7d korn citywalk hardrocklive 2011 hrl wwwtheconcertshootercom
license: 0
latitude: 28.473755
longitude: -81.467689
accuracy: 16
views: 2
interestingness: 100 out of 310

photo: 6434588839 594344f363 7160
owner: 42450712@N06
title: Korn (3)
originalsecret: null
originalformat: null
o_height: null
o_width: null
datetaken: 2011-11-10 23:04:53
dateupload: 1322713684
tags: canon orlando concert florida livemusic 7d korn citywalk hardrocklive 2011 hrl wwwtheconcertshootercom
license: 0
latitude: 28.473755
longitude: -81.467689
accuracy: 16
views: 3
interestingness: 101 out of 310

photo: 6434588685 d6024423d3 7175
owner: 42450712@N06
title: Korn (2)
originalsecret: null
originalformat: null
o_height: null
o_width: null
datetaken: 2011-11-10 23:04:33
dateupload: 1322713682
tags: canon orlando concert florida livemusic 7d korn citywalk hardrocklive 2011 hrl wwwtheconcertshootercom
license: 0
latitude: 28.473755
longitude: -81.467689
accuracy: 16
views: 15
interestingness: 102 out of 310

photo: 6434588303 ec9e2b7e9b 7150
owner: 42450712@N06
title: Korn (1)
originalsecret: null
originalformat: null
o_height: null
o_width: null
datetaken: 2011-11-10 23:04:23
dateupload: 1322713676
tags: canon orlando concert florida livemusic 7d korn citywalk hardrocklive 2011 hrl wwwtheconcertshootercom
license: 0
latitude: 28.473755
longitude: -81.467689
accuracy: 16
views: 17
interestingness: 103 out of 310

photo: 6434573315 ba3e49c112 7158
owner: 42450712@N06
title: Five Finger Death Punch (6)
originalsecret: null
originalformat: null
o_height: null
o_width: null
datetaken: 2011-11-19 23:52:49
dateupload: 1322713449
tags: canon orlando concert florida livemusic 7d citywalk hardrocklive ffdp hrl fivefingerdeathpunch wwwtheconcertshootercom
license: 0
latitude: 28.473755
longitude: -81.467689
accuracy: 16
views: 18
interestingness: 104 out of 310

photo: 6434573099 f43fd671d5 7168
owner: 42450712@N06
title: Five Finger Death Punch (5)
originalsecret: null
originalformat: null
o_height: null
o_width: null
datetaken: 2011-11-19 23:51:35
dateupload: 1322713445
tags: canon orlando concert florida livemusic 7d citywalk hardrocklive ffdp hrl fivefingerdeathpunch wwwtheconcertshootercom
license: 0
latitude: 28.473755
longitude: -81.467689
accuracy: 16
views: 14
interestingness: 105 out of 310

photo: 6434572857 6b93abfef9 7007
owner: 42450712@N06
title: Five Finger Death Punch (4)
originalsecret: null
originalformat: null
o_height: null
o_width: null
datetaken: 2011-11-19 23:50:38
dateupload: 1322713442
tags: canon orlando concert florida livemusic 7d citywalk hardrocklive ffdp hrl fivefingerdeathpunch wwwtheconcertshootercom
license: 0
latitude: 28.473755
longitude: -81.467689
accuracy: 16
views: 13
interestingness: 106 out of 310

photo: 6434572611 975beb7413 7035
owner: 42450712@N06
title: Five Finger Death Punch (3)
originalsecret: null
originalformat: null
o_height: null
o_width: null
datetaken: 2011-11-19 23:48:30
dateupload: 1322713438
tags: canon orlando concert florida livemusic 7d citywalk hardrocklive ffdp hrl fivefingerdeathpunch wwwtheconcertshootercom
license: 0
latitude: 28.473755
longitude: -81.467689
accuracy: 16
views: 16
interestingness: 107 out of 310

photo: 6434572117 44b8a64fb0 7144
owner: 42450712@N06
title: Five Finger Death Punch (1)
originalsecret: null
originalformat: null
o_height: null
o_width: null
datetaken: 2011-11-19 23:48:14
dateupload: 1322713431
tags: canon orlando concert florida livemusic 7d citywalk hardrocklive ffdp hrl fivefingerdeathpunch wwwtheconcertshootercom
license: 0
latitude: 28.473755
longitude: -81.467689
accuracy: 16
views: 14
interestingness: 108 out of 310

photo: 6434571915 0709aeaa38 7156
owner: 42450712@N06
title: Five Finger Death Punch (15)
originalsecret: null
originalformat: null
o_height: null
o_width: null
datetaken: 2011-11-19 23:47:58
dateupload: 1322713427
tags: canon orlando concert florida livemusic 7d citywalk hardrocklive ffdp hrl fivefingerdeathpunch wwwtheconcertshootercom
license: 0
latitude: 28.473755
longitude: -81.467689
accuracy: 16
views: 13
interestingness: 109 out of 310

photo: 6434571699 f21cbafc9b 7012
owner: 42450712@N06
title: Five Finger Death Punch (14)
originalsecret: null
originalformat: null
o_height: null
o_width: null
datetaken: 2011-11-19 23:46:52
dateupload: 1322713424
tags: canon orlando concert florida livemusic 7d citywalk hardrocklive ffdp hrl fivefingerdeathpunch wwwtheconcertshootercom
license: 0
latitude: 28.473755
longitude: -81.467689
accuracy: 16
views: 12
interestingness: 110 out of 310

photo: 6434571477 65c32a3fd8 7027
owner: 42450712@N06
title: Five Finger Death Punch (13)
originalsecret: null
originalformat: null
o_height: null
o_width: null
datetaken: 2011-11-19 23:46:48
dateupload: 1322713421
tags: canon orlando concert florida livemusic 7d citywalk hardrocklive ffdp hrl fivefingerdeathpunch wwwtheconcertshootercom
license: 0
latitude: 28.473755
longitude: -81.467689
accuracy: 16
views: 0
interestingness: 111 out of 310

photo: 6434571213 494f8b41d5 7013
owner: 42450712@N06
title: Five Finger Death Punch (12)
originalsecret: null
originalformat: null
o_height: null
o_width: null
datetaken: 2011-11-19 23:46:29
dateupload: 1322713418
tags: canon orlando concert florida livemusic 7d citywalk hardrocklive ffdp hrl fivefingerdeathpunch wwwtheconcertshootercom
license: 0
latitude: 28.473755
longitude: -81.467689
accuracy: 16
views: 14
interestingness: 112 out of 310

photo: 6434570911 7301f4305b 7029
owner: 42450712@N06
title: Five Finger Death Punch (11)
originalsecret: null
originalformat: null
o_height: null
o_width: null
datetaken: 2011-11-19 23:46:16
dateupload: 1322713414
tags: canon orlando concert florida livemusic 7d citywalk hardrocklive ffdp hrl fivefingerdeathpunch wwwtheconcertshootercom
license: 0
latitude: 28.473755
longitude: -81.467689
accuracy: 16
views: 12
interestingness: 113 out of 310

photo: 6434570695 33b6481bee 7156
owner: 42450712@N06
title: Five Finger Death Punch (10)
originalsecret: null
originalformat: null
o_height: null
o_width: null
datetaken: 2011-11-19 23:46:12
dateupload: 1322713411
tags: canon orlando concert florida livemusic 7d citywalk hardrocklive ffdp hrl fivefingerdeathpunch wwwtheconcertshootercom
license: 0
latitude: 28.473755
longitude: -81.467689
accuracy: 16
views: 14
interestingness: 114 out of 310

photo: 6434570479 ffb5bbbca5 7004
owner: 42450712@N06
title: Five Finger Death Punch (9)
originalsecret: null
originalformat: null
o_height: null
o_width: null
datetaken: 2011-11-19 23:46:06
dateupload: 1322713407
tags: canon orlando concert florida livemusic 7d citywalk hardrocklive ffdp hrl fivefingerdeathpunch wwwtheconcertshootercom
license: 0
latitude: 28.473755
longitude: -81.467689
accuracy: 16
views: 14
interestingness: 115 out of 310

photo: 6434570259 3664dfa2a5 7020
owner: 42450712@N06
title: Five Finger Death Punch (8)
originalsecret: null
originalformat: null
o_height: null
o_width: null
datetaken: 2011-11-19 23:45:31
dateupload: 1322713404
tags: canon orlando concert florida livemusic 7d citywalk hardrocklive ffdp hrl fivefingerdeathpunch wwwtheconcertshootercom
license: 0
latitude: 28.473755
longitude: -81.467689
accuracy: 16
views: 15
interestingness: 116 out of 310

photo: 6434569859 0e7c6b1e15 7171
owner: 42450712@N06
title: Five Finger Death Punch (7)
originalsecret: null
originalformat: null
o_height: null
o_width: null
datetaken: 2011-11-19 23:45:07
dateupload: 1322713401
tags: canon orlando concert florida livemusic 7d citywalk hardrocklive ffdp hrl fivefingerdeathpunch wwwtheconcertshootercom
license: 0
latitude: 28.473755
longitude: -81.467689
accuracy: 16
views: 15
interestingness: 117 out of 310

photo: 6434555353 031047dbaa 7005
owner: 42450712@N06
title: We Came As Romans (1)
originalsecret: null
originalformat: null
o_height: null
o_width: null
datetaken: 2011-11-17 19:54:41
dateupload: 1322713199
tags: canon orlando concert florida livemusic 7d citywalk hardrocklive hrl wecameasromans wwwtheconcertshootercom
license: 0
latitude: 28.473755
longitude: -81.467689
accuracy: 16
views: 24
interestingness: 118 out of 310

photo: 6434555115 afcf5c6cb5 7170
owner: 42450712@N06
title: We Came As Romans (4)
originalsecret: null
originalformat: null
o_height: null
o_width: null
datetaken: 2011-11-17 19:53:38
dateupload: 1322713196
tags: canon orlando concert florida livemusic 7d citywalk hardrocklive hrl wecameasromans wwwtheconcertshootercom
license: 0
latitude: 28.473755
longitude: -81.467689
accuracy: 16
views: 3
interestingness: 119 out of 310

photo: 6434554801 c40db5cdcc 7027
owner: 42450712@N06
title: We Came As Romans (3)
originalsecret: null
originalformat: null
o_height: null
o_width: null
datetaken: 2011-11-17 19:52:54
dateupload: 1322713191
tags: canon orlando concert florida livemusic 7d citywalk hardrocklive hrl wecameasromans wwwtheconcertshootercom
license: 0
latitude: 28.473755
longitude: -81.467689
accuracy: 16
views: 3
interestingness: 120 out of 310

photo: 6434545981 2dcee61fe8 7158
owner: 42450712@N06
title: D.R.U.G.S (1)
originalsecret: null
originalformat: null
o_height: null
o_width: null
datetaken: 2011-11-17 19:10:26
dateupload: 1322713062
tags: canon orlando concert florida livemusic drugs 7d citywalk hardrocklive hrl wwwtheconcertshootercom
license: 0
latitude: 28.473755
longitude: -81.467689
accuracy: 16
views: 1
interestingness: 121 out of 310

photo: 6434545707 45dd1cfed0 7153
owner: 42450712@N06
title: D.R.U.G.S (6)
originalsecret: null
originalformat: null
o_height: null
o_width: null
datetaken: 2011-11-17 19:08:52
dateupload: 1322713058
tags: canon orlando concert florida livemusic drugs 7d citywalk hardrocklive hrl wwwtheconcertshootercom
license: 0
latitude: 28.473755
longitude: -81.467689
accuracy: 16
views: 1
interestingness: 122 out of 310

photo: 6434545469 7bf4359ca2 7144
owner: 42450712@N06
title: D.R.U.G.S (5)
originalsecret: null
originalformat: null
o_height: null
o_width: null
datetaken: 2011-11-17 19:06:43
dateupload: 1322713055
tags: canon orlando concert florida livemusic drugs 7d citywalk hardrocklive hrl wwwtheconcertshootercom
license: 0
latitude: 28.473755
longitude: -81.467689
accuracy: 16
views: 8
interestingness: 123 out of 310

photo: 6434545207 bd93f2dd30 7004
owner: 42450712@N06
title: D.R.U.G.S (4)
originalsecret: null
originalformat: null
o_height: null
o_width: null
datetaken: 2011-11-17 19:06:27
dateupload: 1322713051
tags: canon orlando concert florida livemusic drugs 7d citywalk hardrocklive hrl wwwtheconcertshootercom
license: 0
latitude: 28.473755
longitude: -81.467689
accuracy: 16
views: 7
interestingness: 124 out of 310

photo: 6434544959 fa2fa5f03c 7008
owner: 42450712@N06
title: D.R.U.G.S (3)
originalsecret: null
originalformat: null
o_height: null
o_width: null
datetaken: 2011-11-17 19:06:09
dateupload: 1322713047
tags: canon orlando concert florida livemusic drugs 7d citywalk hardrocklive hrl wwwtheconcertshootercom
license: 0
latitude: 28.473755
longitude: -81.467689
accuracy: 16
views: 1
interestingness: 125 out of 310

photo: 6434544711 80276c70ee 7151
owner: 42450712@N06
title: D.R.U.G.S (2)
originalsecret: null
originalformat: null
o_height: null
o_width: null
datetaken: 2011-11-17 19:05:40
dateupload: 1322713044
tags: canon orlando concert florida livemusic drugs 7d citywalk hardrocklive hrl wwwtheconcertshootercom
license: 0
latitude: 28.473755
longitude: -81.467689
accuracy: 16
views: 0
interestingness: 126 out of 310

photo: 6434536411 197bc03d08 7029
owner: 42450712@N06
title: Rev Theory (3)
originalsecret: null
originalformat: null
o_height: null
o_width: null
datetaken: 2011-11-19 20:35:43
dateupload: 1322712922
tags: canon orlando concert florida livemusic 7d citywalk hatebreed hardrocklive hrl wwwtheconcertshootercom
license: 0
latitude: 28.473755
longitude: -81.467689
accuracy: 16
views: 0
interestingness: 127 out of 310

photo: 6434536161 6cbdc787d9 7007
owner: 42450712@N06
title: Rev Theory (2)
originalsecret: null
originalformat: null
o_height: null
o_width: null
datetaken: 2011-11-19 20:34:30
dateupload: 1322712918
tags: canon orlando concert florida livemusic 7d citywalk hatebreed hardrocklive hrl wwwtheconcertshootercom
license: 0
latitude: 28.473755
longitude: -81.467689
accuracy: 16
views: 5
interestingness: 128 out of 310

photo: 6434535883 d7fe08918e 7144
owner: 42450712@N06
title: Rev Theory (1)
originalsecret: null
originalformat: null
o_height: null
o_width: null
datetaken: 2011-11-19 20:34:22
dateupload: 1322712914
tags: canon orlando concert florida livemusic 7d citywalk hatebreed hardrocklive hrl wwwtheconcertshootercom
license: 0
latitude: 28.473755
longitude: -81.467689
accuracy: 16
views: 0
interestingness: 129 out of 310

photo: 6434535595 4d5dca1043 7023
owner: 42450712@N06
title: Rev Theory (7)
originalsecret: null
originalformat: null
o_height: null
o_width: null
datetaken: 2011-11-19 20:34:14
dateupload: 1322712909
tags: canon orlando concert florida livemusic 7d citywalk hatebreed hardrocklive hrl wwwtheconcertshootercom
license: 0
latitude: 28.473755
longitude: -81.467689
accuracy: 16
views: 5
interestingness: 130 out of 310

photo: 6434535405 b4efb300e1 7025
owner: 42450712@N06
title: Rev Theory (6)
originalsecret: null
originalformat: null
o_height: null
o_width: null
datetaken: 2011-11-19 20:33:57
dateupload: 1322712906
tags: canon orlando concert florida livemusic 7d citywalk hatebreed hardrocklive hrl wwwtheconcertshootercom
license: 0
latitude: 28.473755
longitude: -81.467689
accuracy: 16
views: 0
interestingness: 131 out of 310

photo: 6434535185 66a97f225f 7142
owner: 42450712@N06
title: Rev Theory (5)
originalsecret: null
originalformat: null
o_height: null
o_width: null
datetaken: 2011-11-19 20:33:38
dateupload: 1322712903
tags: canon orlando concert florida livemusic 7d citywalk hatebreed hardrocklive hrl wwwtheconcertshootercom
license: 0
latitude: 28.473755
longitude: -81.467689
accuracy: 16
views: 5
interestingness: 132 out of 310

photo: 6434534943 dd07d5f899 7017
owner: 42450712@N06
title: Rev Theory (4)
originalsecret: null
originalformat: null
o_height: null
o_width: null
datetaken: 2011-11-19 20:32:46
dateupload: 1322712899
tags: canon orlando concert florida livemusic 7d citywalk hatebreed hardrocklive hrl wwwtheconcertshootercom
license: 0
latitude: 28.473755
longitude: -81.467689
accuracy: 16
views: 0
interestingness: 133 out of 310

photo: 6434521011 ac81ab2d32 7169
owner: 42450712@N06
title: All That Remains (3)
originalsecret: null
originalformat: null
o_height: null
o_width: null
datetaken: 2011-11-19 22:25:04
dateupload: 1322712678
tags: canon orlando concert florida livemusic 7d citywalk hardrocklive hrl allthatremains wwwtheconcertshootercom
license: 0
latitude: 28.473755
longitude: -81.467689
accuracy: 16
views: 6
interestingness: 134 out of 310

photo: 6434520791 07e842ba1f 7024
owner: 42450712@N06
title: All That Remains (2)
originalsecret: null
originalformat: null
o_height: null
o_width: null
datetaken: 2011-11-19 22:23:02
dateupload: 1322712675
tags: canon orlando concert florida livemusic 7d citywalk hardrocklive hrl allthatremains wwwtheconcertshootercom
license: 0
latitude: 28.473755
longitude: -81.467689
accuracy: 16
views: 6
interestingness: 135 out of 310

photo: 6434520629 2e9753b342 7016
owner: 42450712@N06
title: All That Remains (1)
originalsecret: null
originalformat: null
o_height: null
o_width: null
datetaken: 2011-11-19 22:22:53
dateupload: 1322712673
tags: canon orlando concert florida livemusic 7d citywalk hardrocklive hrl allthatremains wwwtheconcertshootercom
license: 0
latitude: 28.473755
longitude: -81.467689
accuracy: 16
views: 3
interestingness: 136 out of 310

photo: 6434520437 3b9390dfcc 7035
owner: 42450712@N06
title: All That Remains (8)
originalsecret: null
originalformat: null
o_height: null
o_width: null
datetaken: 2011-11-19 22:20:55
dateupload: 1322712670
tags: canon orlando concert florida livemusic 7d citywalk hardrocklive hrl allthatremains wwwtheconcertshootercom
license: 0
latitude: 28.473755
longitude: -81.467689
accuracy: 16
views: 0
interestingness: 137 out of 310

photo: 6434520219 bd2bef4ac7 7163
owner: 42450712@N06
title: All That Remains (7)
originalsecret: null
originalformat: null
o_height: null
o_width: null
datetaken: 2011-11-19 22:18:41
dateupload: 1322712666
tags: canon orlando concert florida livemusic 7d citywalk hardrocklive hrl allthatremains wwwtheconcertshootercom
license: 0
latitude: 28.473755
longitude: -81.467689
accuracy: 16
views: 8
interestingness: 138 out of 310

photo: 6434520051 08ba158e61 7152
owner: 42450712@N06
title: All That Remains (6)
originalsecret: null
originalformat: null
o_height: null
o_width: null
datetaken: 2011-11-19 22:17:34
dateupload: 1322712664
tags: canon orlando concert florida livemusic 7d citywalk hardrocklive hrl allthatremains wwwtheconcertshootercom
license: 0
latitude: 28.473755
longitude: -81.467689
accuracy: 16
views: 5
interestingness: 139 out of 310

photo: 6434519793 daa605ece3 7144
owner: 42450712@N06
title: All That Remains (5)
originalsecret: null
originalformat: null
o_height: null
o_width: null
datetaken: 2011-11-19 22:17:09
dateupload: 1322712660
tags: canon orlando concert florida livemusic 7d citywalk hardrocklive hrl allthatremains wwwtheconcertshootercom
license: 0
latitude: 28.473755
longitude: -81.467689
accuracy: 16
views: 3
interestingness: 140 out of 310

photo: 6434519611 308a5928d6 7165
owner: 42450712@N06
title: All That Remains (4)
originalsecret: null
originalformat: null
o_height: null
o_width: null
datetaken: 2011-11-19 22:16:36
dateupload: 1322712657
tags: canon orlando concert florida livemusic 7d citywalk hardrocklive hrl allthatremains wwwtheconcertshootercom
license: 0
latitude: 28.473755
longitude: -81.467689
accuracy: 16
views: 6
interestingness: 141 out of 310

photo: 6434511357 0f3512d76c 7012
owner: 37087164@N07
title: Bok Tower Gardens Lighting Workshop | Lake Wales, FL | Thanksgiving Weekend 2011
originalsecret: null
originalformat: null
o_height: null
o_width: null
datetaken: 2011-11-26 18:50:25
dateupload: 1322712540
tags: canon florida workshop boktower 2011 lakewales strobist 5dmarkii zacharylong fenglongphotocom fenglongphotography
license: 0
latitude: 27.93927
longitude: -81.573582
accuracy: 15
views: 18
interestingness: 142 out of 310

photo: 6434510965 eeccb76a35 7143
owner: 37087164@N07
title: Bok Tower Gardens Lighting Workshop | Lake Wales, FL | Thanksgiving Weekend 2011
originalsecret: null
originalformat: null
o_height: null
o_width: null
datetaken: 2011-11-26 18:49:13
dateupload: 1322712535
tags: canon florida workshop boktower 2011 lakewales strobist 5dmarkii zacharylong fenglongphotocom fenglongphotography
license: 0
latitude: 27.93927
longitude: -81.573582
accuracy: 15
views: 12
interestingness: 143 out of 310

photo: 6434510623 0decde8515 7145
owner: 37087164@N07
title: Bok Tower Gardens Lighting Workshop | Lake Wales, FL | Thanksgiving Weekend 2011
originalsecret: null
originalformat: null
o_height: null
o_width: null
datetaken: 2011-11-26 18:47:05
dateupload: 1322712530
tags: canon florida workshop boktower 2011 lakewales strobist 5dmarkii zacharylong fenglongphotocom fenglongphotography
license: 0
latitude: 27.93927
longitude: -81.573582
accuracy: 15
views: 11
interestingness: 144 out of 310

photo: 6434510295 3d70430525 7164
owner: 37087164@N07
title: Bok Tower Gardens Lighting Workshop | Lake Wales, FL | Thanksgiving Weekend 2011
originalsecret: null
originalformat: null
o_height: null
o_width: null
datetaken: 2011-11-26 18:36:31
dateupload: 1322712525
tags: canon florida workshop boktower 2011 lakewales strobist 5dmarkii zacharylong fenglongphotocom fenglongphotography
license: 0
latitude: 27.93927
longitude: -81.573582
accuracy: 15
views: 12
interestingness: 145 out of 310

photo: 6434508691 c83032daaf 7017
owner: 37087164@N07
title: Bok Tower Gardens Lighting Workshop | Lake Wales, FL | Thanksgiving Weekend 2011
originalsecret: null
originalformat: null
o_height: null
o_width: null
datetaken: 2011-11-26 18:33:08
dateupload: 1322712503
tags: canon florida workshop boktower 2011 lakewales strobist 5dmarkii zacharylong fenglongphotocom fenglongphotography
license: 0
latitude: 27.93927
longitude: -81.573582
accuracy: 15
views: 14
interestingness: 146 out of 310

photo: 6434507721 9742bc865c 7168
owner: 37087164@N07
title: Bok Tower Gardens Lighting Workshop | Lake Wales, FL | Thanksgiving Weekend 2011
originalsecret: null
originalformat: null
o_height: null
o_width: null
datetaken: 2011-11-26 18:32:32
dateupload: 1322712490
tags: canon florida workshop boktower 2011 lakewales strobist 5dmarkii zacharylong fenglongphotocom fenglongphotography
license: 0
latitude: 27.93927
longitude: -81.573582
accuracy: 15
views: 15
interestingness: 147 out of 310

photo: 6434506469 a40f6d30ca 7001
owner: 37087164@N07
title: Bok Tower Gardens Lighting Workshop | Lake Wales, FL | Thanksgiving Weekend 2011
originalsecret: null
originalformat: null
o_height: null
o_width: null
datetaken: 2011-11-26 18:23:33
dateupload: 1322712474
tags: canon florida workshop boktower 2011 lakewales strobist 5dmarkii zacharylong fenglongphotocom fenglongphotography
license: 0
latitude: 27.93927
longitude: -81.573582
accuracy: 15
views: 11
interestingness: 148 out of 310

photo: 6434503337 f6bbbc157e 7148
owner: 37087164@N07
title: Bok Tower Gardens Lighting Workshop | Lake Wales, FL | Thanksgiving Weekend 2011
originalsecret: null
originalformat: null
o_height: null
o_width: null
datetaken: 2011-11-26 18:23:32
dateupload: 1322712430
tags: canon florida workshop boktower 2011 lakewales strobist 5dmarkii zacharylong fenglongphotocom fenglongphotography
license: 0
latitude: 27.93927
longitude: -81.573582
accuracy: 15
views: 13
interestingness: 149 out of 310

photo: 6434502587 e22afb1298 7019
owner: 37087164@N07
title: Bok Tower Gardens Lighting Workshop | Lake Wales, FL | Thanksgiving Weekend 2011
originalsecret: null
originalformat: null
o_height: null
o_width: null
datetaken: 2011-11-26 18:15:54
dateupload: 1322712420
tags: canon florida workshop boktower 2011 lakewales strobist 5dmarkii zacharylong fenglongphotocom fenglongphotography
license: 0
latitude: 27.93927
longitude: -81.573582
accuracy: 15
views: 11
interestingness: 150 out of 310

photo: 6434501791 84d8a1a174 7014
owner: 37087164@N07
title: Bok Tower Gardens Lighting Workshop | Lake Wales, FL | Thanksgiving Weekend 2011
originalsecret: null
originalformat: null
o_height: null
o_width: null
datetaken: 2011-11-26 18:11:35
dateupload: 1322712410
tags: canon florida workshop boktower 2011 lakewales strobist 5dmarkii zacharylong fenglongphotocom fenglongphotography
license: 0
latitude: 27.93927
longitude: -81.573582
accuracy: 15
views: 11
interestingness: 151 out of 310

photo: 6434500521 8095b4f923 7156
owner: 37087164@N07
title: Bok Tower Gardens Lighting Workshop | Lake Wales, FL | Thanksgiving Weekend 2011
originalsecret: null
originalformat: null
o_height: null
o_width: null
datetaken: 2011-11-26 18:06:58
dateupload: 1322712394
tags: canon florida workshop boktower 2011 lakewales strobist 5dmarkii zacharylong fenglongphotocom fenglongphotography
license: 0
latitude: 27.93927
longitude: -81.573582
accuracy: 15
views: 10
interestingness: 152 out of 310

photo: 6434499875 ec47b6558c 7014
owner: 37087164@N07
title: Bok Tower Gardens Lighting Workshop | Lake Wales, FL | Thanksgiving Weekend 2011
originalsecret: null
originalformat: null
o_height: null
o_width: null
datetaken: 2011-11-26 18:03:11
dateupload: 1322712385
tags: canon florida workshop boktower 2011 lakewales strobist 5dmarkii zacharylong fenglongphotocom fenglongphotography
license: 0
latitude: 27.93927
longitude: -81.573582
accuracy: 15
views: 9
interestingness: 153 out of 310

photo: 6433868891 bd4db002a4 7007
owner: 22885861@N05
title: 
originalsecret: null
originalformat: null
o_height: null
o_width: null
datetaken: 2011-12-01 10:18:57
dateupload: 1322703107
tags: people urban blackandwhite panorama film japan 35mm asia fuji candid rangefinder panoramic hasselblad 400 pro ?? fujifilm okinawa ?? ultrawide legacy rectangle xpan fujinon manualfocus rf environmentalportrait 454 tx2 ?? zanpa hasselbladxpanii xpanii tx1 ncps fujinonlens 24x65 fujilens 24x65mm legacypro legacypro400 rebrandedfujineopan 24x65format 24x65frame fujinonsuperebc45mmf4 hasselbladxpan445
license: 0
latitude: 26.44168
longitude: 127.715721
accuracy: 12
views: 18
interestingness: 154 out of 310

photo: 6433731059 a8c863e10d 7020
owner: 10017367@N03
title: Snipe
originalsecret: 7dff995cf7
originalformat: jpg
o_height: 3253
o_width: 4337
datetaken: 2011-11-30 18:10:50
dateupload: 1322701058
tags: november bird nature birds texas pearland snipe 2011 canon7d canon14xii elfrancolee canon300mmf28isusm kenko14xpro300 elfrancoleepark
license: 0
latitude: 29.592565
longitude: -95.25919
accuracy: 16
views: 9
interestingness: 155 out of 310

photo: 6433728717 cedecb3745 7144
owner: 10017367@N03
title: Snipe
originalsecret: 2efb43809f
originalformat: jpg
o_height: 2568
o_width: 3424
datetaken: 2011-11-30 18:00:17
dateupload: 1322701020
tags: november bird nature birds texas pearland snipe 2011 canon7d canon14xii elfrancolee canon300mmf28isusm kenko14xpro300 elfrancoleepark
license: 0
latitude: 29.592565
longitude: -95.25919
accuracy: 16
views: 12
interestingness: 156 out of 310

photo: 6434064977 ce5589e707 7032
owner: 46496355@N04
title: Lan?amento do livro "Um c?o de outro mundo", de Waldete Cestari
originalsecret: d7309e4504
originalformat: jpg
o_height: 667
o_width: 1000
datetaken: 2011-11-30 20:15:37
dateupload: 1322705977
tags: c?o shopping livro literatura jahu lan?amento
license: 0
latitude: -22.27893
longitude: -48.558712
accuracy: 11
views: 87
interestingness: 157 out of 310

photo: 6433633125 1a40a6742a 7156
owner: 7477245@N05
title: An?ncio Cigarros 117
originalsecret: 9b2aea9ef1
originalformat: jpg
o_height: 533
o_width: 407
datetaken: 2011-11-30 22:33:17
dateupload: 1322699597
tags: vintage ads advertising marketing moda modelos lingerie carros backgrounds autom?veis utilidades cigarros colorido an?ncios cal?ados propagandas vendas sele??es advertisings promo??es anunciantes modismo eletrodom?sticos reclames revistaplayboy anos1950 anos1980 anos1960 anos1940 fundosparatwitter anos1970 propagandasderevistas agenciasdepropagandas propagandasdassele??es propagandasdeguerra propagandasderevistasantigas propagandasantigasdeautom?veis propagandasantigasdecigarros
license: 4
latitude: -22.913653
longitude: -43.242874
accuracy: 11
views: 49
interestingness: 158 out of 310

photo: 6435035691 7e3bb10889 7002
owner: 45144744@N07
title: field of dreams
originalsecret: null
originalformat: null
o_height: null
o_width: null
datetaken: 2011-11-19 16:49:40
dateupload: 1322721900
tags: girl field fashion photography model cornfield farm swag
license: 0
latitude: 40.086477
longitude: -88.220214
accuracy: 5
views: 9
interestingness: 159 out of 310

photo: 6434374313 4739d89662 7173
owner: 81753532@N00
title: Eiffel Tower
originalsecret: null
originalformat: null
o_height: null
o_width: null
datetaken: 2011-08-17 23:14:33
dateupload: 1322710557
tags: paris france tower eiffel ?? ??? ??
license: 0
latitude: 48.858418
longitude: 2.294039
accuracy: 14
views: 21
interestingness: 160 out of 310

photo: 6434372391 100365d7e1 7021
owner: 81753532@N00
title: Eiffel Tower
originalsecret: null
originalformat: null
o_height: null
o_width: null
datetaken: 2011-08-17 22:28:35
dateupload: 1322710528
tags: paris france tower eiffel ?? ??? ??
license: 0
latitude: 48.858418
longitude: 2.294039
accuracy: 14
views: 11
interestingness: 161 out of 310

photo: 6434371117 41417ce63e 7018
owner: 81753532@N00
title: Eiffel Tower
originalsecret: null
originalformat: null
o_height: null
o_width: null
datetaken: 2011-08-17 22:58:00
dateupload: 1322710508
tags: paris france tower eiffel ?? ??? ??
license: 0
latitude: 48.858418
longitude: 2.294039
accuracy: 14
views: 11
interestingness: 162 out of 310

photo: 6434370143 5353e90585 7003
owner: 81753532@N00
title: Eiffel Tower
originalsecret: null
originalformat: null
o_height: null
o_width: null
datetaken: 2011-08-17 23:26:26
dateupload: 1322710493
tags: paris france tower eiffel ?? ??? ??
license: 0
latitude: 48.858418
longitude: 2.294039
accuracy: 14
views: 8
interestingness: 163 out of 310

photo: 6434368919 a865f76286 7171
owner: 81753532@N00
title: Eiffel Tower
originalsecret: null
originalformat: null
o_height: null
o_width: null
datetaken: 2011-08-17 22:36:55
dateupload: 1322710473
tags: paris france tower eiffel ?? ??? ??
license: 0
latitude: 48.858418
longitude: 2.294039
accuracy: 14
views: 7
interestingness: 164 out of 310

photo: 6434367805 9968c1e0f9 7019
owner: 81753532@N00
title: Eiffel Tower
originalsecret: null
originalformat: null
o_height: null
o_width: null
datetaken: 2011-08-17 23:06:36
dateupload: 1322710456
tags: paris france tower eiffel ?? ??? ??
license: 0
latitude: 48.858418
longitude: 2.294039
accuracy: 14
views: 8
interestingness: 165 out of 310

photo: 6434366543 43bfd5d2cc 7166
owner: 81753532@N00
title: Eiffel Tower
originalsecret: null
originalformat: null
o_height: null
o_width: null
datetaken: 2011-08-17 22:38:27
dateupload: 1322710437
tags: paris france tower eiffel ?? ??? ??
license: 0
latitude: 48.858418
longitude: 2.294039
accuracy: 14
views: 9
interestingness: 166 out of 310

photo: 6434363489 602798468a 7171
owner: 81753532@N00
title: Eiffel Tower
originalsecret: null
originalformat: null
o_height: null
o_width: null
datetaken: 2011-08-17 23:16:38
dateupload: 1322710392
tags: paris france tower eiffel ?? ??? ??
license: 0
latitude: 48.858418
longitude: 2.294039
accuracy: 14
views: 7
interestingness: 167 out of 310

photo: 6434358245 5a8ae09aa0 7024
owner: 81753532@N00
title: Eiffel Tower
originalsecret: null
originalformat: null
o_height: null
o_width: null
datetaken: 2011-08-17 23:20:22
dateupload: 1322710314
tags: paris france tower eiffel ?? ??? ??
license: 0
latitude: 48.858418
longitude: 2.294039
accuracy: 14
views: 8
interestingness: 168 out of 310

photo: 6433740529 14b1e96c3d 7147
owner: 21557584@N05
title: Bal?
originalsecret: null
originalformat: null
o_height: null
o_width: null
datetaken: 2011-11-26 08:49:50
dateupload: 1322701202
tags: 
license: 0
latitude: -23.504673
longitude: -46.482381
accuracy: 14
views: 43
interestingness: 169 out of 310

photo: 6435450853 4abaa6ebb2 7154
owner: 61602652@N08
title: nasturzi calorosi
originalsecret: null
originalformat: null
o_height: null
o_width: null
datetaken: 2011-12-01 10:26:04
dateupload: 1322731564
tags: gelo novembre semi autunno balcone annuale
license: 0
latitude: 42.351186
longitude: 13.39817
accuracy: 11
views: 0
interestingness: 170 out of 310

photo: 6435450851 5531255235 7035
owner: 61602652@N08
title: nasturzi calorosi e viole
originalsecret: null
originalformat: null
o_height: null
o_width: null
datetaken: 2011-12-01 10:26:04
dateupload: 1322731564
tags: gelo novembre semi autunno balcone annuale
license: 0
latitude: 42.352581
longitude: 13.3992
accuracy: 11
views: 0
interestingness: 171 out of 310

photo: 6435450847 6fdf98877e 7173
owner: 61602652@N08
title: nasturzi calorosi e fioriti
originalsecret: null
originalformat: null
o_height: null
o_width: null
datetaken: 2011-12-01 10:26:04
dateupload: 1322731564
tags: gelo novembre semi autunno balcone annuale
license: 0
latitude: 42.354484
longitude: 13.396797
accuracy: 11
views: 0
interestingness: 172 out of 310

photo: 6435402823 a4d993b213 7018
owner: 69669458@N00
title: Stampace - Cagliari
originalsecret: null
originalformat: null
o_height: null
o_width: null
datetaken: 2011-12-01 10:06:41
dateupload: 1322730401
tags: sardegna city sardinia rainy cagliari stampac
license: 0
latitude: 39.217109
longitude: 9.110026
accuracy: 15
views: 1
interestingness: 173 out of 310

photo: 6435397349 4ff14c3b21 7016
owner: 69669458@N00
title: Stampace - Cagliari
originalsecret: null
originalformat: null
o_height: null
o_width: null
datetaken: 2011-12-01 10:04:36
dateupload: 1322730276
tags: sardegna city sardinia rainy cagliari stampac
license: 0
latitude: 39.217949
longitude: 9.109532
accuracy: 15
views: 2
interestingness: 174 out of 310

photo: 6433632463 912a9b6717 7143
owner: 7477245@N05
title: An?ncio Cigarros 114
originalsecret: 586789f002
originalformat: jpg
o_height: 533
o_width: 407
datetaken: 2011-11-30 22:33:09
dateupload: 1322699589
tags: vintage ads advertising marketing moda modelos lingerie carros backgrounds autom?veis utilidades cigarros colorido an?ncios cal?ados propagandas vendas sele??es advertisings promo??es anunciantes modismo eletrodom?sticos reclames revistaplayboy anos1950 anos1980 anos1960 anos1940 fundosparatwitter anos1970 propagandasderevistas agenciasdepropagandas propagandasdassele??es propagandasdeguerra propagandasderevistasantigas propagandasantigasdeautom?veis propagandasantigasdecigarros
license: 4
latitude: -22.913653
longitude: -43.242874
accuracy: 11
views: 28
interestingness: 175 out of 310

photo: 6433632251 00a80d9a5b 7016
owner: 7477245@N05
title: An?ncio Cigarros 113
originalsecret: 2ab766441c
originalformat: jpg
o_height: 533
o_width: 407
datetaken: 2011-11-30 22:33:06
dateupload: 1322699586
tags: vintage ads advertising marketing moda modelos lingerie carros backgrounds autom?veis utilidades cigarros colorido an?ncios cal?ados propagandas vendas sele??es advertisings promo??es anunciantes modismo eletrodom?sticos reclames revistaplayboy anos1950 anos1980 anos1960 anos1940 fundosparatwitter anos1970 propagandasderevistas agenciasdepropagandas propagandasdassele??es propagandasdeguerra propagandasderevistasantigas propagandasantigasdeautom?veis propagandasantigasdecigarros
license: 4
latitude: -22.913653
longitude: -43.242874
accuracy: 11
views: 35
interestingness: 176 out of 310

photo: 6433632061 0a15474eee 7160
owner: 7477245@N05
title: An?ncio Cigarros 112
originalsecret: c9e98d0575
originalformat: jpg
o_height: 533
o_width: 407
datetaken: 2011-11-30 22:33:03
dateupload: 1322699583
tags: vintage ads advertising marketing moda modelos lingerie carros backgrounds autom?veis utilidades cigarros colorido an?ncios cal?ados propagandas vendas sele??es advertisings promo??es anunciantes modismo eletrodom?sticos reclames revistaplayboy anos1950 anos1980 anos1960 anos1940 fundosparatwitter anos1970 propagandasderevistas agenciasdepropagandas propagandasdassele??es propagandasdeguerra propagandasderevistasantigas propagandasantigasdeautom?veis propagandasantigasdecigarros
license: 4
latitude: -22.913653
longitude: -43.242874
accuracy: 11
views: 48
interestingness: 177 out of 310

photo: 6433631853 2f129a2172 7154
owner: 7477245@N05
title: An?ncio Cigarros 111
originalsecret: 8ee24d61d2
originalformat: jpg
o_height: 533
o_width: 407
datetaken: 2011-11-30 22:33:00
dateupload: 1322699580
tags: vintage ads advertising marketing moda modelos lingerie carros backgrounds autom?veis utilidades cigarros colorido an?ncios cal?ados propagandas vendas sele??es advertisings promo??es anunciantes modismo eletrodom?sticos reclames revistaplayboy anos1950 anos1980 anos1960 anos1940 fundosparatwitter anos1970 propagandasderevistas agenciasdepropagandas propagandasdassele??es propagandasdeguerra propagandasderevistasantigas propagandasantigasdeautom?veis propagandasantigasdecigarros
license: 4
latitude: -22.913653
longitude: -43.242874
accuracy: 11
views: 39
interestingness: 178 out of 310

photo: 6433631663 669139d9c7 7030
owner: 7477245@N05
title: An?ncio Cigarros 110
originalsecret: 398fe6b065
originalformat: jpg
o_height: 533
o_width: 407
datetaken: 2011-11-30 22:32:57
dateupload: 1322699577
tags: vintage ads advertising marketing moda modelos lingerie carros backgrounds autom?veis utilidades cigarros colorido an?ncios cal?ados propagandas vendas sele??es advertisings promo??es anunciantes modismo eletrodom?sticos reclames revistaplayboy anos1950 anos1980 anos1960 anos1940 fundosparatwitter anos1970 propagandasderevistas agenciasdepropagandas propagandasdassele??es propagandasdeguerra propagandasderevistasantigas propagandasantigasdeautom?veis propagandasantigasdecigarros
license: 4
latitude: -22.913653
longitude: -43.242874
accuracy: 11
views: 32
interestingness: 179 out of 310

photo: 6433631465 34efd2f735 7169
owner: 7477245@N05
title: An?ncio Cigarros 109
originalsecret: 7927fc6bd8
originalformat: jpg
o_height: 533
o_width: 407
datetaken: 2011-11-30 22:32:55
dateupload: 1322699575
tags: vintage ads advertising marketing moda modelos lingerie carros backgrounds autom?veis utilidades cigarros colorido an?ncios cal?ados propagandas vendas sele??es advertisings promo??es anunciantes modismo eletrodom?sticos reclames revistaplayboy anos1950 anos1980 anos1960 anos1940 fundosparatwitter anos1970 propagandasderevistas agenciasdepropagandas propagandasdassele??es propagandasdeguerra propagandasderevistasantigas propagandasantigasdeautom?veis propagandasantigasdecigarros
license: 4
latitude: -22.913653
longitude: -43.242874
accuracy: 11
views: 34
interestingness: 180 out of 310

photo: 6433631265 f1c8b57a1e 7017
owner: 7477245@N05
title: An?ncio Cigarros 108
originalsecret: e160f26904
originalformat: jpg
o_height: 533
o_width: 407
datetaken: 2011-11-30 22:32:52
dateupload: 1322699572
tags: vintage ads advertising marketing moda modelos lingerie carros backgrounds autom?veis utilidades cigarros colorido an?ncios cal?ados propagandas vendas sele??es advertisings promo??es anunciantes modismo eletrodom?sticos reclames revistaplayboy anos1950 anos1980 anos1960 anos1940 fundosparatwitter anos1970 propagandasderevistas agenciasdepropagandas propagandasdassele??es propagandasdeguerra propagandasderevistasantigas propagandasantigasdeautom?veis propagandasantigasdecigarros
license: 4
latitude: -22.913653
longitude: -43.242874
accuracy: 11
views: 40
interestingness: 181 out of 310

photo: 6433631069 e95bb04628 7170
owner: 7477245@N05
title: An?ncio Cigarros 107
originalsecret: e391ce3464
originalformat: jpg
o_height: 533
o_width: 407
datetaken: 2011-11-30 22:32:49
dateupload: 1322699569
tags: vintage ads advertising marketing moda modelos lingerie carros backgrounds autom?veis utilidades cigarros colorido an?ncios cal?ados propagandas vendas sele??es advertisings promo??es anunciantes modismo eletrodom?sticos reclames revistaplayboy anos1950 anos1980 anos1960 anos1940 fundosparatwitter anos1970 propagandasderevistas agenciasdepropagandas propagandasdassele??es propagandasdeguerra propagandasderevistasantigas propagandasantigasdeautom?veis propagandasantigasdecigarros
license: 4
latitude: -22.913653
longitude: -43.242874
accuracy: 11
views: 23
interestingness: 182 out of 310

photo: 6433630899 223c5eea06 7027
owner: 7477245@N05
title: An?ncio Cigarros 106
originalsecret: 488c74f87f
originalformat: jpg
o_height: 533
o_width: 407
datetaken: 2011-11-30 22:32:46
dateupload: 1322699566
tags: vintage ads advertising marketing moda modelos lingerie carros backgrounds autom?veis utilidades cigarros colorido an?ncios cal?ados propagandas vendas sele??es advertisings promo??es anunciantes modismo eletrodom?sticos reclames revistaplayboy anos1950 anos1980 anos1960 anos1940 fundosparatwitter anos1970 propagandasderevistas agenciasdepropagandas propagandasdassele??es propagandasdeguerra propagandasderevistasantigas propagandasantigasdeautom?veis propagandasantigasdecigarros
license: 4
latitude: -22.913653
longitude: -43.242874
accuracy: 11
views: 49
interestingness: 183 out of 310

photo: 6433630695 bc5581048b 7175
owner: 7477245@N05
title: An?ncio Cigarros 105
originalsecret: 44d0ac64ec
originalformat: jpg
o_height: 533
o_width: 407
datetaken: 2011-11-30 22:32:43
dateupload: 1322699563
tags: vintage ads advertising marketing moda modelos lingerie carros backgrounds autom?veis utilidades cigarros colorido an?ncios cal?ados propagandas vendas sele??es advertisings promo??es anunciantes modismo eletrodom?sticos reclames revistaplayboy anos1950 anos1980 anos1960 anos1940 fundosparatwitter anos1970 propagandasderevistas agenciasdepropagandas propagandasdassele??es propagandasdeguerra propagandasderevistasantigas propagandasantigasdeautom?veis propagandasantigasdecigarros
license: 4
latitude: -22.913653
longitude: -43.242874
accuracy: 11
views: 24
interestingness: 184 out of 310

photo: 6433630487 dd33567917 7159
owner: 7477245@N05
title: An?ncio Cigarros 104
originalsecret: 8c43d9184a
originalformat: jpg
o_height: 533
o_width: 407
datetaken: 2011-11-30 22:32:41
dateupload: 1322699561
tags: vintage ads advertising marketing moda modelos lingerie carros backgrounds autom?veis utilidades cigarros colorido an?ncios cal?ados propagandas vendas sele??es advertisings promo??es anunciantes modismo eletrodom?sticos reclames revistaplayboy anos1950 anos1980 anos1960 anos1940 fundosparatwitter anos1970 propagandasderevistas agenciasdepropagandas propagandasdassele??es propagandasdeguerra propagandasderevistasantigas propagandasantigasdeautom?veis propagandasantigasdecigarros
license: 4
latitude: -22.913653
longitude: -43.242874
accuracy: 11
views: 27
interestingness: 185 out of 310

photo: 6433630283 e8b92fb09e 7147
owner: 7477245@N05
title: An?ncio Cigarros 103
originalsecret: a78484643e
originalformat: jpg
o_height: 533
o_width: 407
datetaken: 2011-11-30 22:32:38
dateupload: 1322699558
tags: vintage ads advertising marketing moda modelos lingerie carros backgrounds autom?veis utilidades cigarros colorido an?ncios cal?ados propagandas vendas sele??es advertisings promo??es anunciantes modismo eletrodom?sticos reclames revistaplayboy anos1950 anos1980 anos1960 anos1940 fundosparatwitter anos1970 propagandasderevistas agenciasdepropagandas propagandasdassele??es propagandasdeguerra propagandasderevistasantigas propagandasantigasdeautom?veis propagandasantigasdecigarros
license: 4
latitude: -22.913653
longitude: -43.242874
accuracy: 11
views: 29
interestingness: 186 out of 310

photo: 6433630077 f5dcb5b3ce 7018
owner: 7477245@N05
title: An?ncio Cigarros 102
originalsecret: 9c71e075fc
originalformat: jpg
o_height: 533
o_width: 407
datetaken: 2011-11-30 22:32:35
dateupload: 1322699555
tags: vintage ads advertising marketing moda modelos lingerie carros backgrounds autom?veis utilidades cigarros colorido an?ncios cal?ados propagandas vendas sele??es advertisings promo??es anunciantes modismo eletrodom?sticos reclames revistaplayboy anos1950 anos1980 anos1960 anos1940 fundosparatwitter anos1970 propagandasderevistas agenciasdepropagandas propagandasdassele??es propagandasdeguerra propagandasderevistasantigas propagandasantigasdeautom?veis propagandasantigasdecigarros
license: 4
latitude: -22.913653
longitude: -43.242874
accuracy: 11
views: 5
interestingness: 187 out of 310

photo: 6433629867 bbc2ef9e4f 7029
owner: 7477245@N05
title: An?ncio Cigarros 101
originalsecret: d669e961e1
originalformat: jpg
o_height: 533
o_width: 407
datetaken: 2011-11-30 22:32:32
dateupload: 1322699552
tags: propagandasantigasdeautom?veis propagandasantigasdecigarros carros reclames an?ncios propagandas colorido vintage moda modismo advertising ads promo??es fundosparatwitter backgrounds propagandasderevistasantigas anunciantes marketing vendas sele??es agenciasdepropagandas advertisings anos1940 anos1950 anos1960 anos1970 anos1980 propagandasdassele??es propagandasdeguerra modelos autom?veis utilidades cigarros eletrodom?sticos cal?ados propagandasderevistas revistaplayboy lingerie
license: 4
latitude: -22.913653
longitude: -43.242874
accuracy: 11
views: 31
interestingness: 188 out of 310

photo: 6434801183 26f4402027 7154
owner: 29056926@N02
title: Kafe Berlin and Historic Place plaque
originalsecret: 509a08b628
originalformat: jpg
o_height: 800
o_width: 1600
datetaken: 2011-11-06 10:39:04
dateupload: 1322719233
tags: german goldrush firsthill assayoffice kafeberlin
license: 1
latitude: 47.605765
longitude: -122.325156
accuracy: 15
views: 24
interestingness: 189 out of 310

photo: 6434799313 2df7469496 7163
owner: 29056926@N02
title: Kafe Berlin interior
originalsecret: 42eb4e6958
originalformat: jpg
o_height: 1200
o_width: 1600
datetaken: 2011-11-29 09:40:06
dateupload: 1322717695
tags: german firsthill assayoffice kafeberlin goldrysh
license: 1
latitude: 47.60583
longitude: -122.325114
accuracy: 15
views: 30
interestingness: 190 out of 310

photo: 6434375289 609c6fbb0a 7011
owner: 81753532@N00
title: Arc de Triomphe
originalsecret: null
originalformat: null
o_height: null
o_width: null
datetaken: 2011-08-17 21:51:31
dateupload: 1322710573
tags: 
license: 0
latitude: 48.873917
longitude: 2.294898
accuracy: 14
views: 8
interestingness: 191 out of 310

photo: 6433583159 d09b6acc73 7013
owner: 37072228@N04
title: Haltern am See, Aula des Schulzentrums
originalsecret: null
originalformat: null
o_height: null
o_width: null
datetaken: 2011-11-30 20:56:06
dateupload: 1322698864
tags: germany blog tour beatles cavern
license: 0
latitude: 51.739632
longitude: 7.182826
accuracy: 15
views: 33
interestingness: 192 out of 310

photo: 6433581865 0401f4eab0 7150
owner: 37072228@N04
title: Haltern am See, Aula des Schulzentrums
originalsecret: null
originalformat: null
o_height: null
o_width: null
datetaken: 2011-11-30 20:33:45
dateupload: 1322698845
tags: germany blog tour beatles cavern
license: 0
latitude: 51.739632
longitude: 7.182826
accuracy: 15
views: 65
interestingness: 193 out of 310

photo: 6433579939 cb2d2d532b 7016
owner: 37072228@N04
title: Haltern am See, Aula des Schulzentrums
originalsecret: null
originalformat: null
o_height: null
o_width: null
datetaken: 2011-11-30 20:30:59
dateupload: 1322698816
tags: germany blog tour beatles cavern
license: 0
latitude: 51.739632
longitude: 7.182826
accuracy: 15
views: 30
interestingness: 194 out of 310

photo: 6433578183 2d37feb621 7012
owner: 37072228@N04
title: Haltern am See, Aula des Schulzentrums
originalsecret: null
originalformat: null
o_height: null
o_width: null
datetaken: 2011-11-30 20:30:31
dateupload: 1322698789
tags: germany blog tour beatles cavern
license: 0
latitude: 51.739632
longitude: 7.182826
accuracy: 15
views: 32
interestingness: 195 out of 310

photo: 6433576885 1a930495bc 7167
owner: 37072228@N04
title: Haltern am See, Aula des Schulzentrums
originalsecret: null
originalformat: null
o_height: null
o_width: null
datetaken: 2011-11-30 20:23:08
dateupload: 1322698769
tags: germany blog tour beatles cavern
license: 0
latitude: 51.739632
longitude: 7.182826
accuracy: 15
views: 28
interestingness: 196 out of 310

photo: 6433575453 dd432e1e6e 7014
owner: 37072228@N04
title: Haltern am See, Aula des Schulzentrums
originalsecret: null
originalformat: null
o_height: null
o_width: null
datetaken: 2011-11-30 20:16:01
dateupload: 1322698747
tags: germany blog tour beatles cavern
license: 0
latitude: 51.739632
longitude: 7.182826
accuracy: 15
views: 37
interestingness: 197 out of 310

photo: 6433572581 dc4e26678e 7164
owner: 37072228@N04
title: Haltern am See, Aula des Schulzentrums
originalsecret: null
originalformat: null
o_height: null
o_width: null
datetaken: 2011-11-30 19:44:50
dateupload: 1322698706
tags: germany blog tour beatles cavern
license: 0
latitude: 51.739632
longitude: 7.182826
accuracy: 15
views: 22
interestingness: 198 out of 310

photo: 6433571297 0541afbd25 7159
owner: 37072228@N04
title: Haltern am See, Aula des Schulzentrums
originalsecret: null
originalformat: null
o_height: null
o_width: null
datetaken: 2011-11-30 19:13:24
dateupload: 1322698686
tags: germany blog tour beatles cavern
license: 0
latitude: 51.739632
longitude: 7.182826
accuracy: 15
views: 26
interestingness: 199 out of 310

photo: 6433570059 4160f17db5 7150
owner: 37072228@N04
title: Haltern am See, Aula des Schulzentrums
originalsecret: null
originalformat: null
o_height: null
o_width: null
datetaken: 2011-11-30 19:11:11
dateupload: 1322698664
tags: germany blog tour beatles cavern
license: 0
latitude: 51.739632
longitude: 7.182826
accuracy: 15
views: 21
interestingness: 200 out of 310

photo: 6433568677 ca2bb81f90 7025
owner: 37072228@N04
title: Haltern am See, Aula des Schulzentrums
originalsecret: null
originalformat: null
o_height: null
o_width: null
datetaken: 2011-11-30 19:08:49
dateupload: 1322698641
tags: germany blog tour beatles cavern
license: 0
latitude: 51.739632
longitude: 7.182826
accuracy: 15
views: 24
interestingness: 201 out of 310

photo: 6433567311 1757e8a10f 7160
owner: 37072228@N04
title: Haltern am See, Aula des Schulzentrums
originalsecret: null
originalformat: null
o_height: null
o_width: null
datetaken: 2011-11-30 18:56:40
dateupload: 1322698620
tags: germany blog tour beatles cavern
license: 0
latitude: 51.739632
longitude: 7.182826
accuracy: 15
views: 21
interestingness: 202 out of 310

photo: 6433564311 14c44df119 7003
owner: 37072228@N04
title: Haltern am See, Aula des Schulzentrums
originalsecret: null
originalformat: null
o_height: null
o_width: null
datetaken: 2011-11-30 18:07:07
dateupload: 1322698575
tags: germany blog tour beatles cavern
license: 0
latitude: 51.739632
longitude: 7.182826
accuracy: 15
views: 20
interestingness: 203 out of 310

photo: 6433562399 bc5c132866 7152
owner: 37072228@N04
title: Haltern am See, Aula des Schulzentrums
originalsecret: null
originalformat: null
o_height: null
o_width: null
datetaken: 2011-11-30 16:08:35
dateupload: 1322698544
tags: germany blog tour beatles cavern
license: 0
latitude: 51.739632
longitude: 7.182826
accuracy: 15
views: 18
interestingness: 204 out of 310

photo: 6433559307 bcfdf722d9 7146
owner: 37072228@N04
title: Haltern am See, Aula des Schulzentrums
originalsecret: null
originalformat: null
o_height: null
o_width: null
datetaken: 2011-11-30 16:06:50
dateupload: 1322698487
tags: germany blog tour beatles cavern
license: 0
latitude: 51.739632
longitude: 7.182826
accuracy: 15
views: 23
interestingness: 205 out of 310

photo: 6433556249 9a0451ee98 7153
owner: 37072228@N04
title: Haltern am See, Aula des Schulzentrums
originalsecret: null
originalformat: null
o_height: null
o_width: null
datetaken: 2011-11-30 16:04:56
dateupload: 1322698435
tags: germany blog tour beatles cavern
license: 0
latitude: 51.739632
longitude: 7.182826
accuracy: 15
views: 17
interestingness: 206 out of 310

photo: 6433551577 72dee48023 7015
owner: 37072228@N04
title: Haltern am See
originalsecret: null
originalformat: null
o_height: null
o_width: null
datetaken: 2011-11-30 13:40:26
dateupload: 1322698355
tags: germany blog tour beatles cavern
license: 0
latitude: 51.742894
longitude: 7.187311
accuracy: 16
views: 31
interestingness: 207 out of 310

photo: 6433543809 2e1962ebb4 7021
owner: 37072228@N04
title: Haltern am See
originalsecret: null
originalformat: null
o_height: null
o_width: null
datetaken: 2011-11-30 13:12:37
dateupload: 1322698224
tags: germany blog tour beatles cavern
license: 0
latitude: 51.742894
longitude: 7.187311
accuracy: 16
views: 26
interestingness: 208 out of 310

photo: 6433535255 5b2001b7f9 7012
owner: 37072228@N04
title: Haltern am See
originalsecret: null
originalformat: null
o_height: null
o_width: null
datetaken: 2011-11-30 13:06:47
dateupload: 1322698084
tags: germany blog tour beatles cavern
license: 0
latitude: 51.742894
longitude: 7.187311
accuracy: 16
views: 22
interestingness: 209 out of 310

photo: 6433533683 40f6ebd427 7012
owner: 37072228@N04
title: Haltern am See
originalsecret: null
originalformat: null
o_height: null
o_width: null
datetaken: 2011-11-30 13:05:06
dateupload: 1322698059
tags: germany blog tour beatles cavern
license: 0
latitude: 51.742894
longitude: 7.187311
accuracy: 16
views: 23
interestingness: 210 out of 310

