
mintime: 1322697600 maxtime: 1324512427.5
numimgs: 40
total pages: 1
visiting only 1 pages ( up to 250 images)
photo: 6460206181 34ce63c0b4 7022
owner: 35110249@N05
title: Swarm of Barnacle Geese (Brandganzen)
originalsecret: 8655a079ea
originalformat: jpg
o_height: 667
o_width: 1200
datetaken: 2011-11-15 14:40:24
dateupload: 1323201965
tags: autumn mist holland bird fall netherlands dutch fog nationalpark nevel herfst nederland goose gans groningen oiseau friesland barnaclegoose brantaleucopsis vogel niederlande lauwersmeer frysl?n najaar nationaalpark brandgans bernachenonnette nonnengans hvitkinng?s berniklabia?olica vitkindadg?s a550 bramg?s barnaclacariblanca gansodefacesbrancas weiswangengans lauwersmar martienuiterweerd martienarnhem ???????????????? sony70300gssmlens sonyalpha550 fotomartien grinsl?n
license: 0
latitude: 53.345632
longitude: 6.156463
accuracy: 13
views: 242
interestingness: 1 out of 40

photo: 6436020815 8b516acf11 7142
owner: 40263216@N06
title: Red Breasted Nuthatch
originalsecret: 178ffaf491
originalformat: jpg
o_height: 1972
o_width: 2651
datetaken: 2011-11-30 11:53:43
dateupload: 1322748949
tags: ontario tree bird nature branch ngc evergreen npc spruce sigma50500 redbreastednuthatch camada blinkagain bestofblinkwinners dailynaturetnc11
license: 0
latitude: 48.517286
longitude: -81.285095
accuracy: 11
views: 199
interestingness: 2 out of 40

photo: 6449331213 db8cf69f1a 7023
owner: 11746711@N08
title: George Washington Bridge / New York City on 10/03/11
originalsecret: null
originalformat: null
o_height: null
o_width: null
datetaken: 2011-10-03 03:20:12
dateupload: 1322955213
tags: nyc newyorkcity longexposure bridge pink cloud newyork reflection skyline night river geotagged highway manhattan esb hudsonriver empirestatebuilding hudson gothamist georgewashington breastcancer hdr gwb georgewashingtonbridge breastcancerawarenessmonth henryhudson freedomtower mudpig worldtradecenter1 stevekelley stevenkelley
license: 0
latitude: 40.890445
longitude: -73.940552
accuracy: 16
views: 376
interestingness: 3 out of 40

photo: 6446616113 e37bee31ed 7019
owner: 24061413@N04
title: Body changes / Corps en mouvement
originalsecret: 6de5132dba
originalformat: jpg
o_height: 800
o_width: 450
datetaken: 2011-11-28 12:26:01
dateupload: 1322920480
tags: black silk skirt blouse
license: 0
latitude: 48.870325
longitude: 2.278659
accuracy: 16
views: 1965
interestingness: 4 out of 40

photo: 6456185085 48727d3bf8 7156
owner: 73299437@N00
title: Sittelle
originalsecret: null
originalformat: null
o_height: null
o_width: null
datetaken: 2011-12-04 13:10:21
dateupload: 1323108644
tags: canada bird nature qu?bec whitebreastednuthatch oiseau ilyb duberger sittelle?poitrineblanche parcdelarivi?restcharles
license: 0
latitude: 46.809165
longitude: -71.316761
accuracy: 13
views: 97
interestingness: 5 out of 40

photo: 6448169301 3458fc4ce9 7141
owner: 35870491@N02
title: Into the Wild
originalsecret: null
originalformat: null
o_height: null
o_width: null
datetaken: 2011-12-03 11:25:22
dateupload: 1322940322
tags: life winter cold love film feet nature beauty grass leaves 35mm vintage holga lomography toes poem weekend doubleexposure pabloneruda filmphotography flickraddicts 365days retrofeel yourfeet seattleeveryday groupwithexperience lovelifeandbeautygroup
license: 0
latitude: 47.602112
longitude: -122.335853
accuracy: 11
views: 269
interestingness: 6 out of 40

photo: 6465894043 b001a4d346 7034
owner: 25304221@N07
title: Hello, I'm Santa Claus! :)
originalsecret: null
originalformat: null
o_height: null
o_width: null
datetaken: 2010-12-05 20:35:46
dateupload: 1323180747
tags: light candle candy santaclaus nikolaus christmastime 6december stnicholasday explored
license: 0
latitude: 49.248618
longitude: 9.308166
accuracy: 13
views: 90
interestingness: 7 out of 40

photo: 6464250023 f70bb9cd86 7022
owner: 56296231@N04
title: robin(erithacus rubecula)
originalsecret: e34ff75910
originalformat: jpg
o_height: 1650
o_width: 2450
datetaken: 2011-04-19 15:14:18
dateupload: 1323149516
tags: red robin birds devon exeter alphington robinredbreast greatphotographers grayclements
license: 0
latitude: 50.701785
longitude: -3.532791
accuracy: 16
views: 86
interestingness: 8 out of 40

photo: 6473274165 c7f6fd3b08 7014
owner: 61144479@N06
title: The Pap of Glencoe
originalsecret: null
originalformat: null
o_height: null
o_width: null
datetaken: 2009-11-24 14:34:55
dateupload: 1323289286
tags: mountain scotland glencoe grahams fortwilliam ballachulish lochaber westhighlands aonacheagach lochleven clachaiginn papofglencoe sgurrnac?che sgornamfiannaidh jackbyers breastshapedhills
license: 0
latitude: 56.682636
longitude: -5.07328
accuracy: 11
views: 39
interestingness: 9 out of 40

photo: 6467421131 5a306c8ea7 7165
owner: 49036575@N02
title: Rouge-gorge, Robin
originalsecret: 17694d9bf9
originalformat: jpg
o_height: 1024
o_width: 683
datetaken: 2011-12-02 09:39:12
dateupload: 1323199685
tags: wild bird speed jaune french geotagged rouge effects photography photo flickr tits minolta photos bokeh sony main vert apo gorge alpha antony animaux parc postproduction oiseau fran?ais greattit sal zed hs francais sceaux lightroom 80200 effets m?sange vif rapide parcdesceaux surlevif a850 traitements alpha350 parcsceaux 80200apo dslra850 zedthedragon minoltaapo80200hs charbonni?re
license: 0
latitude: 48.766316
longitude: 2.300884
accuracy: 15
views: 97
interestingness: 10 out of 40

photo: 6442682563 afb20c6f88 7003
owner: 20058054@N00
title: "Bibbed" Mallard
originalsecret: 87b17fa8a0
originalformat: jpg
o_height: 683
o_width: 1024
datetaken: 2011-11-09 17:27:41
dateupload: 1322850544
tags: park creek duck kansas wichita chisholm
license: 0
latitude: 37.740869
longitude: -97.263883
accuracy: 16
views: 79
interestingness: 11 out of 40

photo: 6442150923 75f7813c27 7020
owner: 21395545@N08
title: San Francisco's tities
originalsecret: 2a3136e653
originalformat: jpg
o_height: 825
o_width: 800
datetaken: 2011-09-29 15:03:15
dateupload: 1322843398
tags: sf sanfrancisco california road trip usa color film analog polaroid breasts seins boobs poitrine spirit altitude twin tip twinpeaks shade 600 instant steven peaks heights 70 californie ip lll px instantan? tities monteau impossibleproject px70colorshade twoandahalfweeksonthewestcoastoftheunitedstatesofamerica nichonsdeverdure earthboobies
license: 0
latitude: 37.779839
longitude: -122.420439
accuracy: 13
views: 318
interestingness: 12 out of 40

photo: 6455905409 b6b44e93b7 7143
owner: 10635276@N00
title: Nuthatch
originalsecret: null
originalformat: null
o_height: null
o_width: null
datetaken: 2011-11-01 13:11:41
dateupload: 1323040669
tags: canada nikon bc nuthatch langley redbreastednuthatch campbellvalleypark nikon18200vr d7000 sitacanadensis
license: 0
latitude: 49.0256
longitude: -122.652626
accuracy: 11
views: 51
interestingness: 13 out of 40

photo: 6472224081 8944bbcc95 7034
owner: 36040418@N08
title: A bird in the bush....
originalsecret: 1a883f6763
originalformat: jpg
o_height: 1459
o_width: 1257
datetaken: 2011-12-03 12:36:51
dateupload: 1323275541
tags: uk light bird eye beauty pose bush december branch breast beak dunnock dorset twig perch weymouth plumage stevemaskell lbb rspb 2011 radipole
license: 0
latitude: 50.61606
longitude: -2.460765
accuracy: 13
views: 62
interestingness: 14 out of 40

photo: 6467750623 355675229e 7168
owner: 32039444@N05
title: Will the Real Carol Please Raise Your Hand
originalsecret: null
originalformat: null
o_height: null
o_width: null
datetaken: 2011-10-23 14:14:36
dateupload: 1323203743
tags: friends digital photoshop friend faces
license: 0
latitude: 42.072105
longitude: -72.551307
accuracy: 11
views: 41
interestingness: 15 out of 40

photo: 6442398749 9893965746 7026
owner: 43749513@N08
title: Mr. Red Breast in the Elderberry tree.
originalsecret: ec02516e47
originalformat: jpg
o_height: 1445
o_width: 2066
datetaken: 2011-12-01 12:19:14
dateupload: 1322846667
tags: bird nature robin wildlife pennsylvaniawildlife
license: 0
latitude: 40.205448
longitude: -75.100067
accuracy: 11
views: 41
interestingness: 16 out of 40

photo: 6436266327 314e24df93 7004
owner: 10133503@N03
title: Costa Rican Icon
originalsecret: null
originalformat: null
o_height: null
o_width: null
datetaken: 2011-11-18 12:40:22
dateupload: 1323061325
tags: november bird animal costarica keelbilledtoucan ramphastossulfuratus 2011 fischertukan regenbogentukan rainbowbilledtoucan sulfurbreastedtoucan tuc?npicoiris
license: 0
latitude: 10.487811
longitude: -84.281616
accuracy: 9
views: 64
interestingness: 17 out of 40

photo: 6446227163 046c90c759 7162
owner: 94555075@N00
title: Baltimore Oriole male
originalsecret: 0a3a76a601
originalformat: jpg
o_height: 1024
o_width: 767
datetaken: 2011-12-03 08:34:34
dateupload: 1322913874
tags: newfoundland stlawrence baltimoreoriole
license: 0
latitude: 46.920504
longitude: -55.397078
accuracy: 15
views: 45
interestingness: 18 out of 40

photo: 6439680777 8df71b5421 7154
owner: 64464890@N07
title: Painted Stork (Mycteria leucocephala)
originalsecret: null
originalformat: null
o_height: null
o_width: null
datetaken: 2010-12-20 11:35:23
dateupload: 1322796918
tags: family pink red orange india white fish black color colour green bird birds yellow bill back big asia nest bright head eating stripes bare painted indian south tail flock lakes feathers large down rump ibis tip ghana rivers wetlands tropical waters gloss shallow southeast plains curved heavy sanctuary himalayas stork wading rajasthan waterbirds reddish bharatpur distinctive yellowish keoladeo mycteria leucocephala tertial downcurved urohidrosis
license: 0
latitude: 27.181508
longitude: 77.516784
accuracy: 11
views: 3
interestingness: 19 out of 40

photo: 6450012263 00b3efed4e 7143
owner: 31864021@N08
title: Hihi (male) - stitchbird - Notiomystis cincta
originalsecret: null
originalformat: null
o_height: null
o_width: null
datetaken: 2011-11-15 11:04:07
dateupload: 1322964741
tags: newzealand bird nature canon wildlife wellington karorisanctuary hihi notiomystiscincta zealandia stitchbird notiomystis
license: 0
latitude: -41.298009
longitude: 174.74398
accuracy: 16
views: 7
interestingness: 20 out of 40

photo: 6459091579 a9e6af7d0b 7014
owner: 72132612@N00
title: Chestnut-breasted Mannikin (Lonchura castaneothorax)
originalsecret: 020d402689
originalformat: jpg
o_height: 600
o_width: 600
datetaken: 2011-11-28 08:55:44
dateupload: 1323084818
tags: birds chestnutbreastedmannikin lonchuracastaneothorax borderfx lumixgvario100300f4056
license: 0
latitude: -13.746833
longitude: 129.587333
accuracy: 16
views: 26
interestingness: 21 out of 40

photo: 6433797235 28239b31ce 7030
owner: 25781684@N03
title: Red-breasted Merganser
originalsecret: null
originalformat: null
o_height: null
o_width: null
datetaken: 2011-11-30 20:11:43
dateupload: 1322702044
tags: november nature birds island duck marcus birding 20 migration merritt redbreasted merganser sharpe 2011
license: 0
latitude: 28.625886
longitude: -80.792884
accuracy: 14
views: 47
interestingness: 22 out of 40

photo: 6472907527 2aebf8d36e 7143
owner: 61657236@N04
title: Blue Tit In Afternoon Sun
originalsecret: c89ebcdaf5
originalformat: jpg
o_height: 1602
o_width: 2524
datetaken: 2011-12-07 13:28:53
dateupload: 1323284395
tags: sun tree nature robin canon wednesday garden lunch december goldfinch seed sigma sunny feeder sparrow birdsinflight redrobin housesparrow bluetit redpoll robinredbreast gardenbirds gardenwildlife 170500mm
license: 0
latitude: 54.450779
longitude: -6.339776
accuracy: 14
views: 19
interestingness: 23 out of 40

photo: 6440483857 71345574c9 7006
owner: 33245824@N08
title: Grey-Breasted Laughing thrush
originalsecret: 9f54fd85ff
originalformat: jpg
o_height: 722
o_width: 1058
datetaken: 2011-12-01 23:50:21
dateupload: 1322812221
tags: laughing grey nikon 300mm nikkor f4 thrush breasted ifed d7000 meghamalai
license: 0
latitude: 9.648307
longitude: 77.464599
accuracy: 11
views: 2
interestingness: 24 out of 40

photo: 6460209513 d4ae29ea4e 7025
owner: 46724204@N08
title: Red Breasted Merganser, Mergus serrator
originalsecret: 18351bb244
originalformat: jpg
o_height: 1748
o_width: 2231
datetaken: 2011-12-05 09:28:27
dateupload: 1323100125
tags: 
license: 0
latitude: 50.825728
longitude: -0.292682
accuracy: 16
views: 136
interestingness: 25 out of 40

photo: 6463683851 877e64c4de 7004
owner: 71565143@N00
title: Mom And Baby
originalsecret: 0f3a3af870
originalformat: jpg
o_height: 494
o_width: 800
datetaken: 2011-11-07 10:59:37
dateupload: 1323141438
tags: usa animal florida north manatee wakullasprings 2011 edwardballwakullaspringsstatepark
license: 0
latitude: 30.229408
longitude: -84.296722
accuracy: 9
views: 21
interestingness: 26 out of 40

photo: 6449289691 a6744fc001 7011
owner: 58301442@N04
title: Red Breasted Merganser
originalsecret: 9ef46dedb1
originalformat: jpg
o_height: 1614
o_width: 2421
datetaken: 2011-12-03 11:50:38
dateupload: 1322954644
tags: 
license: 0
latitude: 39.452398
longitude: -74.423532
accuracy: 13
views: 25
interestingness: 27 out of 40

photo: 6442500717 baa81c2dd3 7148
owner: 28632221@N05
title: Eastern Black Redstart (Phoenicurus ochruros semirufus)
originalsecret: fe396018f7
originalformat: jpg
o_height: 777
o_width: 1162
datetaken: 2011-11-26 14:17:43
dateupload: 1322848031
tags: cyprus paphos phoenicurusochruros blackredstart mandriabeach phoenicurusochrurossemirufus
license: 0
latitude: 34.710291
longitude: 32.514038
accuracy: 10
views: 52
interestingness: 28 out of 40

photo: 6435661143 cfc646648d 7027
owner: 69168989@N05
title: yes?
originalsecret: null
originalformat: null
o_height: null
o_width: null
datetaken: 2011-11-26 22:08:46
dateupload: 1322736701
tags: sexy stockings hair breasts teddy stripey bows neitie
license: 0
latitude: 53.481712
longitude: -2.238807
accuracy: 11
views: 238
interestingness: 29 out of 40

photo: 6435091715 1578c3462a 7034
owner: 73009531@N00
title: IkonVisuals1756
originalsecret: null
originalformat: null
o_height: null
o_width: null
datetaken: 2011-11-19 04:20:44
dateupload: 1322723136
tags: woman sexy girl beautiful flesh female mouth asian japanese spread model eyes chair breasts soft sitting legs skin chinese stomach lips sensual ring thigh hips waist sultry cleavage swimsuit lowkey seductive alluring gauntlet innerthigh onepieceswimsuit canon400d
license: 0
latitude: 1.45063
longitude: 103.814256
accuracy: 16
views: 538
interestingness: 30 out of 40

photo: 6464720313 e05f33da45 7163
owner: 73009531@N00
title: IkonVisuals1771
originalsecret: null
originalformat: null
o_height: null
o_width: null
datetaken: 2011-11-19 03:11:33
dateupload: 1323158233
tags: woman sexy girl beautiful flesh female standing mouth hair asian japanese model eyes breasts soft highheels dress legs skin wind chinese lips blow sensual hips waist thighs heels sultry transparent cleavage lowkey seductive alluring longlegs canon400d
license: 0
latitude: 1.450603
longitude: 103.814224
accuracy: 16
views: 740
interestingness: 31 out of 40

photo: 6454932669 cb37beb5f9 7028
owner: 18682643@N08
title: Degollado
originalsecret: null
originalformat: null
o_height: null
o_width: null
datetaken: 2011-12-04 07:16:39
dateupload: 1323031197
tags: colombia degollado calandria rosebreastedgrosbeak cundinamarca pheucticusludovicianus tabio cardinalidae cardinal?poitrinerose jebil? avesdelasabanadebogot? picogruesopechirrosado candelotricolor picogordopechorosa canonsx30is
license: 0
latitude: 4.923016
longitude: -74.095573
accuracy: 10
views: 29
interestingness: 32 out of 40

photo: 6440928899 876f64c957 7004
owner: 54157831@N05
title: Victoria Crowned Pigeon
originalsecret: null
originalformat: null
o_height: null
o_width: null
datetaken: 2009-11-13 15:37:22
dateupload: 1322823062
tags: blue red portrait bird eye nature birds animal zoo nikon dove pigeons feathers feather d60 victoriacrownedpigeon gouravictoria crownedpigeon nikond60 goura
license: 0
latitude: 49.384258
longitude: -84.756271
accuracy: 1
views: 31
interestingness: 33 out of 40

photo: 6470509965 ba16a6e649 7001
owner: 73009531@N00
title: IkonVisuals1776
originalsecret: null
originalformat: null
o_height: null
o_width: null
datetaken: 2011-10-29 00:01:24
dateupload: 1323245975
tags: portrait woman sexy girl beautiful animal tattoo flesh female dark asian model breasts skin fierce sensual sultry cleavage lowkey seductive crawl indonesian malay alluring catlike canon400d
license: 0
latitude: 1.45063
longitude: 103.814234
accuracy: 16
views: 177
interestingness: 34 out of 40

photo: 6469906727 b6c35344c0 7154
owner: 73009531@N00
title: IkonVisuals1774
originalsecret: null
originalformat: null
o_height: null
o_width: null
datetaken: 2011-11-19 03:28:50
dateupload: 1323233951
tags: woman sexy girl beautiful flesh female standing umbrella mouth hair asian japanese model eyes breasts soft highheels dress legs skin wind flash chinese lips blow sensual hips waist thighs heels sultry transparent cleavage lowkey seductive speedlight alluring longlegs slave illuminate canon400d
license: 0
latitude: 1.45063
longitude: 103.814256
accuracy: 16
views: 148
interestingness: 35 out of 40

photo: 6464364799 bec8780e4c 7150
owner: 73009531@N00
title: IkonVisuals1769
originalsecret: null
originalformat: null
o_height: null
o_width: null
datetaken: 2011-11-19 02:49:41
dateupload: 1323151557
tags: woman sexy girl beautiful leather flesh female mouth hair asian japanese intense model eyes breasts soft skin wind fierce chinese tshirt lips blow sensual ring hips waist sultry shorts cleavage lowkey seductive alluring gauntlet canon400d
license: 0
latitude: 1.450614
longitude: 103.814256
accuracy: 16
views: 176
interestingness: 36 out of 40

photo: 6463142669 7f53fc2c4e 7175
owner: 73009531@N00
title: IkonVisuals1767
originalsecret: null
originalformat: null
o_height: null
o_width: null
datetaken: 2011-11-19 04:42:24
dateupload: 1323134367
tags: woman sexy ass girl beautiful panties flesh female mouth asian japanese model eyes breasts soft highheels skin butt bra chinese lingerie bum lips sensual hips waist thong ribs sultry cleavage lowkey bellybutton navel seductive alluring reclined prone canon400d
license: 0
latitude: 1.450603
longitude: 103.814234
accuracy: 16
views: 412
interestingness: 37 out of 40

photo: 6440362773 f1c81a47cb 7149
owner: 73009531@N00
title: IkonVisuals1761
originalsecret: null
originalformat: null
o_height: null
o_width: null
datetaken: 2011-10-29 00:51:23
dateupload: 1322809558
tags: blue portrait woman sexy classic feet girl beautiful tattoo panties flesh female dark asian model breasts toes skin artistic lace lingerie sensual ribs barefeet sultry emotional cleavage satin lowkey bellybutton navel seductive indonesian malay alluring reclined canon400d
license: 0
latitude: 1.450598
longitude: 103.814245
accuracy: 16
views: 647
interestingness: 38 out of 40

photo: 6439948327 60292a2985 7007
owner: 73009531@N00
title: IkonVisuals1760
originalsecret: null
originalformat: null
o_height: null
o_width: null
datetaken: 2011-11-19 04:17:00
dateupload: 1322801326
tags: woman sexy girl beautiful flesh female mouth hair asian japanese model eyes breasts soft skin wind chinese lips blow sensual hips waist thighs sultry cleavage swimsuit lowkey seductive alluring onepieceswimsuit canon400d
license: 0
latitude: 1.450625
longitude: 103.814256
accuracy: 16
views: 851
interestingness: 39 out of 40

photo: 6439334829 c95418bda1 7033
owner: 73009531@N00
title: IkonVisuals1758
originalsecret: null
originalformat: null
o_height: null
o_width: null
datetaken: 2011-10-29 01:02:10
dateupload: 1322791032
tags: blue portrait woman sexy classic feet ass girl beautiful tattoo panties flesh female dark asian model breasts toes legs skin artistic lace butt lingerie bum sensual barefeet sultry emotional cleavage satin lowkey bellybutton navel seductive indonesian malay alluring reclined canon400d
license: 0
latitude: 1.450603
longitude: 103.814234
accuracy: 16
views: 559
interestingness: 40 out of 40

photo: 6472908447 7d0ac1ba21 7152
owner: 61657236@N04
title: Redpoll Arrival
originalsecret: c0caf6af9b
originalformat: jpg
o_height: 1126
o_width: 1744
datetaken: 2011-12-07 13:36:08
dateupload: 1323284407
tags: sun tree nature robin canon wednesday garden lunch december goldfinch seed sigma sunny feeder sparrow birdsinflight redrobin housesparrow bluetit redpoll robinredbreast gardenbirds gardenwildlife 170500mm
license: 0
latitude: 54.450842
longitude: -6.33969
accuracy: 14
views: 22
interestingness: 41 out of 40

photo: 6472553051 9ca2abef96 7172
owner: 8774105@N07
title: Lilac breasted roller...
originalsecret: null
originalformat: null
o_height: null
o_width: null
datetaken: 2011-05-19 15:23:48
dateupload: 1323279663
tags: lilac roller namibia breasted
license: 0
latitude: -19.048488
longitude: 16.476058
accuracy: 10
views: 3
interestingness: 42 out of 40

photo: 6471326313 84a5a9f709 7148
owner: 69796350@N08
title: Annie Stoner - sexy dress
originalsecret: d0bac9034d
originalformat: jpg
o_height: 1000
o_width: 762
datetaken: 2011-04-09 18:11:58
dateupload: 1323263068
tags: hot cute sexy girl breasts pretty erotic tits dress boobs tease elegant cleavage perky pokies braless anniestoner
license: 3
latitude: 31.987444
longitude: -80.8518
accuracy: 16
views: 251
interestingness: 43 out of 40

photo: 6469014637 60a3b7b888 7143
owner: 73009531@N00
title: IkonVisuals1772
originalsecret: null
originalformat: null
o_height: null
o_width: null
datetaken: 2011-11-19 03:12:37
dateupload: 1323220552
tags: woman sexy ass girl beautiful flesh female standing mouth hair asian japanese model eyes breasts soft dress legs skin wind butt chinese bum lips blow sensual ring hips waist thighs sultry transparent lowkey seductive alluring longlegs gauntlet canon400d
license: 0
latitude: 1.450619
longitude: 103.814256
accuracy: 16
views: 170
interestingness: 44 out of 40

photo: 6467913663 b06f5d5d3a 7029
owner: 77141600@N00
title: Superb Fairywren
originalsecret: 7629197a49
originalformat: jpg
o_height: 2130
o_width: 1426
datetaken: 2010-10-20 20:32:59
dateupload: 1323205671
tags: bird animal raw dinosaur reptile australia aves newsouthwales tetrapod animalia songbird vertebrate reptilia fairywren passeriformes theropoda dinosauria bluewren saurian chordate chordata superbfairywren maluruscyaneus perchingbird metazoa bilateria deuterostomia craniata vertebrata gnathostomata teleostomi osteichthyes sarcopterygii tetrapoda amniota romeriida diapsida archosauromorpha archosauria saurischia coelurosauria maniraptora euornithes neornithes sauria malurinae malurus superbbluewren eukaryote maluridae eukaryota neoaves passeri caperteevalley deuterostome neognathae meliphagoidea adultmalebird archosaur teleost amniote oscine craniate maluruscyaneuscyanochlamys corvida diapsid reptiliomorpha unikont opisthokont australasianwren malurini northeasternmainlandsuperbfairywren
license: 0
latitude: -33.034878
longitude: 150.154266
accuracy: 16
views: 29
interestingness: 45 out of 40

photo: 6463604527 320a5cb83b 7152
owner: 73009531@N00
title: IkonVisuals1768
originalsecret: null
originalformat: null
o_height: null
o_width: null
datetaken: 2011-11-19 02:49:24
dateupload: 1323140402
tags: woman sexy girl beautiful leather flesh female mouth hair asian japanese model eyes breasts soft skin wind chinese tshirt lips blow sensual hips waist thighs sultry shorts cleavage lowkey seductive alluring canon400d
license: 0
latitude: 1.450619
longitude: 103.814245
accuracy: 16
views: 185
interestingness: 46 out of 40

photo: 6460230367 5052950334 7025
owner: 46724204@N08
title: Red Breasted Merganser, Mergus serrator
originalsecret: 03b220817a
originalformat: jpg
o_height: 3456
o_width: 5184
datetaken: 2011-12-05 09:28:57
dateupload: 1323100368
tags: 
license: 0
latitude: 50.825186
longitude: -0.292682
accuracy: 16
views: 25
interestingness: 47 out of 40

photo: 6456543943 2e8945cc4b 7022
owner: 73009531@N00
title: IkonVisuals1762
originalsecret: null
originalformat: null
o_height: null
o_width: null
datetaken: 2011-10-29 00:32:28
dateupload: 1323047590
tags: portrait woman sexy feet ass girl beautiful tattoo flesh female dark asian model breasts toes sitting skin butt bum sensual mysterious barefeet sultry emotional cleavage lowkey seductive indonesian malay alluring canon400d
license: 0
latitude: 1.450619
longitude: 103.814245
accuracy: 16
views: 375
interestingness: 48 out of 40

photo: 6439653779 c342ba6b06 7168
owner: 73009531@N00
title: IkonVisuals1759
originalsecret: null
originalformat: null
o_height: null
o_width: null
datetaken: 2011-11-19 04:17:10
dateupload: 1322796505
tags: woman sexy girl beautiful flesh female mouth hair asian japanese model eyes breasts soft skin wind chinese lips blow sensual hips waist thighs sultry cleavage swimsuit lowkey seductive alluring onepieceswimsuit canon400d
license: 0
latitude: 1.450619
longitude: 103.814256
accuracy: 16
views: 631
interestingness: 49 out of 40

photo: 6435261121 dce5a128e5 7145
owner: 73009531@N00
title: IkonVisuals1757
originalsecret: null
originalformat: null
o_height: null
o_width: null
datetaken: 2011-11-19 04:20:12
dateupload: 1322727002
tags: woman sexy girl beautiful flesh female mouth asian japanese spread model eyes chair breasts soft sitting highheels legs skin chinese stomach lips sensual ring thigh hips waist sultry cleavage swimsuit lowkey seductive alluring longlegs gauntlet innerthigh onepieceswimsuit canon400d
license: 0
latitude: 1.450614
longitude: 103.814224
accuracy: 16
views: 585
interestingness: 50 out of 40

photo: 6434216239 20ee263ca4 7152
owner: 73009531@N00
title: IkonVisuals1754
originalsecret: null
originalformat: null
o_height: null
o_width: null
datetaken: 2011-11-19 04:39:06
dateupload: 1322708187
tags: woman sexy feet ass girl beautiful panties flesh female mouth asian japanese model eyes breasts highheels skin butt bra profile chinese lingerie bum lips sensual thong sultry cleavage lowkey seductive alluring squatting canon400d
license: 0
latitude: 1.45063
longitude: 103.814245
accuracy: 16
views: 401
interestingness: 51 out of 40

photo: 6463637329 0473b84637 7024
owner: 54183100@N00
title: jenny
originalsecret: 2c5f141559
originalformat: jpg
o_height: 960
o_width: 638
datetaken: 2011-11-25 15:46:27
dateupload: 1323140827
tags: woman toronto ontario canada hot sexy girl female model glamour breasts durham boobs blonde tanktop cleavage petite wifebeater sideboob jennykelly jennymiskelly
license: 0
latitude: 43.6594
longitude: -79.328483
accuracy: 15
views: 366
interestingness: 52 out of 40

photo: 6458525833 3dca4b97fd 7031
owner: 73009531@N00
title: IkonVisuals1766
originalsecret: null
originalformat: null
o_height: null
o_width: null
datetaken: 2011-11-19 04:29:05
dateupload: 1323073881
tags: woman sexy ass girl beautiful flesh female mouth asian japanese model eyes breasts soft legs skin butt chinese bum lips sensual hips waist sultry cleavage swimsuit lowkey seductive alluring longlegs reclined prone onepieceswimsuit canon400d
license: 0
latitude: 1.450598
longitude: 103.814234
accuracy: 16
views: 381
interestingness: 53 out of 40

photo: 6455625797 837ab2e4be 7018
owner: 94555075@N00
title: white-breasted nuthatch
originalsecret: 3671d7aa61
originalformat: jpg
o_height: 768
o_width: 1024
datetaken: 2011-12-04 19:01:19
dateupload: 1323037879
tags: canada newfoundland stlawrence whitebreastednuthatch
license: 0
latitude: 46.917375
longitude: -55.393838
accuracy: 15
views: 38
interestingness: 54 out of 40

photo: 6451695639 ae2a6b2b36 7008
owner: 25969014@N06
title: boobs :) st500
originalsecret: 03e041aa74
originalformat: jpg
o_height: 2736
o_width: 3648
datetaken: 2011-12-03 16:56:10
dateupload: 1322992998
tags: girl breasts jon boobs sydney olympus bikini telstra 500 v8 comp homebush supercars lightroom ovington 2011 e520 st500 httpjonovingtoncom chillettes
license: 1
latitude: -33.842136
longitude: 151.062397
accuracy: 15
views: 338
interestingness: 55 out of 40

photo: 6467316679 3787f6861a 7172
owner: 46848480@N00
title: Intermediate Egret
originalsecret: null
originalformat: null
o_height: null
o_width: null
datetaken: 2011-12-03 00:01:45
dateupload: 1323198388
tags: river islets cauvery intermediateegret migratorybirds birdparadise birdssanctuary ranganthittubirdsanctuary drsalimali avianbreedinggrounds riversidenestingsitesforbirds kaveriwildlife
license: 0
latitude: 12.423521
longitude: 76.703109
accuracy: 15
views: 8
interestingness: 56 out of 40

photo: 6457178107 1b38c401e6 7027
owner: 73009531@N00
title: IkonVisuals1763
originalsecret: null
originalformat: null
o_height: null
o_width: null
datetaken: 2011-10-29 00:30:53
dateupload: 1323054528
tags: portrait woman sexy feet girl beautiful tattoo flesh female dark asian model breasts toes sitting skin sensual mysterious barefeet sultry emotional cleavage lowkey seductive indonesian malay alluring canon400d
license: 0
latitude: 1.450614
longitude: 103.814256
accuracy: 16
views: 264
interestingness: 57 out of 40

photo: 6456658693 40afc7b278 7009
owner: 19787482@N04
title: Exterior reliefs on Dendera Mammisi, Egypt
originalsecret: 9276b93a83
originalformat: jpg
o_height: 1420
o_width: 2199
datetaken: 1984-10-10 10:16:35
dateupload: 1323048846
tags: roof archaeology temple breast feeding egypt egyptian pharaoh hathor dendera nectanebo mammisi romanbirthhouse
license: 0
latitude: 26.142945
longitude: 32.669821
accuracy: 16
views: 33
interestingness: 58 out of 40

photo: 6443603621 a803081afa 7174
owner: 58986565@N07
title: Steph, studio
originalsecret: 80f5ddc17e
originalformat: jpg
o_height: 1400
o_width: 933
datetaken: 2011-04-20 22:14:22
dateupload: 1322863411
tags: uk people artist unitedkingdom makeup steph april paisley bhatia 2011 muasteph ppsstudio photographerzulbhatia
license: 0
latitude: 55.84291
longitude: -4.419839
accuracy: 11
views: 86
interestingness: 59 out of 40

photo: 6475655559 f6ae890c1c 7022
owner: 73009531@N00
title: IkonVisuals1780
originalsecret: null
originalformat: null
o_height: null
o_width: null
datetaken: 2011-10-28 23:54:36
dateupload: 1323328375
tags: portrait woman sexy girl beautiful animal silhouette closeup flesh female asian back model eyes breasts nipple skin profile sensual sultry cleavage lowkey seductive indonesian malay alluring canon400d
license: 0
latitude: 1.450619
longitude: 103.814256
accuracy: 16
views: 150
interestingness: 60 out of 40

photo: 6475257869 b575bc3e26 7016
owner: 73009531@N00
title: IkonVisuals1779
originalsecret: null
originalformat: null
o_height: null
o_width: null
datetaken: 2011-10-29 00:50:50
dateupload: 1323320206
tags: blue portrait woman sexy classic feet girl beautiful tattoo panties flesh female dark asian model breasts toes skin artistic lace lingerie sensual ribs barefeet sultry emotional cleavage satin lowkey bellybutton navel seductive indonesian malay alluring reclined canon400d
license: 0
latitude: 1.450614
longitude: 103.814234
accuracy: 16
views: 174
interestingness: 61 out of 40

photo: 6469153333 e6709e2b7f 7001
owner: 10858261@N08
title: Keel Billed Toucan
originalsecret: null
originalformat: null
o_height: null
o_width: null
datetaken: 2011-11-16 09:05:50
dateupload: 1323222704
tags: canon toucan costarica sigma aves cr animalia keelbilledtoucan ramphastossulfuratus chordata ramphastos piciformes ramphastidae rainbowbilledtoucan sulfurbreastedtoucan 150500mmf563apodgos
license: 0
latitude: 10.463842
longitude: -84.709396
accuracy: 12
views: 11
interestingness: 62 out of 40

photo: 6464575675 343063fd9d 7159
owner: 73009531@N00
title: IkonVisuals1770
originalsecret: null
originalformat: null
o_height: null
o_width: null
datetaken: 2011-11-19 02:52:49
dateupload: 1323155331
tags: woman sexy girl beautiful leather flesh female mouth hair asian japanese spread intense model eyes breasts soft mood sitting legs skin wind fierce feminine chinese tshirt crotch lips blow sensual ring hips waist pensive sultry shorts cleavage delicate lowkey seductive alluring longlegs gauntlet spreadlegs innerthigh canon400d
license: 0
latitude: 1.45063
longitude: 103.814256
accuracy: 16
views: 177
interestingness: 63 out of 40

photo: 6463637183 fc93569038 7019
owner: 54183100@N00
title: jenny
originalsecret: a3f57ff6e9
originalformat: jpg
o_height: 960
o_width: 638
datetaken: 2011-11-25 15:46:16
dateupload: 1323140825
tags: woman toronto ontario canada hot sexy girl female model glamour breasts durham boobs blonde tanktop cleavage petite wifebeater sideboob jennykelly jennymiskelly
license: 0
latitude: 43.6594
longitude: -79.328483
accuracy: 15
views: 267
interestingness: 64 out of 40

photo: 6458231047 7fe2a61cc4 7160
owner: 73009531@N00
title: IkonVisuals1765
originalsecret: null
originalformat: null
o_height: null
o_width: null
datetaken: 2011-10-29 00:22:14
dateupload: 1323068397
tags: portrait woman sexy feet girl beautiful tattoo flesh female dark asian spread model breasts toes sitting skin fierce sensual mysterious barefeet sultry emotional cleavage lowkey seductive powerful indonesian malay alluring longlegs legsspread canon400d
license: 0
latitude: 1.450625
longitude: 103.814245
accuracy: 16
views: 216
interestingness: 65 out of 40

photo: 6456995935 b7f6609fa2 7167
owner: 43304956@N06
title: Sabi?-barranco
originalsecret: 9718c1cf18
originalformat: jpg
o_height: 937
o_width: 1400
datetaken: 2011-11-25 12:04:01
dateupload: 1323052555
tags: parque brazil bird animal brasil fauna birdie s?opaulo sony wing feather passarinho p?ssaro sp bosque ave abc alpha thrush ? a230 santoandr? passeridae palebreastedthrush turdusleucomelas sabi?branco sabi?pardo sabi?barranco sabi?decabe?acinza capoeir?o ?230 sabi?barranqueira pra?aant?niofl?quer sabi?fogueteiro
license: 0
latitude: -23.668227
longitude: -46.521842
accuracy: 15
views: 21
interestingness: 66 out of 40

photo: 6450015499 78e2484dd0 7147
owner: 31864021@N08
title: Hihi (male) - stitchbird - Notiomystis cincta
originalsecret: null
originalformat: null
o_height: null
o_width: null
datetaken: 2011-11-15 11:06:40
dateupload: 1322964796
tags: newzealand bird nature canon wildlife wellington karorisanctuary hihi notiomystiscincta zealandia stitchbird notiomystis
license: 0
latitude: -41.298009
longitude: 174.74398
accuracy: 16
views: 6
interestingness: 67 out of 40

photo: 6472905457 22961ac3c4 7030
owner: 61657236@N04
title: Redpoll In Flight ...
originalsecret: bd8889caf3
originalformat: jpg
o_height: 1539
o_width: 2463
datetaken: 2011-12-07 13:38:57
dateupload: 1323284367
tags: sun tree nature robin canon wednesday garden lunch december goldfinch seed sigma sunny feeder sparrow birdsinflight redrobin housesparrow bluetit redpoll robinredbreast gardenbirds gardenwildlife 170500mm
license: 0
latitude: 54.450742
longitude: -6.339733
accuracy: 14
views: 11
interestingness: 68 out of 40

photo: 6463637493 e0f5013ca8 7030
owner: 54183100@N00
title: jenny
originalsecret: 95332df57d
originalformat: jpg
o_height: 960
o_width: 638
datetaken: 2011-11-25 15:46:39
dateupload: 1323140829
tags: woman toronto ontario canada hot sexy girl female model glamour breasts durham boobs blonde tanktop cleavage petite wifebeater sideboob jennykelly jennymiskelly
license: 0
latitude: 43.6594
longitude: -79.328483
accuracy: 15
views: 219
interestingness: 69 out of 40

photo: 6460924689 46ee81f4a0 7013
owner: 30979614@N07
title: 2011-12-03 Third Lake 2
originalsecret: 7a578c0273
originalformat: jpg
o_height: 2140
o_width: 1712
datetaken: 2011-12-03 13:24:02
dateupload: 1323107933
tags: nikon nikkor whitebreastednuthatch vr d3 sittacarolinensis 600mm nikond3 afsnikkor600mmf4gedvr 600mmf4gvr afsteleconvertertc14eii afsnikkor600mmf4ged
license: 3
latitude: 42.370307
longitude: -88.01465
accuracy: 14
views: 54
interestingness: 70 out of 40

photo: 6435666341 023f5801a5 7004
owner: 69168989@N05
title: corner time
originalsecret: null
originalformat: null
o_height: null
o_width: null
datetaken: 2011-11-26 22:04:01
dateupload: 1322736806
tags: sexy stockings hair breasts teddy stripey bows neitie
license: 0
latitude: 53.462094
longitude: -2.210998
accuracy: 11
views: 127
interestingness: 71 out of 40

photo: 6467956773 d8a3090893 7141
owner: 70657725@N05
title: Robin red breast.
originalsecret: null
originalformat: null
o_height: null
o_width: null
datetaken: 2011-07-29 13:53:59
dateupload: 1323206177
tags: nature birds animals naturalworld
license: 0
latitude: 50.264595
longitude: -5.004032
accuracy: 13
views: 6
interestingness: 72 out of 40

photo: 6449518197 a6dda65e52 7144
owner: 11984823@N02
title: 337/365 03/11/2011
originalsecret: null
originalformat: null
o_height: null
o_width: null
datetaken: 2011-12-03 20:10:09
dateupload: 1322957771
tags: water pool swimming suisse oerlikon hallenbad 2011 photo365
license: 0
latitude: 47.410214
longitude: 8.55556
accuracy: 15
views: 7
interestingness: 73 out of 40

photo: 6472900673 132195b2d6 7012
owner: 61657236@N04
title: Rare Visit From Mr Robin
originalsecret: 5f26f16f9d
originalformat: jpg
o_height: 1122
o_width: 1095
datetaken: 2011-12-07 14:36:57
dateupload: 1323284306
tags: sun tree nature robin canon wednesday garden lunch december goldfinch seed sigma sunny feeder sparrow birdsinflight redrobin housesparrow bluetit redpoll robinredbreast gardenbirds gardenwildlife 170500mm
license: 0
latitude: 54.450842
longitude: -6.33969
accuracy: 14
views: 4
interestingness: 74 out of 40

photo: 6460218375 eb82c8e490 7161
owner: 46724204@N08
title: Red Breasted Merganser, Mergus serrator
originalsecret: aff9c0b88c
originalformat: jpg
o_height: 1757
o_width: 2357
datetaken: 2011-12-05 09:26:17
dateupload: 1323100229
tags: 
license: 0
latitude: 50.825294
longitude: -0.293712
accuracy: 16
views: 28
interestingness: 75 out of 40

photo: 6449179503 52480ec22c 7004
owner: 63155554@N02
title: AFSSAPS DES report 2011 in English Page 09
originalsecret: null
originalformat: null
o_height: null
o_width: null
datetaken: 2011-12-03 22:59:01
dateupload: 1322953141
tags: afssaps diethylstilboestrol distilbene
license: 1
latitude: 48.856918
longitude: 2.341209
accuracy: 11
views: 27
interestingness: 76 out of 40

photo: 6435634933 9095bccb7f 7169
owner: 69168989@N05
title: seductively
originalsecret: null
originalformat: null
o_height: null
o_width: null
datetaken: 2011-11-26 21:21:59
dateupload: 1322736130
tags: sexy stockings hair breasts teddy stripey bows neitie
license: 0
latitude: 53.468737
longitude: -2.221298
accuracy: 11
views: 89
interestingness: 77 out of 40

photo: 6452018191 aef1e3f26d 7035
owner: 24201429@N04
title: Colaptes punctigula - SPOT-BREASTED WOODPECKER
originalsecret: null
originalformat: null
o_height: null
o_width: null
datetaken: 2011-12-01 16:27:02
dateupload: 1322998741
tags: picidae spotbreastedwoodpecker colaptespunctigula
license: 0
latitude: 5.853742
longitude: -74.71527
accuracy: 9
views: 26
interestingness: 78 out of 40

photo: 6449179301 fcd19926dd 7012
owner: 63155554@N02
title: AFSSAPS DES report 2011 in English Page 08
originalsecret: null
originalformat: null
o_height: null
o_width: null
datetaken: 2011-12-03 22:58:58
dateupload: 1322953138
tags: afssaps diethylstilboestrol distilbene
license: 1
latitude: 48.856918
longitude: 2.341209
accuracy: 11
views: 26
interestingness: 79 out of 40

photo: 6449179153 169b63a8eb 7024
owner: 63155554@N02
title: AFSSAPS DES report 2011 in English Page 07
originalsecret: null
originalformat: null
o_height: null
o_width: null
datetaken: 2011-12-03 22:58:55
dateupload: 1322953135
tags: afssaps diethylstilboestrol distilbene
license: 1
latitude: 48.856918
longitude: 2.341209
accuracy: 11
views: 31
interestingness: 80 out of 40

photo: 6449178881 0c30295dde 7158
owner: 63155554@N02
title: AFSSAPS DES report 2011 in English Page 06
originalsecret: null
originalformat: null
o_height: null
o_width: null
datetaken: 2011-12-03 22:58:51
dateupload: 1322953131
tags: afssaps diethylstilboestrol distilbene
license: 1
latitude: 48.856918
longitude: 2.341209
accuracy: 11
views: 29
interestingness: 81 out of 40

photo: 6435644171 471337af05 7015
owner: 69168989@N05
title: i like my stripey tights
originalsecret: null
originalformat: null
o_height: null
o_width: null
datetaken: 2011-11-26 22:17:29
dateupload: 1322736346
tags: sexy stockings hair breasts teddy stripey bows neitie
license: 0
latitude: 53.470985
longitude: -2.231941
accuracy: 11
views: 317
interestingness: 82 out of 40

photo: 6474860679 632ed2ded7 7170
owner: 73009531@N00
title: IkonVisuals1778
originalsecret: null
originalformat: null
o_height: null
o_width: null
datetaken: 2011-10-29 00:22:31
dateupload: 1323313669
tags: portrait woman sexy feet girl beautiful tattoo flesh female dark asian spread model breasts toes sitting skin fierce sensual mysterious barefeet sultry emotional cleavage lowkey seductive powerful indonesian malay alluring longlegs legsspread canon400d
license: 0
latitude: 1.450641
longitude: 103.814245
accuracy: 16
views: 107
interestingness: 83 out of 40

photo: 6472901973 1df11d02cd 7023
owner: 61657236@N04
title: Goldfinch In Flight
originalsecret: 39c15599a1
originalformat: jpg
o_height: 807
o_width: 1216
datetaken: 2011-12-07 13:34:17
dateupload: 1323284324
tags: sun tree nature robin canon wednesday garden lunch december goldfinch seed sigma sunny feeder sparrow birdsinflight redrobin housesparrow bluetit redpoll robinredbreast gardenbirds gardenwildlife 170500mm
license: 0
latitude: 54.450792
longitude: -6.33969
accuracy: 14
views: 6
interestingness: 84 out of 40

photo: 6470550683 02a608df9d 7034
owner: 18353215@N00
title: Red-breasted Sapsucker
originalsecret: c099e14d89
originalformat: jpg
o_height: 400
o_width: 600
datetaken: 2011-12-07 01:34:29
dateupload: 1323246869
tags: woodpecker birding birder rarity
license: 0
latitude: 31.733432
longitude: -110.882489
accuracy: 16
views: 257
interestingness: 85 out of 40

photo: 6462977301 64532a2638 7150
owner: 24821334@N08
title: 
originalsecret: null
originalformat: null
o_height: null
o_width: null
datetaken: 2011-04-21 16:33:41
dateupload: 1323132089
tags: portrait people woman hot color sexy art feet girl beautiful beauty face look sex female fetish dark hair naked nude donna bed glamour breasts nudes pretty erotic breast chica boobs nu gene femme butt pussy erotica bum sensual fantasy corps porn poppy doggy brunette frau sensuality evie wanton desnudo darkhair lewd voluptuous carnal sensuous fleshly lascivious ?ass incontinent lustful libidinous brutish concupiscent unreserved hole? boarish amative goatish lubricous
license: 0
latitude: -23.025
longitude: -43.204593
accuracy: 13
views: 277
interestingness: 86 out of 40

photo: 6457328817 b81637b680 7013
owner: 46848480@N00
title: Stone Plover
originalsecret: null
originalformat: null
o_height: null
o_width: null
datetaken: 2011-12-03 00:00:02
dateupload: 1323056144
tags: birds wildlife migratory kaveri sanctuary islets cauvery birdparadise stoneplover ranganthittubirdsanctuary drsalimali avianbreedinggrounds riversidenestingsitesforbirds
license: 0
latitude: 12.424171
longitude: 76.701403
accuracy: 16
views: 20
interestingness: 87 out of 40

photo: 6471935319 a5c7968e44 7163
owner: 8517706@N07
title: Lady Gaga's Car
originalsecret: null
originalformat: null
o_height: null
o_width: null
datetaken: 2011-12-02 14:26:52
dateupload: 1323271959
tags: pink texas houston camaro licenseplate chevy musclecar gaga ladygaga jeffardy
license: 0
latitude: 29.784929
longitude: -95.688439
accuracy: 15
views: 7
interestingness: 88 out of 40

photo: 6471611751 966e3d17a3 7163
owner: 46848480@N00
title: Stone Plover keeping a wary eye on the Marsh Crocodile
originalsecret: null
originalformat: null
o_height: null
o_width: null
datetaken: 2011-12-07 19:46:59
dateupload: 1323267419
tags: islets mugger migratorybirds marshcrocodile birdparadise stoneplover cauveryriver birdssanctuary ranganthittubirdsanctuary drsalimali avianbreedinggrounds riversidenestingsitesforbirds kaveriwildlife
license: 0
latitude: 12.423815
longitude: 76.703474
accuracy: 15
views: 8
interestingness: 89 out of 40

photo: 6469155461 51dac94946 7023
owner: 10858261@N08
title: Keel Billed Toucan
originalsecret: null
originalformat: null
o_height: null
o_width: null
datetaken: 2011-11-16 09:06:20
dateupload: 1323222739
tags: canon toucan costarica sigma aves cr animalia keelbilledtoucan ramphastossulfuratus chordata ramphastos piciformes ramphastidae rainbowbilledtoucan sulfurbreastedtoucan 150500mmf563apodgos
license: 0
latitude: 10.463842
longitude: -84.709396
accuracy: 12
views: 22
interestingness: 90 out of 40

photo: 6467315219 a78f228c68 7145
owner: 46848480@N00
title: Intermediate Egret
originalsecret: null
originalformat: null
o_height: null
o_width: null
datetaken: 2011-12-03 00:01:44
dateupload: 1323198370
tags: river islets cauvery intermediateegret migratorybirds birdparadise birdssanctuary ranganthittubirdsanctuary drsalimali avianbreedinggrounds riversidenestingsitesforbirds kaveriwildlife
license: 0
latitude: 12.423521
longitude: 76.703109
accuracy: 15
views: 1
interestingness: 91 out of 40

photo: 6467313731 58732ffb3a 7018
owner: 46848480@N00
title: Stone Plovers
originalsecret: null
originalformat: null
o_height: null
o_width: null
datetaken: 2011-12-03 00:01:43
dateupload: 1323198351
tags: river islets cauvery migratorybirds birdparadise stoneplover birdssanctuary ranganthittubirdsanctuary drsalimali avianbreedinggrounds riversidenestingsitesforbirds kaveriwildlife
license: 0
latitude: 12.423521
longitude: 76.703109
accuracy: 15
views: 2
interestingness: 92 out of 40

photo: 6467304691 72bd9350e4 7172
owner: 46848480@N00
title: River Tern
originalsecret: null
originalformat: null
o_height: null
o_width: null
datetaken: 2011-12-03 00:01:40
dateupload: 1323198240
tags: river islets rivertern cauvery migratorybirds birdparadise birdssanctuary ranganthittubirdsanctuary drsalimali avianbreedinggrounds riversidenestingsitesforbirds kaveriwildlife
license: 0
latitude: 12.423521
longitude: 76.703109
accuracy: 15
views: 2
interestingness: 93 out of 40

photo: 6467301659 358005d066 7026
owner: 46848480@N00
title: River Tern
originalsecret: null
originalformat: null
o_height: null
o_width: null
datetaken: 2011-12-03 00:01:38
dateupload: 1323198202
tags: river islets rivertern cauvery migratorybirds birdparadise birdssanctuary ranganthittubirdsanctuary drsalimali avianbreedinggrounds riversidenestingsitesforbirds kaveriwildlife
license: 0
latitude: 12.423521
longitude: 76.703109
accuracy: 15
views: 3
interestingness: 94 out of 40

photo: 6467296035 0652a83088 7002
owner: 46848480@N00
title: River Terns
originalsecret: null
originalformat: null
o_height: null
o_width: null
datetaken: 2011-12-03 00:01:35
dateupload: 1323198140
tags: river islets cauvery migratorybirds birdparadise birdssanctuary ranganthittubirdsanctuary drsalimali avianbreedinggrounds riversidenestingsitesforbirds kaveriwildlife
license: 0
latitude: 12.423521
longitude: 76.703109
accuracy: 15
views: 1
interestingness: 95 out of 40

photo: 6467294519 021c76cb9f 7142
owner: 46848480@N00
title: River Terns
originalsecret: null
originalformat: null
o_height: null
o_width: null
datetaken: 2011-12-03 00:01:34
dateupload: 1323198122
tags: river islets cauvery migratorybirds birdparadise birdssanctuary ranganthittubirdsanctuary drsalimali avianbreedinggrounds riversidenestingsitesforbirds kaveriwildlife
license: 0
latitude: 12.423521
longitude: 76.703109
accuracy: 15
views: 1
interestingness: 96 out of 40

photo: 6467290823 d67f6e7b57 7028
owner: 46848480@N00
title: River Terns
originalsecret: null
originalformat: null
o_height: null
o_width: null
datetaken: 2011-12-03 00:01:31
dateupload: 1323198079
tags: river islets cauvery migratorybirds birdparadise birdssanctuary ranganthittubirdsanctuary riverterns drsalimali avianbreedinggrounds riversidenestingsitesforbirds kaveriwildlife
license: 0
latitude: 12.423521
longitude: 76.703109
accuracy: 15
views: 1
interestingness: 97 out of 40

photo: 6467289679 695de4af6e 7013
owner: 46848480@N00
title: Intermediate Egret and Black Headed Ibis
originalsecret: null
originalformat: null
o_height: null
o_width: null
datetaken: 2011-12-03 00:01:30
dateupload: 1323198065
tags: river blackheadedibis islets cauvery intermediateegret migratorybirds birdparadise birdssanctuary ranganthittubirdsanctuary drsalimali avianbreedinggrounds riversidenestingsitesforbirds kaveriwildlife
license: 0
latitude: 12.423521
longitude: 76.703109
accuracy: 15
views: 2
interestingness: 98 out of 40

photo: 6467288347 296a29645d 7025
owner: 46848480@N00
title: Intermediate Egret
originalsecret: null
originalformat: null
o_height: null
o_width: null
datetaken: 2011-12-03 00:01:29
dateupload: 1323198047
tags: river islets cauvery intermediateegret migratorybirds birdparadise birdssanctuary ranganthittubirdsanctuary drsalimali avianbreedinggrounds riversidenestingsitesforbirds kaveriwildlife
license: 0
latitude: 12.423521
longitude: 76.703109
accuracy: 15
views: 1
interestingness: 99 out of 40

photo: 6467284709 ce8fb6070d 7172
owner: 46848480@N00
title: Black Headed Ibis & Stone Plover & the Indian Pond Heron
originalsecret: null
originalformat: null
o_height: null
o_width: null
datetaken: 2011-12-03 00:01:27
dateupload: 1323198005
tags: river blackheadedibis islets indianpondheron cauvery migratorybirds birdparadise stoneplover birdssanctuary ranganthittubirdsanctuary drsalimali avianbreedinggrounds riversidenestingsitesforbirds kaveriwildlife
license: 0
latitude: 12.423521
longitude: 76.703109
accuracy: 15
views: 1
interestingness: 100 out of 40

photo: 6467280181 24ac33a3a3 7008
owner: 46848480@N00
title: Pied Kingfisher
originalsecret: null
originalformat: null
o_height: null
o_width: null
datetaken: 2011-12-03 00:01:24
dateupload: 1323197950
tags: river islets piedkingfisher cauvery migratorybirds birdparadise birdssanctuary ranganthittubirdsanctuary drsalimali avianbreedinggrounds riversidenestingsitesforbirds kaveriwildlife
license: 0
latitude: 12.423521
longitude: 76.703109
accuracy: 15
views: 3
interestingness: 101 out of 40

photo: 6460763899 0eddb82736 7032
owner: 36686551@N06
title: North Charleston Christmas Festival and Parade
originalsecret: 004a242de2
originalformat: jpg
o_height: 3456
o_width: 5184
datetaken: 2011-12-03 18:39:50
dateupload: 1323106152
tags: christmas festival night women cancer parade breastcancer survivors susangkomen pinkfiretruck
license: 5
latitude: 32.881136
longitude: -79.992828
accuracy: 14
views: 59
interestingness: 102 out of 40

photo: 6460663385 e52e9ba38a 7175
owner: 30844143@N02
title: Duck for Dinner!
originalsecret: 6331e74eaf
originalformat: jpg
o_height: 1679
o_width: 2350
datetaken: 2011-11-27 20:48:56
dateupload: 1323105034
tags: dinner mushrooms duck shallots fooddrink november2011 cringletiehousehotelnovember2011
license: 0
latitude: 55.663256
longitude: -3.201141
accuracy: 9
views: 3
interestingness: 103 out of 40

photo: 6460558533 db4dec6fa7 7144
owner: 73105116@N00
title: Pork and Gorgonzola-stuffed Chicken Breasts With Polenta With Tomatoes, Basil, and Cheese and Saut?ed Asparagus and Parmesan Cheese
originalsecret: null
originalformat: null
o_height: null
o_width: null
datetaken: 2011-12-04 18:38:58
dateupload: 1323103868
tags: cameraphone california chicken dinner yum pork longbeach asparagus imadethis eats polenta iatethis gorgonzola iphone cookinglight longbeachcalifornia darrenshannon heathershannon december42011
license: 0
latitude: 33.771
longitude: -118.196667
accuracy: 16
views: 7
interestingness: 104 out of 40

photo: 6459081759 0fda0b3e4b 7002
owner: 46848480@N00
title: A Night Heron on the left and a Pond Heron preening on the right
originalsecret: null
originalformat: null
o_height: null
o_width: null
datetaken: 2011-12-03 00:00:27
dateupload: 1323084640
tags: river islets nightheron indianpondheron cauvery migratorybirds birdparadise birdssanctuary ranganthittubirdsanctuary drsalimali avianbreedinggrounds riversidenestingsitesforbirds kaveriwildlife
license: 0
latitude: 12.423637
longitude: 76.704
accuracy: 16
views: 3
interestingness: 105 out of 40

photo: 6458518437 31f19bf7f2 7034
owner: 46848480@N00
title: Painted Stork me thinks...
originalsecret: null
originalformat: null
o_height: null
o_width: null
datetaken: 2011-12-03 00:00:15
dateupload: 1323073745
tags: birds fauna wildlife artificial vegetation kaveri riverbanks islets branchingout ranganathittubirdsanctuary migratorybirds birdparadise cauveryriver storkflying drsalimali avianbreedinggrounds riversidenestingsitesforbirds treesandtheirroots vegetationalongthebanks isletspainted
license: 0
latitude: 12.424234
longitude: 76.70165
accuracy: 16
views: 8
interestingness: 106 out of 40

photo: 6457324917 78d99f2a50 7150
owner: 46848480@N00
title: River Tern
originalsecret: null
originalformat: null
o_height: null
o_width: null
datetaken: 2011-12-03 00:00:01
dateupload: 1323056103
tags: birds wildlife migratory kaveri sanctuary islets rivertern cauvery ranganathittubirdsanctuary birdparadise drsalimali avianbreedinggrounds riversidenestingsitesforbirds
license: 0
latitude: 12.423935
longitude: 76.702508
accuracy: 16
views: 22
interestingness: 107 out of 40

photo: 6454330343 e4061f678e 7167
owner: 71266843@N03
title: May's Garden Restaurant, Ottawa - Kung Pao Chicken
originalsecret: null
originalformat: null
o_height: null
o_width: null
datetaken: 2011-02-01 22:06:05
dateupload: 1323025352
tags: vacation food chicken garden restaurant chinatown ottawa kung pao mays gongbaojiding ????
license: 5
latitude: 45.408466
longitude: -75.714241
accuracy: 16
views: 1
interestingness: 108 out of 40

photo: 6453705517 bd983edc4e 7148
owner: 44376186@N06
title: 
originalsecret: null
originalformat: null
o_height: null
o_width: null
datetaken: 2011-12-03 08:25:45
dateupload: 1323018979
tags: nature birds animals wildlife natureza aves jardimbotanico animais palebreastedthrush turdusleucomelas iso2000 wildlifesouthamerica sabi?barranco nikkorafs70300mmf4556gifedvr nikond7000
license: 0
latitude: -22.96676
longitude: -43.221234
accuracy: 16
views: 6
interestingness: 109 out of 40

photo: 6452718267 8d8d71ee0c 7173
owner: 56467770@N03
title: Sitta europaea
originalsecret: null
originalformat: null
o_height: null
o_width: null
datetaken: 2011-12-03 12:01:18
dateupload: 1323008403
tags: wood autumn red wild orange white black detail tree green bird nature beautiful animal closeup fauna woodland garden grey fly bill colorful europe european branch close background wildlife small watching profile birding gray wing beak feather eat tiny perched nuthatch landed isolated avian songbird plumage perching europaea breasted sitta
license: 0
latitude: 42.676377
longitude: 23.362426
accuracy: 7
views: 19
interestingness: 110 out of 40

photo: 6449179643 eeca4a2d46 7158
owner: 63155554@N02
title: AFSSAPS DES report 2011 in English Page 10
originalsecret: null
originalformat: null
o_height: null
o_width: null
datetaken: 2011-12-03 22:59:03
dateupload: 1322953143
tags: afssaps diethylstilboestrol distilbene
license: 1
latitude: 48.856918
longitude: 2.341209
accuracy: 11
views: 27
interestingness: 111 out of 40

photo: 6472903679 5488139897 7172
owner: 61657236@N04
title: Redpoll In Flight
originalsecret: 7f0066e4a6
originalformat: jpg
o_height: 1174
o_width: 1752
datetaken: 2011-12-07 13:35:22
dateupload: 1323284346
tags: sun tree nature robin canon wednesday garden lunch december goldfinch seed sigma sunny feeder sparrow birdsinflight redrobin housesparrow bluetit redpoll robinredbreast gardenbirds gardenwildlife 170500mm
license: 0
latitude: 54.450804
longitude: -6.339733
accuracy: 14
views: 3
interestingness: 112 out of 40

photo: 6469380663 94d1ee9558 7152
owner: 67745415@N06
title: Brown-breasted Flycatcher
originalsecret: null
originalformat: null
o_height: null
o_width: null
datetaken: 2011-12-06 22:56:15
dateupload: 1323226141
tags: birds
license: 0
latitude: 22.433526
longitude: 88.400673
accuracy: 16
views: 26
interestingness: 113 out of 40

photo: 4896769719 e0282b7f38 4098
owner: 74113208@N00
title: Lewd Black Scream (Munch on this)
originalsecret: null
originalformat: null
o_height: null
o_width: null
datetaken: 2010-08-15 21:20:58
dateupload: 1323253359
tags: woman canada black sexy island actionfigure newspaper media doll breast bc britishcolumbia butt barbie victoria lord bum business vancouverisland bikini madness cameron jail scream edvard brucedean professionalrecreationalist convict munch conrad con prisoner crook pussies diaz jobless excon camerondiaz conradblack financialpost clubfed lordblack sidebreast
license: 0
latitude: 24.562112
longitude: -81.752014
accuracy: 9
views: 760
interestingness: 114 out of 40

photo: 6463637041 63ca03f71a 7173
owner: 54183100@N00
title: jenny
originalsecret: 00b717d0b8
originalformat: jpg
o_height: 960
o_width: 638
datetaken: 2011-11-25 15:42:04
dateupload: 1323140824
tags: woman toronto ontario canada hot sexy girl female model glamour breasts durham boobs blonde tanktop cleavage petite wifebeater sideboob jennykelly jennymiskelly
license: 0
latitude: 43.6594
longitude: -79.328483
accuracy: 15
views: 133
interestingness: 115 out of 40

photo: 6459780285 26d9ca817e 7022
owner: 45302763@N07
title: P8029762
originalsecret: null
originalformat: null
o_height: null
o_width: null
datetaken: 2011-08-02 07:45:53
dateupload: 1323095123
tags: bali aout ubud 2011 r?le?poitrineblanche
license: 0
latitude: -8.501739
longitude: 115.25201
accuracy: 16
views: 5
interestingness: 116 out of 40

photo: 6442199913 0ce467a9a2 7002
owner: 33734254@N03
title: Humboldts Penguin
originalsecret: null
originalformat: null
o_height: null
o_width: null
datetaken: 2011-12-02 16:40:21
dateupload: 1322844021
tags: england bw bird zoo penguin cornwall newquay humboldts
license: 0
latitude: 50.420222
longitude: -5.07225
accuracy: 11
views: 11
interestingness: 117 out of 40

photo: 6435663729 6c6c8ec317 7030
owner: 69168989@N05
title: my teddy
originalsecret: null
originalformat: null
o_height: null
o_width: null
datetaken: 2011-11-26 22:06:49
dateupload: 1322736754
tags: sexy stockings hair breasts teddy stripey bows neitie
license: 0
latitude: 53.463832
longitude: -2.217178
accuracy: 11
views: 50
interestingness: 118 out of 40

photo: 6435651019 5e4706e204 7001
owner: 69168989@N05
title: hello :)
originalsecret: null
originalformat: null
o_height: null
o_width: null
datetaken: 2011-11-26 22:03:00
dateupload: 1322736490
tags: sexy stockings hair breasts teddy stripey bows neitie
license: 0
latitude: 53.472313
longitude: -2.228851
accuracy: 11
views: 80
interestingness: 119 out of 40

photo: 6472900045 04b872444c 7027
owner: 61657236@N04
title: Redpolls
originalsecret: 7fedfcf813
originalformat: jpg
o_height: 1362
o_width: 2159
datetaken: 2011-12-07 13:34:16
dateupload: 1323284297
tags: sun tree nature robin canon wednesday garden lunch december goldfinch seed sigma sunny feeder sparrow birdsinflight redrobin housesparrow bluetit redpoll robinredbreast gardenbirds gardenwildlife 170500mm
license: 0
latitude: 54.450854
longitude: -6.339647
accuracy: 14
views: 3
interestingness: 120 out of 40

photo: 6468600487 cee917ecc7 7144
owner: 34056078@N08
title: red breasted nuthatch
originalsecret: null
originalformat: null
o_height: null
o_width: null
datetaken: 2011-12-06 01:55:28
dateupload: 1323214340
tags: 
license: 0
latitude: 61.200509
longitude: -149.839825
accuracy: 14
views: 5
interestingness: 121 out of 40

photo: 6462820921 d4645c06b2 7164
owner: 49503134679@N01
title: 365 Day 259
originalsecret: e0ce87bb33
originalformat: png
o_height: 2592
o_width: 2592
datetaken: 2011-12-05 18:07:16
dateupload: 1323130036
tags: food chicken cheese club bacon sandwich panini
license: 4
latitude: 32.706149
longitude: -96.99147
accuracy: 16
views: 18
interestingness: 122 out of 40

photo: 6456577209 c183c10cc7 7150
owner: 61396634@N07
title: Red-breasted Merganser
originalsecret: 2cb311d120
originalformat: jpg
o_height: 2811
o_width: 4216
datetaken: 2011-12-04 09:17:36
dateupload: 1323047941
tags: bird animal duck merganser redbreastedmerganser mergusserrator chamberscreekproperties
license: 0
latitude: 47.206617
longitude: -122.581533
accuracy: 16
views: 3
interestingness: 123 out of 40

photo: 6455385391 8413c389df 7011
owner: 11981131@N03
title: fried chicken breast at roscoe's
originalsecret: c6581d78fc
originalformat: jpg
o_height: 1500
o_width: 3604
datetaken: 2011-09-01 00:00:00
dateupload: 1323035561
tags: losangeles longbeach friedchicken chickenandwaffles roscoes soulfood southernfood
license: 2
latitude: 33.769019
longitude: -118.182992
accuracy: 16
views: 4
interestingness: 124 out of 40

photo: 6452365571 b5a4e44646 7163
owner: 42159530@N04
title: Munia
originalsecret: null
originalformat: null
o_height: null
o_width: null
datetaken: 2011-12-02 02:38:30
dateupload: 1323003879
tags: birds wildlife taiwan kaohsiung scalybreastedmunia lonchurapunctulata tokina100300f4
license: 0
latitude: 22.733677
longitude: 120.316171
accuracy: 13
views: 6
interestingness: 125 out of 40

photo: 6435641407 3e6d8aa5e8 7013
owner: 69168989@N05
title: im sorry
originalsecret: null
originalformat: null
o_height: null
o_width: null
datetaken: 2011-11-26 22:14:05
dateupload: 1322736283
tags: sexy stockings hair breasts teddy stripey bows neitie
license: 0
latitude: 53.470269
longitude: -2.228507
accuracy: 11
views: 95
interestingness: 126 out of 40

photo: 6474406423 b74b592e7e 7025
owner: 73009531@N00
title: IkonVisuals1777
originalsecret: null
originalformat: null
o_height: null
o_width: null
datetaken: 2011-10-29 00:02:14
dateupload: 1323306172
tags: portrait woman sexy girl beautiful animal closeup flesh female asian necklace model eyes breasts skin sensual sultry cleavage lowkey seductive indonesian malay alluring canon400d
license: 0
latitude: 1.450625
longitude: 103.814234
accuracy: 16
views: 69
interestingness: 127 out of 40

photo: 6460234265 e1f1fc83f4 7157
owner: 46724204@N08
title: Red Breasted Merganser, Mergus serrator
originalsecret: 385de5d90c
originalformat: jpg
o_height: 1676
o_width: 2438
datetaken: 2011-12-05 09:32:48
dateupload: 1323100411
tags: 
license: 0
latitude: 50.825565
longitude: -0.293197
accuracy: 16
views: 22
interestingness: 128 out of 40

photo: 6451035459 bb55006814 7149
owner: 39720052@N02
title: Tag teaming for cancer
originalsecret: null
originalformat: null
o_height: null
o_width: null
datetaken: 2011-11-20 14:02:10
dateupload: 1322980428
tags: denver breastcancer donations denvercolorado panhandling 16thstmall
license: 0
latitude: 39.744649
longitude: -104.991381
accuracy: 15
views: 3
interestingness: 129 out of 40

photo: 6472901427 c8a83f30c4 7016
owner: 61657236@N04
title: House Sparrow And Lunch
originalsecret: 05b40b1938
originalformat: jpg
o_height: 998
o_width: 1460
datetaken: 2011-12-07 13:32:31
dateupload: 1323284316
tags: sun tree nature robin canon wednesday garden lunch december goldfinch seed sigma sunny feeder sparrow birdsinflight redrobin housesparrow bluetit redpoll robinredbreast gardenbirds gardenwildlife 170500mm
license: 0
latitude: 54.450854
longitude: -6.339776
accuracy: 14
views: 3
interestingness: 130 out of 40

photo: 6472898657 e5980de4ec 7173
owner: 61657236@N04
title: House Sparrow In Garden Tree
originalsecret: dccaacd2aa
originalformat: jpg
o_height: 1486
o_width: 2324
datetaken: 2011-12-07 15:01:57
dateupload: 1323284278
tags: sun tree nature robin canon wednesday garden lunch december goldfinch seed sigma sunny feeder sparrow birdsinflight redrobin housesparrow bluetit redpoll robinredbreast gardenbirds gardenwildlife 170500mm
license: 0
latitude: 54.450842
longitude: -6.339561
accuracy: 14
views: 1
interestingness: 131 out of 40

photo: 6472896859 43e49a2eb5 7011
owner: 61657236@N04
title: Starling At Lunchtime
originalsecret: d55cabe1bd
originalformat: jpg
o_height: 1549
o_width: 2399
datetaken: 2011-12-07 14:46:29
dateupload: 1323284254
tags: sun tree nature robin canon wednesday garden lunch december goldfinch seed sigma sunny feeder sparrow birdsinflight redrobin housesparrow bluetit redpoll robinredbreast gardenbirds gardenwildlife 170500mm
license: 0
latitude: 54.450779
longitude: -6.339647
accuracy: 14
views: 2
interestingness: 132 out of 40

photo: 6471873257 aa7aaf28b9 7167
owner: 64464890@N07
title: Common Hawk Cuckoo (Hierococcyx varius)
originalsecret: null
originalformat: null
o_height: null
o_width: null
datetaken: 2011-01-13 11:19:11
dateupload: 1323271166
tags: summer orange brown india white black bird eye feet birds yellow grey bill eyes asia breast nest hawk pigeon indian south tail cream large parasites ring well marks size belly sparrow perch eggs males pitch medium females immature hyderabad streaked streaks common rendered calls barred greenish ashy plumage resident babblers whitish anandnagar cuckoos varius shikra brainfever hierococcyx hawkcuckoo
license: 0
latitude: 17.409666
longitude: 78.45324
accuracy: 15
views: 7
interestingness: 133 out of 40

photo: 6471856607 1599555831 7144
owner: 64464890@N07
title: Common Hawk Cuckoo (Hierococcyx varius)
originalsecret: null
originalformat: null
o_height: null
o_width: null
datetaken: 2011-01-13 11:18:28
dateupload: 1323270958
tags: summer orange brown india white black bird eye feet birds yellow grey bill eyes asia breast nest hawk pigeon indian south tail cream large parasites ring well marks size belly sparrow perch eggs males pitch medium females immature hyderabad streaked streaks common rendered calls barred greenish ashy plumage resident babblers whitish anandnagar cuckoos varius shikra brainfever hierococcyx hawkcuckoo
license: 0
latitude: 17.409676
longitude: 78.453197
accuracy: 15
views: 7
interestingness: 134 out of 40

photo: 6467332087 4e482440bb 7032
owner: 56847783@N06
title: Portrait-Time
originalsecret: null
originalformat: null
o_height: null
o_width: null
datetaken: 2010-11-01 00:00:00
dateupload: 1323198587
tags: christmas uk beauty dave manchester glamour women breasts erotic photographer boobs steph holly sensual tinsel topless passion harris stephx
license: 0
latitude: 53.456128
longitude: -1.346426
accuracy: 14
views: 92
interestingness: 135 out of 40

photo: 6466011557 6337eb6392 7153
owner: 23121631@N08
title: Dinner @ 58 Tour Eiffel, Paris
originalsecret: null
originalformat: null
o_height: null
o_width: null
datetaken: 2011-07-21 15:46:48
dateupload: 1323182369
tags: food paris restaurant 58toureiffel
license: 0
latitude: 48.857917
longitude: 2.294551
accuracy: 15
views: 9
interestingness: 136 out of 40

photo: 6450033899 ed9fc55e33 7157
owner: 29301995@N07
title: braciole @ Rosebud on Rush
originalsecret: null
originalformat: null
o_height: null
o_width: null
datetaken: 2010-11-20 18:17:32
dateupload: 1322965100
tags: braciole rosebudonrush foodspotting foodspotting:place=40704 foodspotting:review=1099144
license: 0
latitude: 41.895606
longitude: -87.625485
accuracy: 16
views: 7
interestingness: 137 out of 40

photo: 6449575349 d7a41fea26 7168
owner: 40513271@N06
title: Red-necked Grebe - Podiceps grisegena
originalsecret: 0a0b534647
originalformat: jpg
o_height: 1881
o_width: 2504
datetaken: 2011-12-03 15:00:47
dateupload: 1322958554
tags: winter ohio december redneckedgrebe podicepsgrisegena
license: 0
latitude: 41.676181
longitude: -81.442294
accuracy: 15
views: 29
interestingness: 138 out of 40

photo: 6439723233 4816f5b029 7156
owner: 64464890@N07
title: Tree Pipit (Anthus trivialis)
originalsecret: null
originalformat: null
o_height: null
o_width: null
datetaken: 2011-02-20 09:25:45
dateupload: 1322797582
tags: brown india white black tree bird birds asia europe breast indian small central belly sparrow tiny western buff streaked andhra markings sanctuary insectivorous pradesh pipit passerine anthus trivialis sparrowsized rollapadu
license: 0
latitude: 15.73859
longitude: 78.363418
accuracy: 11
views: 1
interestingness: 139 out of 40

photo: 6437821895 f20c5f3d4d 7009
owner: 10011591@N04
title: Breast Cancer Walk
originalsecret: 4b9bc3eb69
originalformat: jpg
o_height: 494
o_width: 374
datetaken: 2011-12-01 18:00:45
dateupload: 1322769645
tags: wife oceancity breastcancer oceancitymaryland oceancityboardwalk
license: 0
latitude: 38.337347
longitude: -75.098419
accuracy: 9
views: 3
interestingness: 140 out of 40

photo: 6435637075 efa2c3bf32 7027
owner: 69168989@N05
title: im having fun
originalsecret: null
originalformat: null
o_height: null
o_width: null
datetaken: 2011-11-26 21:59:29
dateupload: 1322736183
tags: sexy stockings hair breasts teddy stripey bows neitie
license: 0
latitude: 53.471291
longitude: -2.222671
accuracy: 11
views: 54
interestingness: 141 out of 40

photo: 6471085221 61890b2408 7153
owner: 35546958@N04
title: Vintage-black-faux-fur-collar-double-breasted-winter-coat- c
originalsecret: null
originalformat: null
o_height: null
o_width: null
datetaken: 2011-11-29 15:00:32
dateupload: 1323258470
tags: christmas vintage vintageclothes vintagecoats
license: 0
latitude: 51.558983
longitude: -0.056648
accuracy: 12
views: 1
interestingness: 142 out of 40

photo: 6452223495 ae140dd3e1 7013
owner: 99425225@N00
title: China & the African Drought: Part 3 ? a mission to help Africa?s children
originalsecret: null
originalformat: null
o_height: null
o_width: null
datetaken: 2011-10-07 15:41:00
dateupload: 1323001858
tags: ethiopia eth babile oromia
license: 0
latitude: 9.225533
longitude: 42.339297
accuracy: 16
views: 3
interestingness: 143 out of 40

photo: 6438463355 645d77e2a6 7161
owner: 11388208@N04
title: IMG_9602 which merganser #2
originalsecret: 8c7d76ea2a
originalformat: jpg
o_height: 746
o_width: 1128
datetaken: 2011-11-30 14:54:36
dateupload: 1322777888
tags: 
license: 0
latitude: 42.719461
longitude: -70.782101
accuracy: 14
views: 125
interestingness: 144 out of 40

photo: 6435646653 781641b38f 7016
owner: 69168989@N05
title: playing with teddy
originalsecret: null
originalformat: null
o_height: null
o_width: null
datetaken: 2011-11-26 22:17:02
dateupload: 1322736399
tags: sexy stockings hair breasts teddy stripey bows neitie
license: 0
latitude: 53.478647
longitude: -2.236061
accuracy: 11
views: 65
interestingness: 145 out of 40

photo: 6475403175 391204ff13 7012
owner: 32740711@N06
title: Slamology 2011 bikini contest
originalsecret: null
originalformat: null
o_height: null
o_width: null
datetaken: 2011-06-18 18:58:40
dateupload: 1323322927
tags: pink summer woman hot sexy june canon naked eos breasts pretty day adult skin time boobs indianapolis indy indiana babe bikini babes daytime brunette 75300mm bikinis 30d 2011 canoneos30d slamology marioncountyfairgrounds indykaleu
license: 0
latitude: 39.727653
longitude: -86.041016
accuracy: 13
views: 157
interestingness: 146 out of 40

photo: 6473284171 3ffcddfbdd 7005
owner: 56847783@N06
title: Christmas-Present
originalsecret: null
originalformat: null
o_height: null
o_width: null
datetaken: 2011-12-07 10:23:36
dateupload: 1323289416
tags: christmas beauty photography lights beads glamour breast nipple boobs c katie sensual tinsel harris sensuous hints katiec
license: 0
latitude: 53.398786
longitude: -2.289361
accuracy: 14
views: 88
interestingness: 147 out of 40

photo: 6453415141 79f97fd941 7031
owner: 57191337@N00
title: Result
originalsecret: 978d2e6cd4
originalformat: jpg
o_height: 3264
o_width: 2448
datetaken: 2011-12-04 15:19:22
dateupload: 1323016018
tags: food duck breast vinegar cumin leek gree greenpepper
license: 0
latitude: 41.410667
longitude: 2.018667
accuracy: 16
views: 14
interestingness: 148 out of 40

photo: 6449178635 ca73bf1817 7144
owner: 63155554@N02
title: AFSSAPS DES report 2011 in English Page 05
originalsecret: null
originalformat: null
o_height: null
o_width: null
datetaken: 2011-12-03 22:58:47
dateupload: 1322953127
tags: afssaps diethylstilboestrol distilbene
license: 1
latitude: 48.856918
longitude: 2.341209
accuracy: 11
views: 4
interestingness: 149 out of 40

photo: 6449178309 56478fb0a0 7011
owner: 63155554@N02
title: AFSSAPS DES report 2011 in English Page 04
originalsecret: null
originalformat: null
o_height: null
o_width: null
datetaken: 2011-12-03 22:58:41
dateupload: 1322953121
tags: afssaps diethylstilboestrol distilbene
license: 1
latitude: 48.856918
longitude: 2.341209
accuracy: 11
views: 3
interestingness: 150 out of 40

photo: 6449178055 908ff4b012 7035
owner: 63155554@N02
title: AFSSAPS DES report 2011 in English Page 03
originalsecret: null
originalformat: null
o_height: null
o_width: null
datetaken: 2011-12-03 22:58:36
dateupload: 1322953116
tags: afssaps diethylstilboestrol distilbene
license: 1
latitude: 48.856918
longitude: 2.341209
accuracy: 11
views: 3
interestingness: 151 out of 40

photo: 6449177739 dfdf42fdca 7034
owner: 63155554@N02
title: AFSSAPS DES report 2011 in English Page 02
originalsecret: null
originalformat: null
o_height: null
o_width: null
datetaken: 2011-12-03 22:58:31
dateupload: 1322953111
tags: afssaps diethylstilboestrol distilbene
license: 1
latitude: 48.856918
longitude: 2.341209
accuracy: 11
views: 4
interestingness: 152 out of 40

photo: 6449177395 873497b32d 7172
owner: 63155554@N02
title: AFSSAPS DES report 2011 in English Page 01
originalsecret: null
originalformat: null
o_height: null
o_width: null
datetaken: 2011-12-03 22:58:26
dateupload: 1322953106
tags: afssaps diethylstilboestrol distilbene
license: 1
latitude: 48.856918
longitude: 2.341209
accuracy: 11
views: 3
interestingness: 153 out of 40

photo: 6437821977 c70854a0f8 7006
owner: 10011591@N04
title: Breast Cancer Walk Ocean City Md.
originalsecret: 9d34fb238e
originalformat: jpg
o_height: 506
o_width: 380
datetaken: 2011-12-01 18:00:45
dateupload: 1322769645
tags: wife breastcancerwalk oceancitymaryland
license: 0
latitude: 38.335731
longitude: -75.092926
accuracy: 9
views: 6
interestingness: 154 out of 40

photo: 6435658747 6ae3c6d452 7002
owner: 69168989@N05
title: waiting
originalsecret: null
originalformat: null
o_height: null
o_width: null
datetaken: 2011-11-26 22:11:05
dateupload: 1322736653
tags: sexy stockings hair breasts teddy stripey bows neitie
license: 0
latitude: 53.47548
longitude: -2.234344
accuracy: 11
views: 97
interestingness: 155 out of 40

photo: 6435656211 02096ac198 7026
owner: 69168989@N05
title: im a good girl
originalsecret: null
originalformat: null
o_height: null
o_width: null
datetaken: 2011-11-26 22:16:24
dateupload: 1322736600
tags: sexy stockings hair breasts teddy stripey bows neitie
license: 0
latitude: 53.47313
longitude: -2.234687
accuracy: 11
views: 76
interestingness: 156 out of 40

photo: 6435653475 cc40c35a54 7153
owner: 69168989@N05
title: lost little lady
originalsecret: null
originalformat: null
o_height: null
o_width: null
datetaken: 2011-11-26 22:01:24
dateupload: 1322736542
tags: sexy stockings hair breasts teddy stripey bows neitie
license: 0
latitude: 53.471802
longitude: -2.227821
accuracy: 11
views: 55
interestingness: 157 out of 40

photo: 6435648841 51808233e9 7027
owner: 69168989@N05
title: safe in my corner
originalsecret: null
originalformat: null
o_height: null
o_width: null
datetaken: 2011-11-26 22:04:30
dateupload: 1322736442
tags: sexy stockings hair breasts teddy stripey bows neitie
license: 0
latitude: 53.471802
longitude: -2.230224
accuracy: 11
views: 43
interestingness: 158 out of 40

photo: 6471476885 45a572effd 7142
owner: 31559814@N03
title: Picture0012
originalsecret: null
originalformat: null
o_height: null
o_width: null
datetaken: 2011-12-07 05:31:45
dateupload: 1323265478
tags: gay canada calgary cum girl sex drag penis for high breast cross time pussy performance first cock blow queen transgender virgin teen lolita hardcore alberta tranny transvestite homo getting homosexual tight dresser bang boob queer job ultra fag faggot transsexual ladyboy teenage cumming implants fucken 600c
license: 0
latitude: 51.028879
longitude: -113.946607
accuracy: 14
views: 235
interestingness: 159 out of 40

photo: 6465643373 99aff70daa 7013
owner: 71525199@N03
title: Breast Cancer Campain
originalsecret: null
originalformat: null
o_height: null
o_width: null
datetaken: 2011-12-06 13:09:38
dateupload: 1323176978
tags: charity embroidery
license: 0
latitude: 51.507834
longitude: -0.124969
accuracy: 12
views: 0
interestingness: 160 out of 40

photo: 6451937709 6df5c1bf2b 7015
owner: 65695019@N07
title: Lilac-breasted Roller Coracias caudatus
originalsecret: ba6c1f9f8b
originalformat: jpg
o_height: 2233
o_width: 3723
datetaken: 2011-11-05 09:17:53
dateupload: 1322997428
tags: caudatus coracias
license: 0
latitude: -25.392419
longitude: 20.565032
accuracy: 16
views: 1
interestingness: 161 out of 40

photo: 6438928943 56470d0c32 7006
owner: 57784133@N03
title: 328/365 - Giving Thanks
originalsecret: 0d61a88f00
originalformat: jpg
o_height: 1024
o_width: 683
datetaken: 2011-11-24 20:57:14
dateupload: 1322784548
tags: thanksgiving 3652011
license: 0
latitude: 51.510318
longitude: -0.192003
accuracy: 14
views: 3
interestingness: 162 out of 40

photo: 6437318555 67580acfa9 7004
owner: 66037660@N08
title: Bratz Juicy Couture mag1
originalsecret: null
originalformat: null
o_height: null
o_width: null
datetaken: 2011-12-01 10:05:11
dateupload: 1322762711
tags: bratz bratzmagazine
license: 0
latitude: 43.357138
longitude: -119.61914
accuracy: 4
views: 2
interestingness: 163 out of 40

photo: 6435639301 0741a91b93 7145
owner: 69168989@N05
title: thoughtfull
originalsecret: null
originalformat: null
o_height: null
o_width: null
datetaken: 2011-11-26 22:10:58
dateupload: 1322736232
tags: sexy stockings hair breasts teddy stripey bows neitie
license: 0
latitude: 53.470372
longitude: -2.231597
accuracy: 11
views: 95
interestingness: 164 out of 40

photo: 6470936607 0154e45549 7173
owner: 67745415@N06
title: White-breasted Waterhen
originalsecret: null
originalformat: null
o_height: null
o_width: null
datetaken: 2011-12-07 00:35:05
dateupload: 1323255338
tags: birds
license: 0
latitude: 22.43374
longitude: 88.400791
accuracy: 16
views: 4
interestingness: 165 out of 40

photo: 6468919283 3e07a49791 7007
owner: 52318268@N08
title: Red-breasted Sapsucker
originalsecret: null
originalformat: null
o_height: null
o_width: null
datetaken: 2011-12-06 12:20:58
dateupload: 1323219067
tags: 
license: 0
latitude: 38.438699
longitude: -122.741403
accuracy: 13
views: 3
interestingness: 166 out of 40

photo: 6468604063 92c7668195 7003
owner: 34056078@N08
title: roadside craft supplies
originalsecret: null
originalformat: null
o_height: null
o_width: null
datetaken: 2011-12-06 02:15:12
dateupload: 1323214396
tags: 
license: 0
latitude: 61.20055
longitude: -149.836606
accuracy: 14
views: 4
interestingness: 167 out of 40

photo: 6468599661 e43b447aea 7013
owner: 34056078@N08
title: overheard between mallards and raven
originalsecret: null
originalformat: null
o_height: null
o_width: null
datetaken: 2011-12-06 01:51:41
dateupload: 1323214327
tags: 
license: 0
latitude: 61.200509
longitude: -149.839825
accuracy: 14
views: 1
interestingness: 168 out of 40

photo: 6468593953 4eed67e64f 7012
owner: 34056078@N08
title: snow bracelet
originalsecret: null
originalformat: null
o_height: null
o_width: null
datetaken: 2011-12-06 01:40:21
dateupload: 1323214241
tags: 
license: 0
latitude: 61.200509
longitude: -149.839825
accuracy: 14
views: 0
interestingness: 169 out of 40

photo: 6466809975 982d97ec60 7174
owner: 46848480@N00
title: Pied Kingfisher
originalsecret: null
originalformat: null
o_height: null
o_width: null
datetaken: 2011-12-03 00:01:20
dateupload: 1323192240
tags: 
license: 0
latitude: 12.423521
longitude: 76.703109
accuracy: 15
views: 0
interestingness: 170 out of 40

photo: 6465253751 fc0946a49b 7142
owner: 46848480@N00
title: Intermediate Egret and Stone Plovers
originalsecret: null
originalformat: null
o_height: null
o_width: null
datetaken: 2011-12-03 00:01:03
dateupload: 1323169519
tags: 
license: 0
latitude: 12.424019
longitude: 76.702337
accuracy: 16
views: 0
interestingness: 171 out of 40

photo: 6465252045 1480fcd045 7171
owner: 46848480@N00
title: Intermediate Egret and Stone Plovers
originalsecret: null
originalformat: null
o_height: null
o_width: null
datetaken: 2011-12-03 00:01:00
dateupload: 1323169480
tags: 
license: 0
latitude: 12.424019
longitude: 76.702337
accuracy: 16
views: 1
interestingness: 172 out of 40

photo: 6465251577 b3f3e56710 7147
owner: 46848480@N00
title: Intermediate Egret and a couple of Stone Plovers
originalsecret: null
originalformat: null
o_height: null
o_width: null
datetaken: 2011-12-03 00:00:59
dateupload: 1323169470
tags: 
license: 0
latitude: 12.424019
longitude: 76.702337
accuracy: 16
views: 1
interestingness: 173 out of 40

photo: 6465250867 bcf79f5e23 7146
owner: 46848480@N00
title: Intermediate Egret and a couple of Stone Plovers
originalsecret: null
originalformat: null
o_height: null
o_width: null
datetaken: 2011-12-03 00:00:58
dateupload: 1323169454
tags: 
license: 0
latitude: 12.424019
longitude: 76.702337
accuracy: 16
views: 5
interestingness: 174 out of 40

photo: 6461459219 ae24064c42 7159
owner: 66856738@N07
title: Virgin
originalsecret: null
originalformat: null
o_height: null
o_width: null
datetaken: 2011-11-08 19:16:28
dateupload: 1323113890
tags: 
license: 0
latitude: 40.865631
longitude: -74.160247
accuracy: 11
views: 16
interestingness: 175 out of 40

photo: 6460213193 b95a056659 7171
owner: 46724204@N08
title: Red Breasted Merganser, Mergus serrator
originalsecret: 94cd20522d
originalformat: jpg
o_height: 1988
o_width: 1757
datetaken: 2011-12-05 09:26:16
dateupload: 1323100169
tags: 
license: 0
latitude: 50.825348
longitude: -0.293369
accuracy: 16
views: 8
interestingness: 176 out of 40

photo: 6460206569 8b9b3cffea 7017
owner: 46724204@N08
title: Red Breasted Merganser, Mergus serrator
originalsecret: 084203d5e7
originalformat: jpg
o_height: 2240
o_width: 3103
datetaken: 2011-12-05 09:28:13
dateupload: 1323100090
tags: 
license: 0
latitude: 50.825674
longitude: -0.292682
accuracy: 16
views: 3
interestingness: 177 out of 40

photo: 6457133017 93cdc7a41c 7035
owner: 50145710@N05
title: Vagina/Penis/Breast Monstres
originalsecret: 59e6902c47
originalformat: jpg
o_height: 5184
o_width: 3456
datetaken: 2011-12-04 14:27:26
dateupload: 1323054031
tags: 
license: 0
latitude: 34.083738
longitude: -118.354983
accuracy: 15
views: 6
interestingness: 178 out of 40

photo: 6456718917 e098cb8462 7009
owner: 11005926@N00
title: DSCN2710mod
originalsecret: null
originalformat: null
o_height: null
o_width: null
datetaken: 2011-12-04 22:15:30
dateupload: 1323049530
tags: breast pathology microphotography coolpix5000breastmicrophotographypathology
license: 0
latitude: 10.527644
longitude: -66.92871
accuracy: 10
views: 1
interestingness: 179 out of 40

photo: 6456713455 7e2f786e0f 7030
owner: 11005926@N00
title: DSCN2716mod
originalsecret: null
originalformat: null
o_height: null
o_width: null
datetaken: 2011-12-04 22:14:28
dateupload: 1323049468
tags: breast pathology microphotography coolpix5000breastmicrophotographypathology
license: 0
latitude: 10.541146
longitude: -66.925277
accuracy: 10
views: 1
interestingness: 180 out of 40

photo: 6453369253 7f3bd43040 7151
owner: 57191337@N00
title: Untitled
originalsecret: b73d8da75d
originalformat: jpg
o_height: 3264
o_width: 2448
datetaken: 2011-12-04 15:11:21
dateupload: 1323015530
tags: food duck breast
license: 0
latitude: 41.410667
longitude: 2.018833
accuracy: 16
views: 8
interestingness: 181 out of 40

photo: 6453346553 c2a454bf02 7022
owner: 57191337@N00
title: Frying tonight
originalsecret: 746d015634
originalformat: jpg
o_height: 2788
o_width: 2304
datetaken: 2011-12-04 15:11:03
dateupload: 1323015294
tags: food duck breast
license: 0
latitude: 41.410667
longitude: 2.018833
accuracy: 16
views: 9
interestingness: 182 out of 40

photo: 6453253167 3377d95879 7022
owner: 57191337@N00
title: Cumin seeds
originalsecret: 0603b308b0
originalformat: jpg
o_height: 3264
o_width: 2448
datetaken: 2011-12-04 14:54:42
dateupload: 1323014326
tags: food duck breast cumin
license: 0
latitude: 41.410333
longitude: 2.018667
accuracy: 16
views: 6
interestingness: 183 out of 40

photo: 6453215137 2d07e151b6 7150
owner: 57191337@N00
title: Cumin
originalsecret: ab4b66cc77
originalformat: jpg
o_height: 3264
o_width: 2448
datetaken: 2011-12-04 14:54:33
dateupload: 1323013931
tags: food duck breast cumin
license: 0
latitude: 41.410333
longitude: 2.018667
accuracy: 16
views: 7
interestingness: 184 out of 40

photo: 6453194925 a800663078 7031
owner: 57191337@N00
title: Duck #3
originalsecret: 0930fe1143
originalformat: jpg
o_height: 3102
o_width: 2448
datetaken: 2011-12-04 14:54:06
dateupload: 1323013713
tags: food duck breast
license: 0
latitude: 41.410667
longitude: 2.018833
accuracy: 16
views: 6
interestingness: 185 out of 40

photo: 6453041329 aaecaa4ce9 7007
owner: 57191337@N00
title: Duck #2
originalsecret: 914ec744fd
originalformat: jpg
o_height: 2342
o_width: 1519
datetaken: 2011-12-04 14:50:08
dateupload: 1323012081
tags: duck breast leek greenpepper
license: 0
latitude: 41.410166
longitude: 2.018833
accuracy: 16
views: 6
interestingness: 186 out of 40

photo: 6452985009 0b3ab91cae 7144
owner: 97028995@N00
title: furien.
originalsecret: d5821eef09
originalformat: jpg
o_height: 2989
o_width: 2242
datetaken: 2011-09-14 19:03:36
dateupload: 1323011446
tags: streetart southamerica argentina buenosaires breasts boobs br?ste titten argentinien furie s?damerika gemalt gruslig furien grusligez?hne
license: 0
latitude: -34.589128
longitude: -58.430733
accuracy: 16
views: 13
interestingness: 187 out of 40

photo: 6452892579 6b795091fc 7016
owner: 62114326@N07
title: Breast man.
originalsecret: null
originalformat: null
o_height: null
o_width: null
datetaken: 2010-09-01 00:00:00
dateupload: 1323010439
tags: 
license: 0
latitude: 44.416409
longitude: 12.197635
accuracy: 16
views: 0
interestingness: 188 out of 40

photo: 6452684755 d5b1eb33b4 7151
owner: 62468454@N04
title: European Robin
originalsecret: null
originalformat: null
o_height: null
o_width: null
datetaken: 2011-12-04 14:41:46
dateupload: 1323007971
tags: 
license: 0
latitude: 52.003463
longitude: 4.378674
accuracy: 15
views: 18
interestingness: 189 out of 40

photo: 6436561465 129d31f74d 7034
owner: 8991265@N05
title: Llevo a dios en mi vientre
originalsecret: null
originalformat: null
o_height: null
o_width: null
datetaken: 2011-03-24 19:15:24
dateupload: 1322752596
tags: woman sexy girl sex m?xico nude mexico mujer model poem breast tit chica mario modelo sexo session veracruz gallegos mosca chava jes?s sepulveda mexiko hamaca veracru sep?lveda poes?a mejico poema coatza sesi?n desnuda seno coatzacoalcos talleres hildegart encuerada desudo sep?lveda oloarte
license: 0
latitude: 18.144302
longitude: -94.449505
accuracy: 15
views: 114
interestingness: 190 out of 40

photo: 6471854079 8a98c4fa6b 7016
owner: 64464890@N07
title: Common Coot (Fulica atra)
originalsecret: null
originalformat: null
o_height: null
o_width: null
datetaken: 2011-01-22 10:45:11
dateupload: 1323270924
tags: family india white black male bird birds female night swimming swim dark pond crackling toes call long adult little lotus head indian small jet cream rail gear cap tiny strong shield hyderabad common andhra juvenile eurasian facial coot explosive noisy partial pradesh crake capping plumage atra webbing fulica whitish rallidae trumpeting creamish
license: 0
latitude: 17.409696
longitude: 78.405025
accuracy: 15
views: 2
interestingness: 191 out of 40

photo: 6467332911 26fa1d07db 7161
owner: 56847783@N06
title: Letter-to-Santa
originalsecret: null
originalformat: null
o_height: null
o_width: null
datetaken: 2010-11-01 00:00:00
dateupload: 1323198598
tags: christmas uk beauty dave manchester glamour women breasts erotic photographer boobs steph holly sensual tinsel topless passion harris stephx
license: 0
latitude: 53.456128
longitude: -1.346426
accuracy: 14
views: 89
interestingness: 192 out of 40

photo: 6462661243 7f9338834f 7164
owner: 10562135@N08
title: Hockey Babe
originalsecret: 081cee21bf
originalformat: jpg
o_height: 2850
o_width: 2690
datetaken: 2011-12-03 14:49:39
dateupload: 1323127951
tags: sexy hockey girl sex losangeles breasts tits icehockey blonde losangeleskings
license: 0
latitude: 34.042845
longitude: -118.26704
accuracy: 16
views: 182
interestingness: 193 out of 40

photo: 6452983355 15dd9daee0 7024
owner: 57191337@N00
title: Duck #1
originalsecret: 746d477bfa
originalformat: jpg
o_height: 2584
o_width: 2431
datetaken: 2011-12-04 14:49:55
dateupload: 1323011427
tags: duck breast
license: 0
latitude: 41.410333
longitude: 2.018666
accuracy: 16
views: 4
interestingness: 194 out of 40

photo: 6434446423 b2266aba34 7171
owner: 35950862@N07
title: Arm dran
originalsecret: 1251ffbaf3
originalformat: jpg
o_height: 3826
o_width: 2870
datetaken: 2011-11-27 16:05:38
dateupload: 1322711591
tags: turkey breasts boobs t?rkiye turkiye istanbul t?rkei genitals statuen archaeologicalmuseum br?ste archeologisch genitalien archeologic konstantinopel arch?ologischesmuseum archaeologic istanbularkeolojim?zeleri genitalsofstatues
license: 0
latitude: 41.011667
longitude: 28.981389
accuracy: 16
views: 18
interestingness: 195 out of 40

photo: 6464079909 5e51ab6968 7001
owner: 37029314@N00
title: "L'Air" - Etienne le Hongre
originalsecret: e9e4182424
originalformat: jpg
o_height: 1566
o_width: 1287
datetaken: 2011-04-22 03:50:22
dateupload: 1323146850
tags: blue shadow sky sculpture woman plants cloud sun paris france green art wet water fountain leaves statue gardens pose garden hair naked nude french louis design droplets breasts stream europe king artist european glare breast shadows arms artistic head air jet royal jardin posed palace versailles shade worn figure shawl marble cloth splash gesture chateau bushes erupt mythology royalty myth element figurative parisian symbolic sculpted symbolism anthropomorphic plume drapery covering anthropomorphized aristocracy palatial aristocratic hongre
license: 1
latitude: 48.806658
longitude: 2.120538
accuracy: 16
views: 8
interestingness: 196 out of 40

photo: 6448579887 7c0a4ba6b1 7146
owner: 28862545@N08
title: Shylah
originalsecret: 4af627a88a
originalformat: jpg
o_height: 1125
o_width: 750
datetaken: 2011-11-30 11:11:17
dateupload: 1322945631
tags: portrait woman girl tattoo ma skull breasts breast tits massachusetts indoor teen teenager ayer shylah
license: 0
latitude: 42.561046
longitude: -71.582633
accuracy: 16
views: 23
interestingness: 197 out of 40

photo: 6448579777 909d7d715f 7026
owner: 28862545@N08
title: Shylah Cross Process
originalsecret: 68edd348f3
originalformat: jpg
o_height: 1125
o_width: 750
datetaken: 2011-11-30 11:07:55
dateupload: 1322945630
tags: portrait woman girl tattoo ma skull breasts breast tits massachusetts indoor teen teenager ayer shylah
license: 0
latitude: 42.561046
longitude: -71.582633
accuracy: 16
views: 49
interestingness: 198 out of 40

photo: 6467303873 be98aac261 7149
owner: 45767493@N00
title: 
originalsecret: 867ab2ea20
originalformat: jpg
o_height: 1280
o_width: 888
datetaken: 2011-12-02 18:06:41
dateupload: 1323198230
tags: city breasts europe tits belgium chocolate bra sweets bruges
license: 3
latitude: 51.209309
longitude: 3.22807
accuracy: 15
views: 4
interestingness: 199 out of 40

photo: 6463570845 78f4580a2d 7163
owner: 37029314@N00
title: Hall of Mirrors - N?m?sis
originalsecret: fd2f0d6035
originalformat: jpg
o_height: 3515
o_width: 2108
datetaken: 2011-04-21 22:46:54
dateupload: 1323140002
tags: light sculpture woman white paris france art classic statue stone lady female naked nude french greek gold golden louis hall ancient breasts europe king european dress arms artistic robe antique sandals bare helmet royal mirrors palace revenge versailles topless arrows restored classical restoration marble dual gown statuary gilded hallofmirrors mythology sandal royalty scroll myth regal parisian nemesis sculpted gilt basrelief antiquity quiver retribution drapery grandegalerie stoic aristocracy palatial aristocratic n?m?sis
license: 1
latitude: 48.805029
longitude: 2.1205
accuracy: 16
views: 7
interestingness: 200 out of 40

photo: 6445117653 f46ed1f716 7164
owner: 57516324@N03
title: _DSC5472
originalsecret: null
originalformat: null
o_height: null
o_width: null
datetaken: 2011-12-02 01:11:20
dateupload: 1322889538
tags: hot sexy ass girl women breast dancers butt thong burlesque pastie
license: 0
latitude: 38.900451
longitude: -76.989172
accuracy: 16
views: 8
interestingness: 201 out of 40

photo: 6445116991 b51c337615 7166
owner: 57516324@N03
title: _DSC5463
originalsecret: null
originalformat: null
o_height: null
o_width: null
datetaken: 2011-12-02 01:06:08
dateupload: 1322889526
tags: hot sexy ass girl women breast dancers butt thong burlesque pastie
license: 0
latitude: 38.900451
longitude: -76.989172
accuracy: 16
views: 8
interestingness: 202 out of 40

photo: 6445116265 c09662b1e4 7158
owner: 57516324@N03
title: _DSC5454
originalsecret: null
originalformat: null
o_height: null
o_width: null
datetaken: 2011-12-02 00:58:46
dateupload: 1322889513
tags: hot sexy ass girl women breast dancers butt thong burlesque pastie
license: 0
latitude: 38.900451
longitude: -76.989172
accuracy: 16
views: 7
interestingness: 203 out of 40

photo: 6445104411 8a9b4a5441 7174
owner: 57516324@N03
title: _DSC5294
originalsecret: null
originalformat: null
o_height: null
o_width: null
datetaken: 2011-12-02 00:35:11
dateupload: 1322889287
tags: hot sexy ass girl women breast dancers butt thong burlesque pastie
license: 0
latitude: 38.900451
longitude: -76.989172
accuracy: 16
views: 4
interestingness: 204 out of 40

photo: 6445103245 01119b4e36 7011
owner: 57516324@N03
title: _DSC5293
originalsecret: null
originalformat: null
o_height: null
o_width: null
datetaken: 2011-12-02 00:34:30
dateupload: 1322889266
tags: hot sexy ass girl women breast dancers butt thong burlesque pastie
license: 0
latitude: 38.900451
longitude: -76.989172
accuracy: 16
views: 4
interestingness: 205 out of 40

photo: 6445102309 d3f9c34b57 7141
owner: 57516324@N03
title: _DSC5291
originalsecret: null
originalformat: null
o_height: null
o_width: null
datetaken: 2011-12-02 00:31:36
dateupload: 1322889250
tags: hot sexy ass girl women breast dancers butt thong burlesque pastie
license: 0
latitude: 38.900451
longitude: -76.989172
accuracy: 16
views: 3
interestingness: 206 out of 40

photo: 6445101463 1a485ee129 7165
owner: 57516324@N03
title: _DSC5287
originalsecret: null
originalformat: null
o_height: null
o_width: null
datetaken: 2011-12-02 00:28:41
dateupload: 1322889234
tags: hot sexy ass girl women breast dancers butt thong burlesque pastie
license: 0
latitude: 38.900451
longitude: -76.989172
accuracy: 16
views: 4
interestingness: 207 out of 40

photo: 6445100723 970013ba35 7168
owner: 57516324@N03
title: _DSC5286
originalsecret: null
originalformat: null
o_height: null
o_width: null
datetaken: 2011-12-02 00:27:11
dateupload: 1322889219
tags: hot sexy ass girl women breast dancers butt thong burlesque pastie
license: 0
latitude: 38.900451
longitude: -76.989172
accuracy: 16
views: 4
interestingness: 208 out of 40

photo: 6445084963 ecfbe6f520 7156
owner: 57516324@N03
title: _DSC5174
originalsecret: null
originalformat: null
o_height: null
o_width: null
datetaken: 2011-12-02 00:09:59
dateupload: 1322888914
tags: hot sexy ass girl women breast dancers butt thong burlesque pastie
license: 0
latitude: 38.900451
longitude: -76.989172
accuracy: 16
views: 4
interestingness: 209 out of 40

photo: 6445084131 02a16a4139 7004
owner: 57516324@N03
title: _DSC5169
originalsecret: null
originalformat: null
o_height: null
o_width: null
datetaken: 2011-12-02 00:09:41
dateupload: 1322888898
tags: hot sexy ass girl women breast dancers butt thong burlesque pastie
license: 0
latitude: 38.900451
longitude: -76.989172
accuracy: 16
views: 13
interestingness: 210 out of 40

photo: 6445083853 c43daa24c2 7012
owner: 57516324@N03
title: _DSC5161
originalsecret: null
originalformat: null
o_height: null
o_width: null
datetaken: 2011-12-02 00:09:28
dateupload: 1322888893
tags: hot sexy ass girl women breast dancers butt thong burlesque pastie
license: 0
latitude: 38.900451
longitude: -76.989172
accuracy: 16
views: 3
interestingness: 211 out of 40

photo: 6445083115 78f4ab25cb 7164
owner: 57516324@N03
title: _DSC5155
originalsecret: null
originalformat: null
o_height: null
o_width: null
datetaken: 2011-12-02 00:06:02
dateupload: 1322888879
tags: hot sexy ass girl women breast dancers butt thong burlesque pastie
license: 0
latitude: 38.900451
longitude: -76.989172
accuracy: 16
views: 1
interestingness: 212 out of 40

photo: 6445082207 7cb684aeb1 7143
owner: 57516324@N03
title: _DSC5141
originalsecret: null
originalformat: null
o_height: null
o_width: null
datetaken: 2011-12-01 23:44:36
dateupload: 1322888862
tags: hot sexy ass girl women breast dancers butt thong burlesque pastie
license: 0
latitude: 38.900451
longitude: -76.989172
accuracy: 16
views: 1
interestingness: 213 out of 40

photo: 6445081281 9674195070 7014
owner: 57516324@N03
title: _DSC5136
originalsecret: null
originalformat: null
o_height: null
o_width: null
datetaken: 2011-12-01 23:44:04
dateupload: 1322888845
tags: hot sexy ass girl women breast dancers butt thong burlesque pastie
license: 0
latitude: 38.900451
longitude: -76.989172
accuracy: 16
views: 1
interestingness: 214 out of 40

photo: 6445080617 d6bfa7da98 7021
owner: 57516324@N03
title: _DSC5109
originalsecret: null
originalformat: null
o_height: null
o_width: null
datetaken: 2011-12-01 23:33:40
dateupload: 1322888828
tags: hot sexy ass girl women breast dancers butt thong burlesque pastie
license: 0
latitude: 38.900451
longitude: -76.989172
accuracy: 16
views: 4
interestingness: 215 out of 40

photo: 6445080153 71ba04364a 7157
owner: 57516324@N03
title: _DSC5099
originalsecret: null
originalformat: null
o_height: null
o_width: null
datetaken: 2011-12-01 23:26:47
dateupload: 1322888819
tags: hot sexy ass girl women breast dancers butt thong burlesque pastie
license: 0
latitude: 38.900451
longitude: -76.989172
accuracy: 16
views: 4
interestingness: 216 out of 40

photo: 6445079451 89acd576e2 7033
owner: 57516324@N03
title: _DSC5085
originalsecret: null
originalformat: null
o_height: null
o_width: null
datetaken: 2011-12-01 23:23:32
dateupload: 1322888806
tags: hot sexy ass girl women breast dancers butt thong burlesque pastie
license: 0
latitude: 38.900451
longitude: -76.989172
accuracy: 16
views: 4
interestingness: 217 out of 40

photo: 6445078059 a570e0fe29 7013
owner: 57516324@N03
title: _DSC5077
originalsecret: null
originalformat: null
o_height: null
o_width: null
datetaken: 2011-12-01 23:17:01
dateupload: 1322888782
tags: hot sexy ass girl women breast dancers butt thong burlesque pastie
license: 0
latitude: 38.900451
longitude: -76.989172
accuracy: 16
views: 1
interestingness: 218 out of 40

photo: 6445077365 9fdc415950 7026
owner: 57516324@N03
title: _DSC5075
originalsecret: null
originalformat: null
o_height: null
o_width: null
datetaken: 2011-12-01 23:03:16
dateupload: 1322888770
tags: hot sexy ass girl women breast dancers butt thong burlesque pastie
license: 0
latitude: 38.900451
longitude: -76.989172
accuracy: 16
views: 6
interestingness: 219 out of 40

photo: 6445076393 dba91f8925 7015
owner: 57516324@N03
title: _DSC5072
originalsecret: null
originalformat: null
o_height: null
o_width: null
datetaken: 2011-12-01 23:02:44
dateupload: 1322888752
tags: hot sexy ass girl women breast dancers butt thong burlesque pastie
license: 0
latitude: 38.900451
longitude: -76.989172
accuracy: 16
views: 6
interestingness: 220 out of 40

photo: 6445075715 978600486c 7019
owner: 57516324@N03
title: _DSC5070
originalsecret: null
originalformat: null
o_height: null
o_width: null
datetaken: 2011-12-01 23:02:22
dateupload: 1322888740
tags: hot sexy ass girl women breast dancers butt thong burlesque pastie
license: 0
latitude: 38.900451
longitude: -76.989172
accuracy: 16
views: 3
interestingness: 221 out of 40

photo: 6445074917 8e775ecf5f 7015
owner: 57516324@N03
title: _DSC5067
