
mintime: 1322697600 maxtime: 1322717395.08
numimgs: 229
total pages: 1
visiting only 1 pages ( up to 250 images)
photo: 6433776991 9161942556 7144
owner: 39539844@N07
title: Pomegranates 3 (Explored)
originalsecret: null
originalformat: null
o_height: null
o_width: null
datetaken: 2011-11-30 17:38:23
dateupload: 1322701751
tags: flowers light stilllife flower color art floral beautiful beauty studio flora colorful dramatic olympus pomegranates sunflowers bloom cutflowers freshflowers greatphotographers studioflash flickrsbest electronicflash zuiko35mmf35macro olympuse30 aphotographersnature ascorflash glixpix quartzlight kevindrenz
license: 0
latitude: 35.060177
longitude: -106.580021
accuracy: 14
views: 260
interestingness: 1 out of 229

photo: 6433753415 eb3ae5bb95 7023
owner: 38966472@N00
title: 2:45 PM Sunset
originalsecret: 6711ae63fd
originalformat: jpg
o_height: 768
o_width: 1024
datetaken: 2011-11-30 15:44:41
dateupload: 1322701395
tags: trees sunset sun canada nature beautiful skyline clouds forest landscape twilight bc dusk britishcolumbia north olympus northern zuiko goldenhour e5 naturethroughthelens lowerpost yellowsnowphotography blinkagain bestofblinkwinners
license: 0
latitude: 59.92328
longitude: -128.499526
accuracy: 13
views: 189
interestingness: 2 out of 229

photo: 6433510841 85d75d262c 7020
owner: 21455613@N05
title: Dallas ultra-wide [48/52]
originalsecret: null
originalformat: null
o_height: null
o_width: null
datetaken: 2011-11-30 11:09:58
dateupload: 1322697687
tags: dog sun ontario canada cute home boston puppy lunch bostonterrier dallas nikon little walk ears sudbury fullframe fx bt lay snort d700 tokina1628mm28
license: 0
latitude: 46.41931
longitude: -81.139011
accuracy: 13
views: 139
interestingness: 3 out of 229

photo: 6434722497 eaceb3af82 7016
owner: 29396071@N02
title: M33 NGC 598 Triangulum Galaxy LRGB+HA (reprocess)
originalsecret: 5f9db1a457
originalformat: jpg
o_height: 2299
o_width: 3191
datetaken: 2011-12-04 07:30:32
dateupload: 1322715776
tags: camera sky monochrome field night stars photography pier backyard fotografie photos michigan space ngc shed science images astro fremont observatory telescope galaxy m33 terry astronomy imaging triangulum ha hancock alpha ccd universe wo hydrogen paramount tmb 4000 osc teleskop astronomie byo f7 mks deepsky 598 68mm lrgb autoguider flattener Astrometrydotnet:status=solved qhy5 130ss Astrometrydotnet:version=14400 gt1100s qhy9m wwwastrofactorscom Astrometrydotnet:id=alpha20111215786719
license: 0
latitude: 43.365234
longitude: -85.93892
accuracy: 16
views: 326
interestingness: 4 out of 229

photo: 6433817603 d665d0d6d1 7158
owner: 34645744@N03
title: Distagon 50mm test
originalsecret: 5e70a2aba7
originalformat: jpg
o_height: 1993
o_width: 2000
datetaken: 2011-11-30 17:45:59
dateupload: 1322702337
tags: ocean sea seascape landscape mar puertorico paisaje oc?ano hasselblad500cm pi?ones distagon50mm lo?za bocadecangrejos finallysomezeissglass ilovemysinghrayreversendgrad thisisaseriouslysharpglass
license: 0
latitude: 18.460687
longitude: -65.991676
accuracy: 16
views: 144
interestingness: 5 out of 229

photo: 6433533363 6216833974 7031
owner: 45939540@N05
title: Megan float - Mamiya C33
originalsecret: 6384b5c2cc
originalformat: jpg
o_height: 1024
o_width: 1039
datetaken: 2011-11-30 02:01:05
dateupload: 1322698054
tags: 
license: 4
latitude: 45.511791
longitude: -122.675628
accuracy: 11
views: 335
interestingness: 6 out of 229

photo: 6433749813 ae3067c440 7145
owner: 40700587@N02
title: first day of winter
originalsecret: null
originalformat: null
o_height: null
o_width: null
datetaken: 2011-11-28 18:33:19
dateupload: 1322701341
tags: 
license: 0
latitude: 38.581251
longitude: 23.540568
accuracy: 14
views: 56
interestingness: 7 out of 229

photo: 6433727867 74b16427e1 7031
owner: 33537501@N08
title: flower in a pond.
originalsecret: 844592880f
originalformat: jpg
o_height: 3000
o_width: 4000
datetaken: 2011-07-20 20:54:20
dateupload: 1322701008
tags: 
license: 0
latitude: 53.802951
longitude: -7.92489
accuracy: 1
views: 489
interestingness: 8 out of 229

photo: 6425622847 8be1967bcd 6214
owner: 22636309@N06
title: Kt@Awajishima Waterfall
originalsecret: null
originalformat: null
o_height: null
o_width: null
datetaken: 2011-08-11 10:33:11
dateupload: 1322711797
tags: park light portrait people woman white black flower sexy slr art water girl beautiful japan umbrella canon dark asian photography waterfall interesting women natural bokeh good feminine awesome flash explore more most portraiture mostinteresting ambient 5d format canon5d dslr softbox reflector tomomi ? ?? ? ?????? ? ?? aiya awajishima ilko asianbeauty ??? ?? chinen ???? strobist ???? 80x60 ?????? beautyshoots allexandroff ???
license: 0
latitude: 34.309923
longitude: 134.876695
accuracy: 12
views: 984
interestingness: 9 out of 229

photo: 6434429187 6cf6112b14 7006
owner: 7370135@N03
title: 166/365- Birds and branches
originalsecret: null
originalformat: null
o_height: null
o_width: null
datetaken: 2011-11-30 22:49:03
dateupload: 1322711343
tags: sky cloud bird birds clouds photography florida cloudy o branches darkclouds matic apps group3 iphone cwd project365 i365 iphone4 takeaclasswithdaveanddave pixlr iphonography elineart elineartphotography birdsandbranches iphone365 snapseed cwd2511 cwd2511~birdorbirds
license: 0
latitude: 26.272489
longitude: -80.253059
accuracy: 11
views: 104
interestingness: 10 out of 229

photo: 6434346453 7d2deeeb2a 7174
owner: 65788104@N08
title: Red Kite.
originalsecret: null
originalformat: null
o_height: null
o_width: null
datetaken: 2011-02-12 16:14:40
dateupload: 1322710141
tags: wales canon sigma redkite milvusmilvus gigrinfarm theredkites
license: 0
latitude: 52.302705
longitude: -3.502578
accuracy: 11
views: 54
interestingness: 11 out of 229

photo: 6433564103 3528fc5d4d 7170
owner: 27051251@N03
title: Di luar kau emas di dalam kau plastik... puihhhh
originalsecret: null
originalformat: null
o_height: null
o_width: null
datetaken: 2011-11-19 19:08:26
dateupload: 1322698572
tags: longexposure sunset seascape canon eos portdickson pasirpanjang gnd ef1740mmf4lusm leefilters azralfikri shazral 5dmark2 09soft
license: 0
latitude: 2.425537
longitude: 101.937675
accuracy: 12
views: 64
interestingness: 12 out of 229

photo: 6433929213 cf23d441c3 7007
owner: 33281223@N08
title: McMeow
originalsecret: 563ff8f8c8
originalformat: jpg
o_height: 4256
o_width: 2832
datetaken: 2011-11-23 10:57:01
dateupload: 1322704015
tags: portrait macro eye animal cat fur nose nikon flash micro whisker nikkor speedlight f28 105mm strobist su800 nikkor105mmf28macro sb900 d3s
license: 0
latitude: 23.181447
longitude: 113.313679
accuracy: 16
views: 155
interestingness: 13 out of 229

photo: 6433533465 e59b3f1a9d 7014
owner: 45939540@N05
title: Megan - Mamiya C33
originalsecret: 4bbd8c3c97
originalformat: jpg
o_height: 1024
o_width: 1039
datetaken: 2011-11-30 02:01:38
dateupload: 1322698055
tags: 
license: 4
latitude: 45.513203
longitude: -122.676429
accuracy: 11
views: 162
interestingness: 14 out of 229

photo: 6434203719 1b5a5ba904 7017
owner: 16112759@N02
title: December comes, X'mas comes...
originalsecret: null
originalformat: null
o_height: null
o_width: null
datetaken: 2011-11-27 15:22:43
dateupload: 1322707979
tags: christmas hongkong december olympus f18 45mm lightroom 2011 m43 epen mft mzd microfourthirds mzuikodigital epl3
license: 0
latitude: 22.312006
longitude: 114.225518
accuracy: 15
views: 102
interestingness: 15 out of 229

photo: 6433510657 a1d91225de 7035
owner: 33321572@N04
title: Bridging the Gap
originalsecret: null
originalformat: null
o_height: null
o_width: null
datetaken: 2011-11-26 07:36:03
dateupload: 1322697684
tags: morning november winter arizona sky usa cold tree water grass photoshop nikon rocks dof unitedstates perspective wideangle az limbs hdr prescott topaz 2011 photomatix d700 1424mm
license: 0
latitude: 34.586257
longitude: -112.415585
accuracy: 15
views: 113
interestingness: 16 out of 229

photo: 6434039749 78ab6d69a6 7014
owner: 10455329@N08
title: Late November Arrives in Southern California
originalsecret: null
originalformat: null
o_height: null
o_width: null
datetaken: 2011-11-29 17:28:21
dateupload: 1322705598
tags: november autumn nature leaves fallcolors southerncalifornia agourahills
license: 0
latitude: 34.124932
longitude: -118.749632
accuracy: 14
views: 37
interestingness: 17 out of 229

photo: 6434782845 0eb8740296 7156
owner: 7997148@N05
title: Hello December!
originalsecret: 671f139862
originalformat: jpg
o_height: 1405
o_width: 2031
datetaken: 2011-12-01 05:30:39
dateupload: 1322716839
tags: morning sky film beach silhouette clouds analog sunrise 35mm december nikonfm nhatrangvietnam ng??cs?ng uxisuper200
license: 2
latitude: 12.24987
longitude: 109.196029
accuracy: 11
views: 96
interestingness: 18 out of 229

photo: 6434259037 f173e9b528 7150
owner: 50473412@N00
title: IMG_9858-Edit II- J Prince.jpg
originalsecret: a966a68cef
originalformat: jpg
o_height: 3456
o_width: 5184
datetaken: 2011-11-30 19:42:40
dateupload: 1322708853
tags: wood pink brown white black cat canon silver cherry toy photo milk bed feline doll soft cookie child purple floor jane action bees alien kitty mat 7d worn backdrop meow weathered pedals tortie sleigh 800 86 props prop plm whitewash actions damask furnature barnwood 2470 floorabella
license: 0
latitude: 30.17604
longitude: -97.616851
accuracy: 16
views: 90
interestingness: 19 out of 229

photo: 6434386015 bba8d3ef1d 7173
owner: 49753370@N07
title: seawall and sunrise
originalsecret: null
originalformat: null
o_height: null
o_width: null
datetaken: 2011-05-21 06:01:27
dateupload: 1322710735
tags: 
license: 0
latitude: 34.308632
longitude: -119.354717
accuracy: 15
views: 78
interestingness: 20 out of 229

photo: 6434360561 9bb2ca0e84 7035
owner: 12471248@N08
title: Stranger 036/100
originalsecret: null
originalformat: null
o_height: null
o_width: null
datetaken: 2011-11-28 10:24:11
dateupload: 1322710348
tags: sanfrancisco portrait people unionsquare tailor brooksbrothers 100strangers
license: 0
latitude: 37.787911
longitude: -122.410663
accuracy: 13
views: 99
interestingness: 21 out of 229

photo: 6434381439 28979fa8f8 7164
owner: 38816590@N00
title: Rachael Gilg
originalsecret: null
originalformat: null
o_height: null
o_width: null
datetaken: 2011-11-27 14:58:06
dateupload: 1322710664
tags: beautydish rachaelgilg
license: 0
latitude: 38.918167
longitude: -77.045853
accuracy: 16
views: 152
interestingness: 22 out of 229

photo: 6434231917 c2ee4c9fac 7024
owner: 41304880@N05
title: The Night Is Not Over Yet
originalsecret: 368905db48
originalformat: jpg
o_height: 4288
o_width: 2848
datetaken: 2011-11-28 20:35:14
dateupload: 1322708449
tags: portrait girl fashion night model dress x100 nightonearth strobist
license: 0
latitude: 30.249762
longitude: -97.750082
accuracy: 16
views: 346
interestingness: 23 out of 229

photo: 6434754823 66d66280c0 7173
owner: 49625194@N02
title: Red-Tailed Hawk in NYC [Explore]
originalsecret: null
originalformat: null
o_height: null
o_width: null
datetaken: 2011-11-30 10:29:32
dateupload: 1322716363
tags: nyc newyorkcity bird flying high wings feathers soaring redtailedhawk tamron75300mm mickcanon
license: 0
latitude: 40.731887
longitude: -73.810615
accuracy: 13
views: 74
interestingness: 24 out of 229

photo: 6433540133 8be3144324 7031
owner: 27531711@N08
title: Grand Canyon of the Yellowstone
originalsecret: null
originalformat: null
o_height: null
o_width: null
datetaken: 2011-09-22 11:11:27
dateupload: 1322698163
tags: summer usa water rock creek river stream sunny yellowstonenationalpark wyoming yellowstoneriver grandcanyonoftheyellowstone johncothron cothronphotography
license: 0
latitude: 44.726163
longitude: -110.481506
accuracy: 16
views: 88
interestingness: 25 out of 229

photo: 6434661599 d6b69b2679 7149
owner: 52048714@N02
title: Matt Lajoie
originalsecret: null
originalformat: null
o_height: null
o_width: null
datetaken: 2011-11-30 18:53:50
dateupload: 1322714779
tags: portrait man coworker helmet
license: 0
latitude: 43.651447
longitude: -79.390007
accuracy: 15
views: 121
interestingness: 26 out of 229

photo: 6434254091 e62d97aa5c 7029
owner: 54137689@N02
title: ??????????? ??????
originalsecret: 4d4a23d750
originalformat: jpg
o_height: 960
o_width: 1280
datetaken: 2011-12-01 12:04:48
dateupload: 1322708778
tags: street camera autumn home apricot ?? khabarovsk
license: 0
latitude: 48.487486
longitude: 135.109863
accuracy: 5
views: 18
interestingness: 27 out of 229

photo: 6434618207 8f28ccbf89 7150
owner: 32134562@N08
title: A Squirrel's View at the Boston Public Garden
originalsecret: null
originalformat: null
o_height: null
o_width: null
datetaken: 2011-11-30 12:23:09
dateupload: 1322714115
tags: park autumn trees fall colors grass leaves statue boston massachusetts vivid beaconhill commonpark
license: 0
latitude: 42.355229
longitude: -71.071854
accuracy: 15
views: 88
interestingness: 28 out of 229

photo: 6434247335 6276b9e315 7024
owner: 57768536@N05
title: Blue Pallet
originalsecret: 8732c35c47
originalformat: jpg
o_height: 2443
o_width: 2443
datetaken: 2011-12-01 12:30:59
dateupload: 1322708677
tags: mygearandme
license: 1
latitude: -34.931123
longitude: 138.597996
accuracy: 16
views: 38
interestingness: 29 out of 229

photo: 6434143205 7a2f0a6837 7008
owner: 34112759@N02
title: Ensaio Zinz?lia Souza na s?rie "sensual" - Uau? - Bahia
originalsecret: 42547f2b40
originalformat: jpg
o_height: 1000
o_width: 667
datetaken: 2011-11-27 19:23:55
dateupload: 1322707081
tags: wien salzburg film brasil alpes ?sterreich anal?gica cowboy europa piano brasilien musik viena crian?as m?sica pretoebranco voigtl?nder sonata vaqueiro conceitual ?????? ??????? ?????????? ?ustria ???? sittendorf schwarzundweis ???????? ??????? ????? ?????????? robsonrodrigues franztagore ??????????????????????????????????? ?????????? ???????????????????????????????????????????????????????????????????????????????? ????? ????????? ????????? wieninbewegung conceiptual curundundum ?serradojer?nimo? modelozinz?liasouzasilva 18anoszinzeliahotmailcomaltura170mocupa??ovendedoranaturaldeveredabalocaldoensaiouau?bahiafotografiafranztagoremaquiagemjamiledossantosedi??onolightroomfranztagorec?merasusadasnoensaiocanon300d
license: 0
latitude: -9.83086
longitude: -39.572753
accuracy: 8
views: 65
interestingness: 30 out of 229

photo: 6434418815 8267d65222 7159
owner: 23396421@N05
title: 326/365: Last Bits of Green
originalsecret: ff441c357b
originalformat: jpg
o_height: 2448
o_width: 3264
datetaken: 2011-11-23 16:21:29
dateupload: 1322711190
tags: 365 project365 iphone4s
license: 0
latitude: 41.632666
longitude: -93.7505
accuracy: 16
views: 66
interestingness: 31 out of 229

photo: 6434058593 49f4b026e7 7163
owner: 84071758@N00
title: Threes - 365 Day 319
originalsecret: null
originalformat: null
o_height: null
o_width: null
datetaken: 2011-11-19 18:46:14
dateupload: 1322705880
tags: portrait selfportrait self id flash idaho boise speedlight creativeflash offcameraflash creativelight 365project canon580exii canon5dmarkii
license: 0
latitude: 43.605131
longitude: -116.193809
accuracy: 11
views: 116
interestingness: 32 out of 229

photo: 6434384353 fe00904605 7008
owner: 27339074@N08
title: Evergreen Dazed
originalsecret: 6054a81748
originalformat: jpg
o_height: 2075
o_width: 3130
datetaken: 2011-07-23 17:21:58
dateupload: 1322710709
tags: trees sun sunshine 35mm toycamera grain bluesky lomolca lensflare washingtonstate russiancamera kodak200 evergree takhlakalake
license: 0
latitude: 46.276139
longitude: -121.59748
accuracy: 16
views: 59
interestingness: 33 out of 229

photo: 6434108863 ba57a40330 7014
owner: 8713703@N08
title: Picnic Place
originalsecret: null
originalformat: null
o_height: null
o_width: null
datetaken: 2011-11-26 14:21:39
dateupload: 1322706598
tags: california montereycounty pocketcamera cottonwoodtree sanantoniolake thanksgivingcamping canonpowershots100
license: 0
latitude: 35.863491
longitude: -120.97666
accuracy: 15
views: 56
interestingness: 34 out of 229

photo: 6434745649 2711409163 7012
owner: 28523661@N07
title: Mahel Abdi Muse and Muhicdin Abdulahi Ismail in Hargeisa, Somaliland
originalsecret: b6326d0b72
originalformat: jpg
o_height: 2362
o_width: 3563
datetaken: 2011-12-01 06:08:27
dateupload: 1322716201
tags: from leica faces kodak police noctilux somalia somaliland hargeisa trix400 095 m3p hargeysa facesfromsomaliland
license: 4
latitude: 9.560529
longitude: 44.060169
accuracy: 11
views: 97
interestingness: 35 out of 229

photo: 6433823859 396579236f 7018
owner: 60232314@N03
title: The First Snow
originalsecret: null
originalformat: null
o_height: null
o_width: null
datetaken: 2011-11-30 14:43:26
dateupload: 1322702431
tags: trees winter sunset sky sun snow tree weather stone pinetree digital landscape michigan pines nikon18135mmf3556g puremichigan ronibear
license: 0
latitude: 42.940339
longitude: -83.775215
accuracy: 11
views: 23
interestingness: 36 out of 229

photo: 6433924507 cf227133a2 7163
owner: 52048714@N02
title: Test Pilot
originalsecret: null
originalformat: null
o_height: null
o_width: null
datetaken: 2011-11-30 18:54:01
dateupload: 1322703941
tags: portrait man coworker helmet strobe
license: 0
latitude: 43.651447
longitude: -79.390007
accuracy: 15
views: 87
interestingness: 37 out of 229

photo: 6434617115 72f0f7f98a 7175
owner: 32134562@N08
title: Boston Under the Sun
originalsecret: null
originalformat: null
o_height: null
o_width: null
datetaken: 2011-11-30 11:00:18
dateupload: 1322714098
tags: cambridge boston skyline river landscape day view mit massachusetts wide charles sum
license: 0
latitude: 42.354556
longitude: -71.100136
accuracy: 15
views: 102
interestingness: 38 out of 229

photo: 6433676631 61f586fd86 7147
owner: 41755668@N00
title: Retro-Recording of OWS
originalsecret: null
originalformat: null
o_height: null
o_width: null
datetaken: 2011-11-08 15:57:05
dateupload: 1322700246
tags: usa newyork us ows zuccottipark occupywallstreet
license: 0
latitude: 40.708995
longitude: -74.010744
accuracy: 15
views: 73
interestingness: 39 out of 229

photo: 6433706843 5f815d8bb0 7175
owner: 65146752@N04
title: Chacott V Pointe Shoes
originalsecret: 8466a8848e
originalformat: jpg
o_height: 2832
o_width: 1993
datetaken: 2011-11-30 17:28:04
dateupload: 1322700677
tags: camera ballet dead shoes toe with pointe duchess
license: 0
latitude: 41.884151
longitude: -87.632408
accuracy: 11
views: 100
interestingness: 40 out of 229

photo: 6434139123 bf281c4e0e 7149
owner: 21455613@N05
title: walk
originalsecret: null
originalformat: null
o_height: null
o_width: null
datetaken: 2011-11-30 11:23:16
dateupload: 1322707024
tags: winter sun ontario canada cold texture hat photoshop lunch nikon day angle path walk wide overlay sudbury fullframe fx midday mid d700 tokina1628mm28
license: 0
latitude: 46.4107
longitude: -81.137123
accuracy: 13
views: 78
interestingness: 41 out of 229

photo: 6434400569 09131dde23 7145
owner: 52028595@N04
title: hover
originalsecret: 892b161774
originalformat: jpg
o_height: 680
o_width: 1024
datetaken: 2011-09-07 13:58:46
dateupload: 1322710935
tags: trip blue red vacation sky white beach yellow clouds sand locals cuba palmtrees hover designated ciegodeavila trypcayococo nikond90 solcayococo af24120mmnikkor localcubanpeople
license: 0
latitude: 22.534439
longitude: -78.355865
accuracy: 10
views: 39
interestingness: 42 out of 229

photo: 6433668117 c96030c660 7033
owner: 65146752@N04
title: Chacott V Pointe Shoes
originalsecret: 1f7fcde5dc
originalformat: jpg
o_height: 1354
o_width: 1137
datetaken: 2011-11-30 17:32:48
dateupload: 1322700124
tags: camera ballet dead shoes toe with dancer v pointe duchess chacott
license: 0
latitude: 41.884151
longitude: -87.632408
accuracy: 11
views: 88
interestingness: 43 out of 229

photo: 6434744103 033b70c10b 7150
owner: 27642628@N08
title: Lisa Featherstone
originalsecret: null
originalformat: null
o_height: null
o_width: null
datetaken: 2011-11-30 22:43:40
dateupload: 1322716174
tags: portrait pinup ghholtphotography santababysexysanta
license: 0
latitude: 35.007696
longitude: -80.94381
accuracy: 15
views: 131
interestingness: 44 out of 229

photo: 6433855861 9ea0e2187b 7017
owner: 51198921@N06
title: joe's shoes... pizazz!
originalsecret: d1f9e28b68
originalformat: jpg
o_height: 1452
o_width: 1936
datetaken: 2011-11-30 17:23:28
dateupload: 1322702906
tags: camera red chicago downtown crossprocess dearborn iphone lomora2
license: 0
latitude: 41.882138
longitude: -87.628809
accuracy: 16
views: 94
interestingness: 45 out of 229

photo: 6434361675 65444769c6 7171
owner: 35600217@N07
title: Self, Movember
originalsecret: 1925460382
originalformat: jpg
o_height: 770
o_width: 1024
datetaken: 2011-11-30 22:37:52
dateupload: 1322710366
tags: camera boy portrait man self mirror edinburgh lol movember moustache f18 tache fail ef50mmf18 2011 prostatecancer canoneos500d mrjaja
license: 0
latitude: 55.945041
longitude: -3.20348
accuracy: 16
views: 64
interestingness: 46 out of 229

photo: 6434143225 dd9751d3a0 7148
owner: 34112759@N02
title: Ensaio Zinz?lia Souza na s?rie "sensual" - Uau? - Bahia
originalsecret: 6dc0cbe27c
originalformat: jpg
o_height: 1000
o_width: 667
datetaken: 2011-11-27 20:13:15
dateupload: 1322707082
tags: wien salzburg film brasil alpes ?sterreich anal?gica cowboy europa piano brasilien musik viena crian?as m?sica pretoebranco voigtl?nder sonata vaqueiro conceitual ?????? ??????? ?????????? ?ustria ???? sittendorf schwarzundweis ???????? ??????? ????? ?????????? robsonrodrigues franztagore ??????????????????????????????????? ?????????? ???????????????????????????????????????????????????????????????????????????????? ????? ????????? ????????? wieninbewegung conceiptual curundundum ?serradojer?nimo? modelozinz?liasouzasilva 18anoszinzeliahotmailcomaltura170mocupa??ovendedoranaturaldeveredabalocaldoensaiouau?bahiafotografiafranztagoremaquiagemjamiledossantosedi??onolightroomfranztagorec?merasusadasnoensaiocanon300d
license: 0
latitude: -9.83086
longitude: -39.572753
accuracy: 8
views: 57
interestingness: 47 out of 229

photo: 6434143211 abed19f460 7018
owner: 34112759@N02
title: Ensaio Zinz?lia Souza na s?rie "sensual" - Uau? - Bahia
originalsecret: 586a14d597
originalformat: jpg
o_height: 1000
o_width: 667
datetaken: 2011-11-27 19:23:59
dateupload: 1322707082
tags: wien salzburg film brasil alpes ?sterreich anal?gica cowboy europa piano brasilien musik viena crian?as m?sica pretoebranco voigtl?nder sonata vaqueiro conceitual ?????? ??????? ?????????? ?ustria ???? sittendorf schwarzundweis ???????? ??????? ????? ?????????? robsonrodrigues franztagore ??????????????????????????????????? ?????????? ???????????????????????????????????????????????????????????????????????????????? ????? ????????? ????????? wieninbewegung conceiptual curundundum ?serradojer?nimo? modelozinz?liasouzasilva 18anoszinzeliahotmailcomaltura170mocupa??ovendedoranaturaldeveredabalocaldoensaiouau?bahiafotografiafranztagoremaquiagemjamiledossantosedi??onolightroomfranztagorec?merasusadasnoensaiocanon300d
license: 0
latitude: -9.83086
longitude: -39.572753
accuracy: 8
views: 27
interestingness: 48 out of 229

photo: 6434677569 42cb4b3d7f 7030
owner: 20741443@N00
title: street at night
originalsecret: 700df5e2e0
originalformat: jpg
o_height: 2731
o_width: 2048
datetaken: 2011-09-28 20:30:00
dateupload: 1322715020
tags: street toronto ontario canada film night canon king gimp motionblur 400 handheld bluehour kingstreet kingst af35m easypix canonaf35m filmphotographypodcast 72770015edit
license: 1
latitude: 43.649157
longitude: -79.377926
accuracy: 16
views: 50
interestingness: 49 out of 229

photo: 6433822543 edc42d5d86 7030
owner: 73009531@N00
title: IkonVisuals1753
originalsecret: null
originalformat: null
o_height: null
o_width: null
datetaken: 2011-11-19 03:05:11
dateupload: 1322702410
tags: blackandwhite bw woman sexy girl monochrome beautiful flesh female mouth asian japanese blackwhite model eyes skin profile chinese lips sensual sultry lowkey seductive alluring canon400d
license: 0
latitude: 1.450614
longitude: 103.814224
accuracy: 16
views: 229
interestingness: 50 out of 229

photo: 6433686247 5e4ea20465 7001
owner: 72994507@N00
title: Shadows - Toronto, November 2011
originalsecret: 41ccd1ee34
originalformat: jpg
o_height: 2944
o_width: 2362
datetaken: 2011-11-16 17:16:03
dateupload: 1322700381
tags: toronto ontario canada blur motionblur collegestreet
license: 0
latitude: 43.659943
longitude: -79.390066
accuracy: 16
views: 21
interestingness: 51 out of 229

photo: 6434044853 d21eba655b 7146
owner: 63114962@N08
title: Santa Barbara Sunrise 1999
originalsecret: 54492963ca
originalformat: jpg
o_height: 480
o_width: 640
datetaken: 1999-11-10 06:24:07
dateupload: 1322705672
tags: california road ca camera party mountain history beautiful santabarbara composition digital sunrise photography cool fuji view awakening rad memories happiness 1999 oldschool revolution mtn fujifilm hightech enlightenment affluence lifted empowerment madskills mx2900zoom firstdigitalcamera highonamountain tcmorgan
license: 1
latitude: 34.470228
longitude: -119.740548
accuracy: 13
views: 76
interestingness: 52 out of 229

photo: 6434787657 24ed5ea855 7024
owner: 32277362@N06
title: Mr.
originalsecret: null
originalformat: null
o_height: null
o_width: null
datetaken: 2011-12-01 14:22:10
dateupload: 1322716930
tags: kind
license: 0
latitude: 35.122153
longitude: 137.008303
accuracy: 16
views: 54
interestingness: 53 out of 229

photo: 6434322543 5564e83a7f 7032
owner: 58697331@N02
title: Courtney
originalsecret: null
originalformat: null
o_height: null
o_width: null
datetaken: 2011-11-28 11:27:53
dateupload: 1322709806
tags: auto camera city film canon hair way outdoors town reflex alley day dof sunny purse tc blonde fixed konica usm 18 length ultrasonic focal 85m t2i
license: 0
latitude: 40.29924
longitude: -79.543159
accuracy: 11
views: 190
interestingness: 54 out of 229

photo: 6434623255 15c3b21a0f 7021
owner: 32134562@N08
title: Paul Revere at the Entrance of Boston Public Garden
originalsecret: null
originalformat: null
o_height: null
o_width: null
datetaken: 2011-11-30 12:26:15
dateupload: 1322714190
tags: 
license: 0
latitude: 42.353695
longitude: -71.071414
accuracy: 16
views: 68
interestingness: 55 out of 229

photo: 6434511797 e2e199167f 7173
owner: 39792237@N02
title: Odd clouds - Reflection flipped 180 degrees
originalsecret: null
originalformat: null
o_height: null
o_width: null
datetaken: 2011-11-30 13:37:13
dateupload: 1322712546
tags: mist reflections centralpark upperpond TGAM:photodesk=details TGAM:photodesk=architecture
license: 0
latitude: 49.226033
longitude: -123.019709
accuracy: 14
views: 37
interestingness: 56 out of 229

photo: 6434045603 e47f5428ef 7162
owner: 49293211@N06
title: 
originalsecret: null
originalformat: null
o_height: null
o_width: null
datetaken: 2011-11-19 13:19:03
dateupload: 1322705683
tags: wedding newzealand blackandwhite bw matt aperture nikon soft matthew nz cromwell quintin mccutcheon oldcromwell d7000
license: 0
latitude: -45.049516
longitude: 169.20722
accuracy: 16
views: 105
interestingness: 57 out of 229

photo: 6433667991 ce1c1285e8 7007
owner: 65146752@N04
title: Chacott V Pointe Shoes
originalsecret: fc363df636
originalformat: jpg
o_height: 2312
o_width: 2635
datetaken: 2011-11-30 17:38:55
dateupload: 1322700122
tags: camera ballet dead shoes toe with dancer v pointe duchess chacott
license: 0
latitude: 41.884151
longitude: -87.632408
accuracy: 11
views: 80
interestingness: 58 out of 229

photo: 6434704485 2e3b9feea5 7154
owner: 7305851@N07
title: Thanksgiving in Troup
originalsecret: null
originalformat: null
o_height: null
o_width: null
datetaken: 2011-11-26 16:02:56
dateupload: 1322708263
tags: ranch fall landscape geotagged texas unitedstates tx thanksgivingweekend hdr lightroom troup 2011 3xp photomatix canonef50mmf18ii tonemapped 2ev tthdr greengrasses realistichdr detailsenhancer canoneos7d fisherranch ?ianaberle geo:lat=32155568 geo:lon=95194178
license: 0
latitude: 32.155568
longitude: -95.194178
accuracy: 14
views: 49
interestingness: 59 out of 229

photo: 6433667687 84d7a53f42 7149
owner: 65146752@N04
title: Chacott V Pointe Shoes
originalsecret: f9d9c569b5
originalformat: jpg
o_height: 1236
o_width: 1949
datetaken: 2011-11-30 17:34:10
dateupload: 1322700118
tags: camera ballet dead shoes toe with dancer v pointe duchess chacott
license: 0
latitude: 41.884151
longitude: -87.632408
accuracy: 11
views: 72
interestingness: 60 out of 229

photo: 6434287911 3737f19ed2 7035
owner: 69409518@N05
title: Not gonna change
originalsecret: null
originalformat: null
o_height: null
o_width: null
datetaken: 2011-11-22 14:04:18
dateupload: 1322709282
tags: camera portrait brown selfportrait cute argentina girl beautiful smile face hair photography eyes buenosaires nikon braces gorgeous laugh nikond3000
license: 0
latitude: -34.537459
longitude: -58.490674
accuracy: 16
views: 322
interestingness: 61 out of 229

photo: 6434069049 7691460c28 7160
owner: 27064297@N04
title: First Snow
originalsecret: null
originalformat: null
o_height: null
o_width: null
datetaken: 2011-11-30 09:55:18
dateupload: 1322706038
tags: winter white snow black fence brighton michigan genoatownship canoneos60d
license: 0
latitude: 42.54437
longitude: -83.820705
accuracy: 14
views: 51
interestingness: 62 out of 229

photo: 6434734723 3027aacd85 7024
owner: 28523661@N07
title: Qaabil Cayiid Yaasiin, Officer in the Mandheera Jailhouse, Somaliland
originalsecret: 803680586f
originalformat: jpg
o_height: 1619
o_width: 2442
datetaken: 2011-12-01 19:16:15
dateupload: 1322715994
tags: pirates prison jail piracy somalia somaliland jailhouse mandera mandheera mandhera
license: 4
latitude: 9.907916
longitude: 44.713411
accuracy: 16
views: 31
interestingness: 63 out of 229

photo: 6433968113 2a488eeccd 7028
owner: 44848889@N04
title: Crab Cove
originalsecret: a07eb35cb1
originalformat: jpg
o_height: 3496
o_width: 4165
datetaken: 2011-11-30 18:03:51
dateupload: 1322704582
tags: longexposure water canon alameda xsi crabcove
license: 0
latitude: 37.767814
longitude: -122.279334
accuracy: 14
views: 27
interestingness: 64 out of 229

photo: 6434352355 46db142292 7173
owner: 72994507@N00
title: Walking - Toronto, November 2011
originalsecret: e916f74941
originalformat: jpg
o_height: 2700
o_width: 1868
datetaken: 2011-11-16 17:16:36
dateupload: 1322710229
tags: toronto ontario canada blur motionblur collegestreet icm intentionalcameramovement
license: 0
latitude: 43.659959
longitude: -79.390001
accuracy: 16
views: 27
interestingness: 65 out of 229

photo: 6433668275 c8889e49b1 7161
owner: 65146752@N04
title: Chacott V Pointe Shoes
originalsecret: 9ddeffc584
originalformat: jpg
o_height: 1615
o_width: 1751
datetaken: 2011-11-30 17:40:20
dateupload: 1322700125
tags: camera ballet dead shoes toe with dancer v pointe duchess chacott
license: 0
latitude: 41.884151
longitude: -87.632408
accuracy: 11
views: 94
interestingness: 66 out of 229

photo: 6434143221 d7e7785094 7148
owner: 34112759@N02
title: Ensaio Zinz?lia Souza na s?rie "sensual" - Uau? - Bahia
originalsecret: 8b3084af13
originalformat: jpg
o_height: 1000
o_width: 667
datetaken: 2011-11-27 19:32:38
dateupload: 1322707082
tags: wien salzburg film brasil alpes ?sterreich anal?gica cowboy europa piano brasilien musik viena crian?as m?sica pretoebranco voigtl?nder sonata vaqueiro conceitual ?????? ??????? ?????????? ?ustria ???? sittendorf schwarzundweis ???????? ??????? ????? ?????????? robsonrodrigues franztagore ??????????????????????????????????? ?????????? ???????????????????????????????????????????????????????????????????????????????? ????? ????????? ????????? wieninbewegung conceiptual curundundum ?serradojer?nimo? modelozinz?liasouzasilva 18anoszinzeliahotmailcomaltura170mocupa??ovendedoranaturaldeveredabalocaldoensaiouau?bahiafotografiafranztagoremaquiagemjamiledossantosedi??onolightroomfranztagorec?merasusadasnoensaiocanon300d
license: 0
latitude: -9.83086
longitude: -39.572753
accuracy: 8
views: 34
interestingness: 67 out of 229

photo: 6434355109 5c2cae53cb 7142
owner: 11185080@N03
title: National Union of Teachers :  #n30 #strike Pensions Protest : Fishergate Preston :
originalsecret: null
originalformat: null
o_height: null
o_width: null
datetaken: 2011-11-30 03:14:47
dateupload: 1322710268
tags: england people english digital photoshop nikon zoom flash north lancashire adobe preston british nikkor lenses nikond1x d1x alienskinexposure 70210mmf4af metz54mz3 nikonzoom70210mmf4series nikkor70210mmf4afzoom solidarityandworkers
license: 0
latitude: 53.758518
longitude: -2.697289
accuracy: 16
views: 47
interestingness: 68 out of 229

photo: 6434148931 c95147a336 7030
owner: 30079014@N03
title: John Forrest Natioal Park, WA, Australia
originalsecret: 35d3e6d449
originalformat: jpg
o_height: 1172
o_width: 760
datetaken: 2011-10-24 12:00:03
dateupload: 1322707168
tags: plants film fauna nationalpark kodak minoltax700 australia wa westernaustralia kodakgold100 nativeplants johnforrestnationalpark xanthorrhoea balgagrass
license: 0
latitude: -31.891186
longitude: 116.091327
accuracy: 13
views: 25
interestingness: 69 out of 229

photo: 6434474385 03d510ae9c 7001
owner: 14135438@N00
title: Pool & Hot Tub, Sunset (my pool that I never use)
originalsecret: null
originalformat: null
o_height: null
o_width: null
datetaken: 2011-11-30 16:29:59
dateupload: 1322712002
tags: california ca light sunset sky hot pool lens sony low tripod sigma tub 1020 hdr a77 photomatix
license: 0
latitude: 34.147896
longitude: -118.391418
accuracy: 11
views: 40
interestingness: 70 out of 229

photo: 6434399781 e1c0987f69 7034
owner: 52028595@N04
title: their place
originalsecret: 88685bd74e
originalformat: jpg
o_height: 680
o_width: 1024
datetaken: 2011-09-07 12:06:17
dateupload: 1322710926
tags: trip blue red vacation sky white beach yellow sand locals cuba ciegodeavila trypcayococo nikond90 theirplace solcayococo af24120mmnikkor
license: 0
latitude: 22.537531
longitude: -78.36153
accuracy: 16
views: 22
interestingness: 71 out of 229

photo: 6434805603 a8e40880e3 7149
owner: 55998266@N08
title: 2 different generations together
originalsecret: null
originalformat: null
o_height: null
o_width: null
datetaken: 2011-11-29 20:18:07
dateupload: 1322717283
tags: 
license: 0
latitude: 12.979336
longitude: 77.569146
accuracy: 16
views: 25
interestingness: 72 out of 229

photo: 6434323429 9a9c2348f9 7021
owner: 54137689@N02
title: IMGP8114
originalsecret: 50f3517ed6
originalformat: jpg
o_height: 1944
o_width: 2592
datetaken: 2010-10-25 06:44:33
dateupload: 1322709820
tags: street camera city winter tree sanpo ? ? ?? khabarovsk
license: 0
latitude: 48.458351
longitude: 135.109863
accuracy: 5
views: 14
interestingness: 73 out of 229

photo: 6434642173 3d21e62cf7 7155
owner: 45790314@N04
title: Delta Ponds
originalsecret: null
originalformat: null
o_height: null
o_width: null
datetaken: 2011-11-30 15:54:46
dateupload: 1322714475
tags: bridge autumn sky water leaves clouds oregon trails delta eugene trail ponds
license: 0
latitude: 44.079338
longitude: -123.108329
accuracy: 14
views: 16
interestingness: 74 out of 229

photo: 6433963545 9942a45099 7171
owner: 44848889@N04
title: Crab Cove
originalsecret: 6f568a325e
originalformat: jpg
o_height: 2844
o_width: 4272
datetaken: 2011-11-30 18:07:05
dateupload: 1322704513
tags: longexposure blackandwhite water canon xsi
license: 0
latitude: 37.76834
longitude: -122.281115
accuracy: 15
views: 17
interestingness: 75 out of 229

photo: 6434429937 8eb4bcdf8e 7144
owner: 24395354@N02
title: Day 334 - Ahhhh?.I Love this Place?.
originalsecret: 96505d2d68
originalformat: jpg
o_height: 471
o_width: 640
datetaken: 2011-11-30 12:44:15
dateupload: 1322711355
tags: water plane flickr photoaday burrardinlet 365 northvancouver iphone 2011 project365 365days 365challenge 365community
license: 0
latitude: 49.29
longitude: -123.119
accuracy: 16
views: 38
interestingness: 76 out of 229

photo: 6434039729 e0e49d8139 7148
owner: 22812711@N05
title: Neon Art Sign
originalsecret: null
originalformat: null
o_height: null
o_width: null
datetaken: 2010-10-04 17:45:08
dateupload: 1322705598
tags: usa
license: 0
latitude: 46.585402
longitude: -120.52967
accuracy: 16
views: 19
interestingness: 77 out of 229

photo: 6433638163 b53e890031 7143
owner: 48187652@N02
title: 2011Nov12_0404
originalsecret: null
originalformat: null
o_height: null
o_width: null
datetaken: 2011-11-12 16:02:14
dateupload: 1322699667
tags: sunset pentax grandcanyon k5 pentaxcamera pentaxian pentaxart pentaxk5
license: 0
latitude: 36.071834
longitude: -112.166204
accuracy: 13
views: 22
interestingness: 78 out of 229

photo: 6434003949 a9420ea153 7162
owner: 7202153@N03
title: Emery's early iPod - an Edison phonograph - Kolb residence - Grand Canyon Village
originalsecret: 4df07a354a
originalformat: jpg
o_height: 3000
o_width: 4000
datetaken: 2011-11-17 15:28:30
dateupload: 1322705101
tags: park arizona building history home architecture movie studio nationalpark village district grandcanyon south grand photographic canyon historic national residence rim southrim kolb grandcanyonnationalpark nationalhistoricdistrict kolbstudio alhikesaz arizonamemoryproject gc2011 kolbresidence grandcanyonvillagehistoricdistrict
license: 2
latitude: 36.057538
longitude: -112.145744
accuracy: 16
views: 38
interestingness: 79 out of 229

photo: 6433952753 4f7d0ef3d9 7007
owner: 46892480@N06
title: 2011-11-29_03[0]
originalsecret: null
originalformat: null
o_height: null
o_width: null
datetaken: 2011-11-29 17:36:42
dateupload: 1322704356
tags: polaroidspectra
license: 0
latitude: 40.454996
longitude: -79.991675
accuracy: 16
views: 6
interestingness: 80 out of 229

photo: 6433640053 4245293b42 7173
owner: 48187652@N02
title: 2011Nov12_0407
originalsecret: null
originalformat: null
o_height: null
o_width: null
datetaken: 2011-11-12 16:02:46
dateupload: 1322699694
tags: sunset pentax grandcanyon k5 pentaxcamera pentaxian pentaxart pentaxk5
license: 0
latitude: 36.071834
longitude: -112.166204
accuracy: 13
views: 22
interestingness: 81 out of 229

photo: 6434805617 8f3440ed45 7032
owner: 55998266@N08
title: ED 'Shakti'
originalsecret: null
originalformat: null
o_height: null
o_width: null
datetaken: 2011-11-29 20:26:34
dateupload: 1322717283
tags: 
license: 0
latitude: 12.980466
longitude: 77.569715
accuracy: 16
views: 32
interestingness: 82 out of 229

photo: 6434345427 99afcd865f 7003
owner: 44149404@N03
title: Spider Mum.
originalsecret: 5e7a05b57f
originalformat: jpg
o_height: 3270
o_width: 3900
datetaken: 2011-10-23 13:12:39
dateupload: 1322710127
tags: flowers macro us pennsylvania content places technical longwoodgardens ringflash takenby peterscamera petersphotos otherkeywords 20111023longwoodflowers
license: 0
latitude: 39.872791
longitude: -75.678935
accuracy: 14
views: 15
interestingness: 83 out of 229

photo: 6434342493 b87a4ac9a6 7173
owner: 11185080@N03
title: #n30 #strike #pcs : PCS Union : Pensions Protest : Morning Star Headline " Kamikaze Osborne " : Flag Market Preston :
originalsecret: null
originalformat: null
o_height: null
o_width: null
datetaken: 2011-11-30 04:23:50
dateupload: 1322710089
tags: uk england people english digital photoshop nikon zoom north wide sigma lancashire adobe 400 preston british 400asa lenses nikond1x d1x alienskinexposure nikonsigma sigma1835mmf3545dasphericalautofocuszoom
license: 0
latitude: 53.759136
longitude: -2.698162
accuracy: 16
views: 36
interestingness: 84 out of 229

photo: 6434476621 17125c1554 7148
owner: 12129079@N07
title: Deserted Factory
originalsecret: null
originalformat: null
o_height: null
o_width: null
datetaken: 2011-12-01 11:56:54
dateupload: 1322712033
tags: bw factory taiwan taipei deserted dianataipeitaiwanbwdesertedfactory
license: 0
latitude: 25.090483
longitude: 121.524615
accuracy: 16
views: 30
interestingness: 85 out of 229

photo: 6434194991 d6a986243b 7155
owner: 8846309@N05
title: Willet
originalsecret: a9b54c26c1
originalformat: jpg
o_height: 683
o_width: 1024
datetaken: 2011-11-30 17:57:57
dateupload: 1322707845
tags: florida stpetes willet
license: 0
latitude: 27.730033
longitude: -82.746791
accuracy: 14
views: 56
interestingness: 86 out of 229

photo: 6433901131 e282c8c773 7027
owner: 11185080@N03
title: Preston Fishergate :  #strike #n30 Pensions Protest March : UNITE Union : A very colourful character ? :
originalsecret: null
originalformat: null
o_height: null
o_width: null
datetaken: 2011-11-30 03:10:22
dateupload: 1322703567
tags: england people english digital photoshop nikon zoom north lancashire adobe preston british nikkor lenses nikond1x d1x alienskinexposure 70210mmf4af nikonzoom70210mmf4series nikkor70210mmf4afzoom
license: 0
latitude: 53.758308
longitude: -2.69966
accuracy: 16
views: 29
interestingness: 87 out of 229

photo: 6433658779 667def5072 7001
owner: 10353403@N02
title: Royle Street, Salford
originalsecret: cbb4448101
originalformat: jpg
o_height: 2035
o_width: 3888
datetaken: 2011-11-24 14:25:28
dateupload: 1322699989
tags: geo:lat=0 geo:lon=0 geocity camera:make=canon camera:model=canoneos400ddigital exif:make=canon exif:iso_speed=200 exif:focal_length=24mm geostate geocountrys exif:model=canoneos400ddigital exif:aperture=?56 exif:lens=ef24mmf28
license: 0
latitude: 53.482063
longitude: -2.292001
accuracy: 15
views: 35
interestingness: 88 out of 229

photo: 6434004439 140fc0c172 7173
owner: 7202153@N03
title: Historic Kolb Studio - Grand Canyon - South Rim
originalsecret: 8fbe2c29f8
originalformat: jpg
o_height: 2468
o_width: 3688
datetaken: 2011-11-17 14:22:48
dateupload: 1322705108
tags: park arizona building history home architecture movie studio nationalpark village district flag grandcanyon south americanflag grand photographic canyon historic national american residence rim southrim kolb grandcanyonnationalpark nationalhistoricdistrict kolbstudio alhikesaz arizonamemoryproject gc2011 kolbresidence grandcanyonvillagehistoricdistrict
license: 2
latitude: 36.057538
longitude: -112.145744
accuracy: 16
views: 57
interestingness: 89 out of 229

photo: 6434481309 c03f187c62 7170
owner: 34252077@N05
title: Window Cleaning
originalsecret: null
originalformat: null
o_height: null
o_width: null
datetaken: 2011-10-04 10:18:58
dateupload: 1322712100
tags: 
license: 0
latitude: 33.756267
longitude: -84.387611
accuracy: 16
views: 36
interestingness: 90 out of 229

photo: 6434307565 5454b10b25 7002
owner: 23396421@N05
title: 325/365: Dark and Dreary
originalsecret: e37fec442e
originalformat: jpg
o_height: 1765
o_width: 2353
datetaken: 2011-11-22 07:16:06
dateupload: 1322709573
tags: 365 project365 iphone4s
license: 0
latitude: 41.591166
longitude: -93.626833
accuracy: 16
views: 37
interestingness: 91 out of 229

photo: 6434218639 8acce69515 7030
owner: 84071758@N00
title: Morning - 365 Day 323
originalsecret: null
originalformat: null
o_height: null
o_width: null
datetaken: 2011-11-23 08:41:11
dateupload: 1322708228
tags: morning sun colors set sunrise landscape shadows id naturallight idaho boise 365project canon5dmarkii
license: 0
latitude: 43.605753
longitude: -116.194152
accuracy: 11
views: 50
interestingness: 92 out of 229

photo: 6434148527 5ceb40a5fc 7142
owner: 30079014@N03
title: John Forrest Natioal Park, WA, Australia
originalsecret: c832195e97
originalformat: jpg
o_height: 1151
o_width: 751
datetaken: 2011-10-24 12:00:02
dateupload: 1322707161
tags: plants fauna gold australia wa westernaustralia johnforrestnationalpark xanthorrhoeaaustralis balgagrass 100minolta filmkodakkodak x700native
license: 0
latitude: -31.891186
longitude: 116.091327
accuracy: 13
views: 6
interestingness: 93 out of 229

photo: 6434143233 896790e01d 7027
owner: 34112759@N02
title: Ensaio Zinz?lia Souza na s?rie "sensual" - Uau? - Bahia
originalsecret: a3afccdf8e
originalformat: jpg
o_height: 1000
o_width: 667
datetaken: 2011-11-27 19:23:53
dateupload: 1322707082
tags: wien salzburg film brasil alpes ?sterreich anal?gica cowboy europa piano brasilien musik viena crian?as m?sica pretoebranco voigtl?nder sonata vaqueiro conceitual ?????? ??????? ?????????? ?ustria ???? sittendorf schwarzundweis ???????? ??????? ????? ?????????? robsonrodrigues franztagore ??????????????????????????????????? ?????????? ???????????????????????????????????????????????????????????????????????????????? ????? ????????? ????????? wieninbewegung conceiptual curundundum ?serradojer?nimo? modelozinz?liasouzasilva 18anoszinzeliahotmailcomaltura170mocupa??ovendedoranaturaldeveredabalocaldoensaiouau?bahiafotografiafranztagoremaquiagemjamiledossantosedi??onolightroomfranztagorec?merasusadasnoensaiocanon300d
license: 0
latitude: -9.83086
longitude: -39.572753
accuracy: 8
views: 52
interestingness: 94 out of 229

photo: 6433965355 577704aaa9 7006
owner: 44848889@N04
title: Crab Cove, Alameda California
originalsecret: cd24f6aea5
originalformat: jpg
o_height: 3507
o_width: 4035
datetaken: 2011-11-30 18:10:00
dateupload: 1322704541
tags: longexposure water canon filter xsi nd8
license: 0
latitude: 37.768543
longitude: -122.280964
accuracy: 14
views: 20
interestingness: 95 out of 229

photo: 6433508367 096727b376 7166
owner: 31116881@N02
title: METROPOLITAN AVENUE
originalsecret: null
originalformat: null
o_height: null
o_width: null
datetaken: 2011-11-30 16:02:05
dateupload: 1322697645
tags: digital reflections photography autoportrait image toycamera picture mirrors futura futura2000 playskool marktwo futuradosmil fvtvra canoneoscincodelta markdos fvtvramm
license: 0
latitude: 40.714313
longitude: -73.928053
accuracy: 14
views: 168
interestingness: 96 out of 229

photo: 6434701003 3317245a92 7035
owner: 73009531@N00
title: IkonVisuals1755
originalsecret: null
originalformat: null
o_height: null
o_width: null
datetaken: 2011-11-19 04:37:49
dateupload: 1322715405
tags: woman sexy feet girl beautiful flesh female mouth naked nude asian japanese model eyes toes sitting skin chinese lips sensual barefeet sultry cleavage lowkey seductive alluring canon400d
license: 0
latitude: 1.450625
longitude: 103.814245
accuracy: 16
views: 405
interestingness: 97 out of 229

photo: 6434245929 68c05ac44b 7016
owner: 20697717@N06
title: Snow in curved space - #333/365
originalsecret: 5eaf98490e
originalformat: jpg
o_height: 1966
o_width: 3305
datetaken: 2011-11-30 12:21:06
dateupload: 1322708656
tags: snow toronto nikon downtown project365 nikond80
license: 1
latitude: 0.000000
longitude: 0.000000
accuracy: 16
views: 39
interestingness: 98 out of 229

photo: 6434216239 20ee263ca4 7152
owner: 73009531@N00
title: IkonVisuals1754
originalsecret: null
originalformat: null
o_height: null
o_width: null
datetaken: 2011-11-19 04:39:06
dateupload: 1322708187
tags: woman sexy feet ass girl beautiful panties flesh female mouth asian japanese model eyes breasts highheels skin butt bra profile chinese lingerie bum lips sensual thong sultry cleavage lowkey seductive alluring squatting canon400d
license: 0
latitude: 1.45063
longitude: 103.814245
accuracy: 16
views: 402
interestingness: 99 out of 229

photo: 6434147361 a24e6e0809 7032
owner: 30079014@N03
title: John Forrest Natioal Park, WA, Australia
originalsecret: f9de6c6f03
originalformat: jpg
o_height: 740
o_width: 1142
datetaken: 2011-10-24 12:00:00
dateupload: 1322707143
tags: plants film fauna nationalpark rocks kodak minoltax700 australia wa westernaustralia kodakgold100 nativeplants johnforrestnationalpark
license: 0
latitude: -31.893044
longitude: 116.093473
accuracy: 13
views: 17
interestingness: 100 out of 229

photo: 6433863067 757f7815de 7009
owner: 57939083@N04
title: summer fun part II
originalsecret: null
originalformat: null
o_height: null
o_width: null
datetaken: 2011-11-30 20:36:08
dateupload: 1322703018
tags: summer beach fun underwater wave disposablecamera
license: 0
latitude: 39.359519
longitude: -9.364814
accuracy: 11
views: 16
interestingness: 101 out of 229

photo: 6434804067 2e0fac1e26 7169
owner: 74382902@N00
title: Jay Alexander showing how to do magic tricks to folks #QtDD11
originalsecret: null
originalformat: null
o_height: null
o_width: null
datetaken: 2011-11-30 21:27:31
dateupload: 1322717251
tags: cameraphone sanfrancisco california camera mobile moblog fun nokia technology phone burlingame qt msjen blackphoebecom photobyjenhanen nokian8 qtquick qtdd11 qtdeveloperdays2011
license: 0
latitude: 37.592199
longitude: -122.359428
accuracy: 11
views: 57
interestingness: 102 out of 229

photo: 6433759279 442b5fbffc 7149
owner: 94513428@N00
title: The Tipping Floor
originalsecret: null
originalformat: null
o_height: null
o_width: null
datetaken: 2011-11-11 10:59:09
dateupload: 1322701484
tags: garbage tour australia rubbish waste westernaustralia philscamera 111111 wastemanagement canningvale smrc rrrc livingsmart regionalresourcerecoverycentre tippingfloor wastecompostingfacility southernmetropolitanregionalcouncil
license: 0
latitude: -32.075715
longitude: 115.888515
accuracy: 16
views: 34
interestingness: 103 out of 229

photo: 6434325703 d95e4b23b6 7145
owner: 54137689@N02
title: IMGP8116
originalsecret: 4649763ce9
originalformat: jpg
o_height: 1944
o_width: 2592
datetaken: 2010-10-25 06:45:25
dateupload: 1322709854
tags: street camera city winter snow tree sanpo ? ? ?? khabarovsk
license: 0
latitude: 48.480204
longitude: 135.153808
accuracy: 5
views: 13
interestingness: 104 out of 229

photo: 6433970601 e7737d0416 7158
owner: 53571973@N05
title: Canon EOS 7d with 55-250 lens
originalsecret: null
originalformat: null
o_height: null
o_width: null
datetaken: 2011-12-01 09:02:50
dateupload: 1322704617
tags: camera canon lens
license: 0
latitude: -37.828779
longitude: 145.253047
accuracy: 14
views: 9
interestingness: 105 out of 229

photo: 6434802021 f888883a9a 7016
owner: 14643312@N02
title: Marquee
originalsecret: a00f813eb8
originalformat: jpg
o_height: 3664
o_width: 4580
datetaken: 2011-11-27 22:16:45
dateupload: 1322717210
tags: abstract reflection night marquee theatre handheld nikonf tungstenfilm colorneg vuescan nikkor50mmf12 nikoncoolscan5000ed ecn2 developingthecamerashopstcloudmn kodakvision3500t5219motionpicturefilm
license: 0
latitude: 41.884565
longitude: -87.628814
accuracy: 16
views: 37
interestingness: 106 out of 229

photo: 6433953161 5a154694bd 7146
owner: 46892480@N06
title: 2011-11-29_04[0]
originalsecret: null
originalformat: null
o_height: null
o_width: null
datetaken: 2011-11-29 17:38:19
dateupload: 1322704362
tags: polaroidspectra
license: 0
latitude: 40.454996
longitude: -79.991675
accuracy: 16
views: 5
interestingness: 107 out of 229

photo: 6433749683 a5415cf907 7024
owner: 72098626@N00
title: Central Park Dance Skaters, Oct 2011 - 17
originalsecret: 6ca27a978d
originalformat: jpg
o_height: 3957
o_width: 2639
datetaken: 2011-10-23 15:28:04
dateupload: 1322701338
tags: newyork bottle dancers centralpark manhattan skate centralparkdanceskaters danceskaters
license: 1
latitude: 40.773277
longitude: -73.971356
accuracy: 16
views: 27
interestingness: 108 out of 229

photo: 6433668497 949e8509f4 7009
owner: 65146752@N04
title: Chacott V Pointe Shoes B&W
originalsecret: bfa23d0aa5
originalformat: jpg
o_height: 3085
o_width: 2358
datetaken: 2011-11-30 17:39:25
dateupload: 1322700129
tags: camera ballet dead shoes toe with dancer v pointe duchess chacott
license: 0
latitude: 41.884151
longitude: -87.632408
accuracy: 11
views: 47
interestingness: 109 out of 229

photo: 6433636133 c0b5902812 7171
owner: 48187652@N02
title: 2011Nov12_0403
originalsecret: null
originalformat: null
o_height: null
o_width: null
datetaken: 2011-11-12 16:02:06
dateupload: 1322699638
tags: sunset pentax grandcanyon k5 pentaxcamera pentaxian pentaxart pentaxk5
license: 0
latitude: 36.071834
longitude: -112.166204
accuracy: 13
views: 14
interestingness: 110 out of 229

photo: 6434790195 a10978cf96 7026
owner: 33988281@N00
title: McNally Cottage
originalsecret: null
originalformat: null
o_height: null
o_width: null
datetaken: 2011-06-29 08:40:09
dateupload: 1322716978
tags: house island michigan mackinacisland smalltown mackinaccounty constructed1889
license: 0
latitude: 45.848236
longitude: -84.618839
accuracy: 16
views: 18
interestingness: 111 out of 229

photo: 6434293521 02ddba6ff2 7152
owner: 11185080@N03
title: PCS Dept for Work & Pensions Preston Central Office Branch + NW Driving Examiners Branch  Fishergate  #n30 #strike #pcs Pensions Protest
originalsecret: null
originalformat: null
o_height: null
o_width: null
datetaken: 2011-11-30 03:13:32
dateupload: 1322709359
tags: uk england people english digital photoshop nikon zoom flash north lancashire adobe preston british nikkor lenses nikond1x d1x alienskinexposure 70210mmf4af metz54mz3 nikonzoom70210mmf4series nikkor70210mmf4afzoom
license: 0
latitude: 53.758283
longitude: -2.699418
accuracy: 16
views: 44
interestingness: 112 out of 229

photo: 6434805611 e93972cbff 7019
owner: 55998266@N08
title: RPM WAP4 22693
originalsecret: null
originalformat: null
o_height: null
o_width: null
datetaken: 2011-11-29 20:22:19
dateupload: 1322717283
tags: 
license: 0
latitude: 12.97884
longitude: 77.568567
accuracy: 16
views: 23
interestingness: 113 out of 229

photo: 6434805599 a130990957 7026
owner: 55998266@N08
title: 12493 SBC NZM Rajdhani
originalsecret: null
originalformat: null
o_height: null
o_width: null
datetaken: 2011-11-29 20:14:59
dateupload: 1322717283
tags: 
license: 0
latitude: 12.981328
longitude: 77.568739
accuracy: 16
views: 21
interestingness: 114 out of 229

photo: 6434220349 307f46fe71 7017
owner: 11185080@N03
title: UNISON  #n30 #strike Preston  : " Average NHS Pension - ?7K Is that Goldplated ? Dave Snooty & his Eton Rifles  - Daily Sieg Heil / Diana / EDL / Mailey Torygraph / Murdoch's Comic ???
originalsecret: null
originalformat: null
o_height: null
o_width: null
datetaken: 2011-11-30 03:11:47
dateupload: 1322708257
tags: uk england people english digital photoshop nikon zoom flash lancashire adobe preston british nikkor lenses nikond1x d1x alienskinexposure 70210mmf4af metz54mz3 nikonzoom70210mmf4series nikkor70210mmf4afzoom
license: 0
latitude: 53.758365
longitude: -2.699182
accuracy: 16
views: 36
interestingness: 115 out of 229

photo: 6434639819 b3f5444e57 7030
owner: 37514440@N02
title: Grand Strand Sunset #myr
originalsecret: null
originalformat: null
o_height: null
o_width: null
datetaken: 2011-11-30 23:40:37
dateupload: 1322714437
tags: camera mobile square thomas squareformat normal filters iphone northmyrtlebeach iphone4 iphotography iphonegraphy iphoneography instagram instagramapp uploaded:by=instagram instagood foursquare:venue=4b9961c3f964a5203a7735e3
license: 3
latitude: 33.81796
longitude: -78.67213
accuracy: 16
views: 0
interestingness: 116 out of 229

photo: 6434512977 8035a73b70 7024
owner: 65073328@N00
title: 2011-11-21 Dray Family 037
originalsecret: 9ba387d0fa
originalformat: jpg
o_height: 1600
o_width: 1074
datetaken: 2011-11-21 16:36:22
dateupload: 1322712562
tags: hat river familyportraits rachelle dreamcoat dreamcoatphotography draperfamily
license: 0
latitude: -27.273913
longitude: 152.979319
accuracy: 16
views: 34
interestingness: 117 out of 229

photo: 6434358167 084795042c 7141
owner: 37514440@N02
title: Under The Pier #myr #LittleRiver
originalsecret: null
originalformat: null
o_height: null
o_width: null
datetaken: 2011-11-30 22:31:53
dateupload: 1322710313
tags: camera mobile square thomas squareformat normal filters iphone northmyrtlebeach iphone4 iphotography iphonegraphy iphoneography instagram instagramapp uploaded:by=instagram instagood foursquare:venue=4d7d21b6cf3f370490a25e40
license: 3
latitude: 33.874884
longitude: -78.590144
accuracy: 16
views: 0
interestingness: 118 out of 229

photo: 6434321379 6e8502b76f 7007
owner: 54137689@N02
title: IMGP8113
originalsecret: 72825426b3
originalformat: jpg
o_height: 1944
o_width: 2592
datetaken: 2011-12-01 12:23:07
dateupload: 1322709787
tags: street camera city winter home apricot sanpo ? ? ?? khabarovsk
license: 0
latitude: 48.509326
longitude: 135.131835
accuracy: 5
views: 12
interestingness: 119 out of 229

photo: 6434310773 d81c0373a7 7023
owner: 10965794@N00
title: Devil Dinosaur vs. Godzilla
originalsecret: null
originalformat: null
o_height: null
o_width: null
datetaken: 2011-11-29 22:52:19
dateupload: 1322709621
tags: show november boy moon comics print poster sketch nc comic dinosaur drawing north books godzilla autograph artists writers convention comicbook carolina devil writer marvel signed autographed morrisville inscribed moonboy srtist
license: 0
latitude: 35.859256
longitude: -78.819313
accuracy: 16
views: 13
interestingness: 120 out of 229

photo: 6434309721 d6f3e4222a 7017
owner: 10965794@N00
title: Zombie Professor Zoom
originalsecret: null
originalformat: null
o_height: null
o_width: null
datetaken: 2011-11-29 22:52:00
dateupload: 1322709605
tags: show november black comics print poster sketch dc nc comic zoom drawing zombie flash north books autograph artists writers convention comicbook carolina writer professor signed autographed morrisville inscribed zombified srtist
license: 0
latitude: 35.859256
longitude: -78.819313
accuracy: 16
views: 11
interestingness: 121 out of 229

photo: 6434308999 2cc420a9a7 7005
owner: 10965794@N00
title: Zombie Professor Zoom aka Black Flash
originalsecret: null
originalformat: null
o_height: null
o_width: null
datetaken: 2011-11-29 22:48:59
dateupload: 1322709594
tags: show november black comics print poster sketch dc nc comic zoom drawing zombie flash north books autograph artists writers convention comicbook carolina writer professor signed autographed morrisville inscribed zombified srtist
license: 0
latitude: 35.859256
longitude: -78.819313
accuracy: 16
views: 19
interestingness: 122 out of 229

photo: 6434294129 623fc52400 7006
owner: 72994507@N00
title: Queen's Park Station, Toronto, November 2011
originalsecret: 0ccc39542b
originalformat: jpg
o_height: 2786
o_width: 1567
datetaken: 2011-11-16 17:00:49
dateupload: 1322709367
tags: toronto ontario canada blur underground subway stair ttc stairway motionblur collegestreet staircase queenspark universityavenue icm torontotransitcommission intentionalcameramovement
license: 0
latitude: 43.660087
longitude: -79.389926
accuracy: 16
views: 16
interestingness: 123 out of 229

photo: 6434169041 cb74b78e20 7033
owner: 37514440@N02
title: Tidal Creek Edge #nmb #myr
originalsecret: null
originalformat: null
o_height: null
o_width: null
datetaken: 2011-11-30 21:44:18
dateupload: 1322707458
tags: camera mobile square thomas squareformat normal filters iphone northmyrtlebeach iphone4 iphotography iphonegraphy iphoneography instagram instagramapp uploaded:by=instagram instagood foursquare:venue=4e4671bea809fb2fa3ea7a9f
license: 3
latitude: 33.867086
longitude: -78.580239
accuracy: 16
views: 0
interestingness: 124 out of 229

photo: 6434147985 c0c9125eed 7170
owner: 30079014@N03
title: John Forrest Natioal Park, WA, Australia
originalsecret: 1b65041ec1
originalformat: jpg
o_height: 779
o_width: 1200
datetaken: 2011-10-24 12:00:01
dateupload: 1322707153
tags: plants gold australia wa westernaustralia xanthorrhoeaaustralis balgagrass johnforrestnationalparkminolta x700filmkodakkodak 100national parkfaunarocksplantsnative
license: 0
latitude: -31.891186
longitude: 116.091327
accuracy: 13
views: 5
interestingness: 125 out of 229

photo: 6434121333 39a8e49772 7152
owner: 60988113@N06
title: Life's adventures
originalsecret: 5468aac760
originalformat: jpg
o_height: 800
o_width: 800
datetaken: 2011-11-29 16:50:39
dateupload: 1322706778
tags: car anaconda suv kenmore
license: 0
latitude: -27.508271
longitude: 152.947239
accuracy: 13
views: 11
interestingness: 126 out of 229

photo: 6434110821 8fb72372cd 7152
owner: 46922592@N00
title: Chelsea & Deborah
originalsecret: null
originalformat: null
o_height: null
o_width: null
datetaken: 2011-10-18 13:41:01
dateupload: 1322706624
tags: ca usa lensbaby walking monterey women path cameras asilomar campshuttersisters
license: 0
latitude: 36.620969
longitude: -121.93777
accuracy: 13
views: 30
interestingness: 127 out of 229

photo: 6433970949 81c3253e52 7012
owner: 53571973@N05
title: Canon EOS 7d with 55-250 lens
originalsecret: null
originalformat: null
o_height: null
o_width: null
datetaken: 2011-12-01 09:04:10
dateupload: 1322704623
tags: camera canon lens
license: 0
latitude: -37.828779
longitude: 145.253047
accuracy: 14
views: 13
interestingness: 128 out of 229

photo: 6433918671 c60a74983f 7170
owner: 33281223@N08
title: McMeow
originalsecret: 8c66b035c2
originalformat: jpg
o_height: 2165
o_width: 2832
datetaken: 2011-11-23 10:57:01
dateupload: 1322703846
tags: portrait macro eye animal cat fur nose nikon flash micro whisker nikkor speedlight f28 105mm strobist su800 nikkor105mmf28macro sb900 d3s
license: 0
latitude: 23.181433
longitude: 113.313669
accuracy: 16
views: 10
interestingness: 129 out of 229

photo: 6433910357 e6bc239bf1 7022
owner: 65112359@N02
title: 2/365 Snowboarding Heaven!
originalsecret: 0b5d2ce703
originalformat: jpg
o_height: 1529
o_width: 2048
datetaken: 2011-11-30 17:41:51
dateupload: 1322703711
tags: sunset snow fog awesome 4 stevens pass chairlift iphone snoqboarding
license: 0
latitude: 47.742209
longitude: -121.096801
accuracy: 13
views: 32
interestingness: 130 out of 229

photo: 6433908407 f8c709784a 7171
owner: 33281223@N08
title: McMeow
originalsecret: e16a569e3d
originalformat: jpg
o_height: 4156
o_width: 2462
datetaken: 2011-11-23 10:56:16
dateupload: 1322703679
tags: portrait macro eye animal cat fur nose nikon flash micro whisker nikkor speedlight f28 105mm strobist su800 nikkor105mmf28macro sb900 d3s
license: 0
latitude: 23.181457
longitude: 113.313615
accuracy: 16
views: 10
interestingness: 131 out of 229

photo: 6433803333 22389c937d 7165
owner: 8255162@N07
title: The Journey Ahead
originalsecret: null
originalformat: null
o_height: null
o_width: null
datetaken: 0000-00-00 00:00:00
dateupload: 1322702137
tags: bw 6x6 rollei mediumformat square whitby squareformat rodinal rolleicord homedeveloped standdevelopment homedevelopment standdeveloped
license: 0
latitude: 54.489585
longitude: -0.610427
accuracy: 11
views: 31
interestingness: 132 out of 229

photo: 6433749703 9c38f6a3ea 7165
owner: 37514440@N02
title: Fall Sunset by the Beach #myr #NMB
originalsecret: null
originalformat: null
o_height: null
o_width: null
datetaken: 2011-11-30 20:02:19
dateupload: 1322701339
tags: camera mobile square thomas squareformat normal filters iphone northmyrtlebeach iphone4 iphotography iphonegraphy iphoneography instagram instagramapp uploaded:by=instagram instagood foursquare:venue=4b9961c3f964a5203a7735e3
license: 3
latitude: 33.81796
longitude: -78.67213
accuracy: 16
views: 0
interestingness: 133 out of 229

photo: 6433742125 492e454179 7173
owner: 72098626@N00
title: Central Park Dance Skaters, Oct 2011 - 15
originalsecret: 41a3582004
originalformat: jpg
o_height: 2801
o_width: 4201
datetaken: 2011-10-23 15:26:58
dateupload: 1322701227
tags: newyork dancers mayor centralpark manhattan skate beret centralparkdanceskaters themayor danceskaters
license: 1
latitude: 40.773277
longitude: -73.971356
accuracy: 16
views: 19
interestingness: 134 out of 229

photo: 6433734899 d16df83274 7007
owner: 72098626@N00
title: Central Park Dance Skaters, Oct 2011 - 13
originalsecret: e658419ddd
originalformat: jpg
o_height: 2810
o_width: 4215
datetaken: 2011-10-23 15:24:11
dateupload: 1322701120
tags: newyork sunglasses scarf couple dancers dancing centralpark manhattan skate centralparkdanceskaters danceskaters
license: 1
latitude: 40.773277
longitude: -73.971356
accuracy: 16
views: 43
interestingness: 135 out of 229

photo: 6433724843 40eabba012 7019
owner: 72098626@N00
title: Central Park Dance Skaters, Oct 2011 - 11
originalsecret: 14416ee88c
originalformat: jpg
o_height: 4928
o_width: 3264
datetaken: 2011-10-23 15:19:53
dateupload: 1322700963
tags: newyork sunglasses dancers centralpark manhattan skate yellowshirt centralparkdanceskaters yellowclothes danceskaters
license: 1
latitude: 40.773277
longitude: -73.971356
accuracy: 16
views: 17
interestingness: 136 out of 229

photo: 6433673229 d5558c36d8 7002
owner: 10353403@N02
title: ThisProject
originalsecret: 1c0db306df
originalformat: jpg
o_height: 2479
o_width: 3718
datetaken: 2011-11-24 14:59:15
dateupload: 1322700198
tags: geocity camera:make=canon camera:model=canoneos400ddigital exif:make=canon exif:iso_speed=200 exif:focal_length=24mm geostate geocountrys exif:model=canoneos400ddigital exif:aperture=?56 exif:lens=ef24mmf28 geo:lon=2295164453357 geo:lat=53470158999799
license: 0
latitude: 53.470158
longitude: -2.295164
accuracy: 16
views: 2
interestingness: 137 out of 229

photo: 6433505453 85feb0675f 7172
owner: 17662852@N00
title: IMG_4755_6_7_tonemapped
originalsecret: 62700a45f2
originalformat: jpg
o_height: 3336
o_width: 5068
datetaken: 2011-11-29 19:55:14
dateupload: 1322697603
tags: park new york city nyc autumn trees fall leaves rain night clouds long exposure central hdr ramble photomatix
license: 0
latitude: 40.778514
longitude: -73.971902
accuracy: 16
views: 11
interestingness: 138 out of 229

photo: 6434510741 6d3a4e8d41 7006
owner: 65073328@N00
title: 2011-11-21 Dray Family 025
originalsecret: 3991946357
originalformat: jpg
o_height: 1600
o_width: 1074
datetaken: 2011-11-21 16:32:46
dateupload: 1322712531
tags: hat river familyportraits taylor rachelle dreamcoat dreamcoatphotography draperfamily
license: 0
latitude: -27.273913
longitude: 152.979319
accuracy: 16
views: 4
interestingness: 139 out of 229

photo: 6434014657 666f7c08d1 7004
owner: 44848889@N04
title: The Tree of Light
originalsecret: 6f50ba6815
originalformat: jpg
o_height: 2690
o_width: 3448
datetaken: 2011-11-30 18:08:54
dateupload: 1322705250
tags: light tree canon xsi
license: 0
latitude: 37.767805
longitude: -122.279677
accuracy: 15
views: 18
interestingness: 140 out of 229

photo: 6434550823 ed793e108f 7007
owner: 65073328@N00
title: 2011-11-21 Dray Family 020
originalsecret: 220688d9ef
originalformat: jpg
o_height: 1600
o_width: 1074
datetaken: 2011-11-21 16:31:01
dateupload: 1322713136
tags: hat river familyportraits taylor rachelle dreamcoat dreamcoatphotography draperfamily
license: 0
latitude: -27.273913
longitude: 152.979319
accuracy: 16
views: 5
interestingness: 141 out of 229

photo: 6434514891 f0b43e457f 7162
owner: 65073328@N00
title: 2011-11-21 Dray Family 044
originalsecret: 15c580e28d
originalformat: jpg
o_height: 1074
o_width: 1600
datetaken: 2011-11-21 16:38:45
dateupload: 1322712590
tags: hat river familyportraits taylor rachelle dreamcoat dreamcoatphotography draperfamily
license: 0
latitude: -27.273913
longitude: 152.979319
accuracy: 16
views: 9
interestingness: 142 out of 229

photo: 6434513653 e56afc0c07 7161
owner: 65073328@N00
title: 2011-11-21 Dray Family 039
originalsecret: 2dac1ca83b
originalformat: jpg
o_height: 1600
o_width: 1074
datetaken: 2011-11-21 16:37:15
dateupload: 1322712572
tags: hat river familyportraits taylor rachelle dreamcoat dreamcoatphotography draperfamily
license: 0
latitude: -27.273913
longitude: 152.979319
accuracy: 16
views: 2
interestingness: 143 out of 229

photo: 6434511451 60544c72ae 7172
owner: 65073328@N00
title: 2011-11-21 Dray Family 026
originalsecret: 66128a87a6
originalformat: jpg
o_height: 1600
o_width: 1074
datetaken: 2011-11-21 16:33:51
dateupload: 1322712541
tags: hat river familyportraits taylor rachelle dreamcoat dreamcoatphotography draperfamily
license: 0
latitude: -27.273913
longitude: 152.979319
accuracy: 16
views: 8
interestingness: 144 out of 229

photo: 6434510021 823e81978f 7171
owner: 65073328@N00
title: 2011-11-21 Dray Family 024
originalsecret: 8a9033e409
originalformat: jpg
o_height: 1600
o_width: 1074
datetaken: 2011-11-21 16:31:57
dateupload: 1322712521
tags: hat river familyportraits taylor rachelle dreamcoat dreamcoatphotography draperfamily
license: 0
latitude: -27.273913
longitude: 152.979319
accuracy: 16
views: 3
interestingness: 145 out of 229

photo: 6434374053 0bda5e0887 7023
owner: 54137689@N02
title: IMGP6756
originalsecret: e9d49e60ab
originalformat: jpg
o_height: 1200
o_width: 1600
datetaken: 2011-12-01 12:25:19
dateupload: 1322710553
tags: street camera city winter sanpo ? ?? khabarovsk
license: 0
latitude: 48.472921
longitude: 135.131835
accuracy: 5
views: 11
interestingness: 146 out of 229

photo: 6433739041 5a775e9e9c 7005
owner: 72098626@N00
title: Central Park Dance Skaters, Oct 2011 - 14
originalsecret: 540197190c
originalformat: jpg
o_height: 4431
o_width: 2795
datetaken: 2011-10-23 15:25:40
dateupload: 1322701181
tags: newyork sunglasses dancers centralpark manhattan skate centralparkdanceskaters danceskaters
license: 1
latitude: 40.773277
longitude: -73.971356
accuracy: 16
views: 18
interestingness: 147 out of 229

photo: 6433730873 42f97a7698 7006
owner: 72098626@N00
title: Central Park Dance Skaters, Oct 2011 - 12
originalsecret: 3951b8671f
originalformat: jpg
o_height: 4928
o_width: 3264
datetaken: 2011-10-23 15:22:43
dateupload: 1322701055
tags: newyork dancers centralpark manhattan helmet skate centralparkdanceskaters danceskaters
license: 1
latitude: 40.773277
longitude: -73.971356
accuracy: 16
views: 26
interestingness: 148 out of 229

photo: 6434514279 9557d67000 7023
owner: 65073328@N00
title: 2011-11-21 Dray Family 042
originalsecret: 14df5bd8a4
originalformat: jpg
o_height: 1086
o_width: 1600
datetaken: 2011-11-21 16:37:54
dateupload: 1322712581
tags: hat river familyportraits taylor dreamcoat dreamcoatphotography draperfamily
license: 0
latitude: -27.273913
longitude: 152.979319
accuracy: 16
views: 3
interestingness: 149 out of 229

photo: 6434512361 8fe9d4e924 7023
owner: 65073328@N00
title: 2011-11-21 Dray Family 032
originalsecret: 3f46ee17b7
originalformat: jpg
o_height: 1600
o_width: 1074
datetaken: 2011-11-21 16:35:57
dateupload: 1322712553
tags: hat river familyportraits rachelle dreamcoat dreamcoatphotography draperfamily
license: 0
latitude: -27.273913
longitude: 152.979319
accuracy: 16
views: 12
interestingness: 150 out of 229

photo: 6434413733 6d53357ef1 7010
owner: 11648159@N07
title: Do you?
originalsecret: 8c8dd7e1a5
originalformat: jpg
o_height: 2656
o_width: 2000
datetaken: 2011-03-19 15:10:43
dateupload: 1322711114
tags: cameraphone camera city dallas iphone procamera iphoneography
license: 0
latitude: 32.7825
longitude: -96.7865
accuracy: 16
views: 10
interestingness: 151 out of 229

photo: 6434381985 51d2a9034e 7158
owner: 11648159@N07
title: above it all
originalsecret: b63f8de02f
originalformat: jpg
o_height: 431
o_width: 573
datetaken: 2011-11-29 09:02:37
dateupload: 1322710672
tags: cameraphone camera city dallas iphone procamera iphoneography
license: 0
latitude: 32.780667
longitude: -96.774
accuracy: 16
views: 11
interestingness: 152 out of 229

photo: 6433992993 966c705304 7029
owner: 39194430@N08
title: My Toys
originalsecret: 33575b3202
originalformat: jpg
o_height: 2848
o_width: 4288
datetaken: 2011-11-23 22:45:07
dateupload: 1322704942
tags: camera apple lens electronics ipad macbook macbookair
license: 5
latitude: 36.608913
longitude: -76.664271
accuracy: 13
views: 44
interestingness: 153 out of 229

photo: 6433746267 f70c548c7a 7026
owner: 72098626@N00
title: Central Park Dance Skaters, Oct 2011 - 16
originalsecret: 0f6f3df13d
originalformat: jpg
o_height: 2711
o_width: 4067
datetaken: 2011-10-23 15:27:50
dateupload: 1322701287
tags: newyork dancers centralpark manhattan skate centralparkdanceskaters danceskaters
license: 1
latitude: 40.773277
longitude: -73.971356
accuracy: 16
views: 27
interestingness: 154 out of 229

photo: 6433591101 51eb6ab899 7173
owner: 48889119834@N01
title: Steeple
originalsecret: 9b3f218590
originalformat: jpg
o_height: 1536
o_width: 2048
datetaken: 2011-11-30 16:55:40
dateupload: 1322698980
tags: cameraphone camera mobile phone mob mobi iphone
license: 1
latitude: 45.503833
longitude: -73.564834
accuracy: 16
views: 10
interestingness: 155 out of 229

photo: 6433587563 a7110c058e 7152
owner: 48889119834@N01
title: How long til some rides down this? Or done already?
originalsecret: e2650ddd13
originalformat: jpg
o_height: 1536
o_width: 2048
datetaken: 2011-11-30 12:47:29
dateupload: 1322698932
tags: cameraphone camera mobile phone mob mobi iphone
license: 1
latitude: 45.507658
longitude: -73.565751
accuracy: 16
views: 71
interestingness: 156 out of 229

photo: 6433543267 b8e0316a7e 7024
owner: 46264896@N05
title: Fall Facets
originalsecret: 64e75e00d7
originalformat: jpg
o_height: 2610
o_width: 1954
datetaken: 2011-11-30 16:06:51
dateupload: 1322698216
tags: camera reflection brooklyn oregon portland iphonephoto silentpartnerpdx
license: 0
latitude: 45.524451
longitude: -122.672244
accuracy: 16
views: 8
interestingness: 157 out of 229

photo: 6434597431 698b58fa52 7154
owner: 68034860@N03
title: xICT0646
originalsecret: null
originalformat: null
o_height: null
o_width: null
datetaken: 2011-11-15 09:00:02
dateupload: 1322713807
tags: shark scuba diving requin plong?e raiatea
license: 0
latitude: -16.740276
longitude: -151.41941
accuracy: 11
views: 0
interestingness: 158 out of 229

photo: 6434594189 8a1fa3e2d6 7171
owner: 68034860@N03
title: xICT0645
originalsecret: null
originalformat: null
o_height: null
o_width: null
datetaken: 2011-11-15 09:00:03
dateupload: 1322713762
tags: shark scuba diving requin plong?e raiatea
license: 0
latitude: -16.740276
longitude: -151.41941
accuracy: 11
views: 0
interestingness: 159 out of 229

photo: 6434592277 a2a27c1439 7146
owner: 68034860@N03
title: xICT0644
originalsecret: null
originalformat: null
o_height: null
o_width: null
datetaken: 2011-11-15 09:00:04
dateupload: 1322713734
tags: shark scuba diving requin plong?e raiatea
license: 0
latitude: -16.740276
longitude: -151.41941
accuracy: 11
views: 0
interestingness: 160 out of 229

photo: 6434590527 a471699967 7159
owner: 68034860@N03
title: xICT0642
originalsecret: null
originalformat: null
o_height: null
o_width: null
datetaken: 2011-11-15 09:00:05
dateupload: 1322713708
tags: shark scuba diving requin plong?e raiatea
license: 0
latitude: -16.740276
longitude: -151.41941
accuracy: 11
views: 0
interestingness: 161 out of 229

photo: 6434587949 056371da6f 7148
owner: 68034860@N03
title: xICT0641
originalsecret: null
originalformat: null
o_height: null
o_width: null
datetaken: 2011-11-15 09:00:06
dateupload: 1322713671
tags: scuba diving tortue plong?e raiatea turtule
license: 0
latitude: -16.740276
longitude: -151.41941
accuracy: 11
views: 0
interestingness: 162 out of 229

photo: 6434585533 a6d86786e7 7146
owner: 68034860@N03
title: xICT0640
originalsecret: null
originalformat: null
o_height: null
o_width: null
datetaken: 2011-11-15 09:00:07
dateupload: 1322713636
tags: scuba diving tortue plong?e raiatea turtule
license: 0
latitude: -16.740276
longitude: -151.41941
accuracy: 11
views: 0
interestingness: 163 out of 229

photo: 6434583199 f4cecb620f 7152
owner: 68034860@N03
title: xICT0638
originalsecret: null
originalformat: null
o_height: null
o_width: null
datetaken: 2011-11-15 09:00:08
dateupload: 1322713599
tags: shark scuba diving requin plong?e raiatea
license: 0
latitude: -16.740276
longitude: -151.41941
accuracy: 11
views: 0
interestingness: 164 out of 229

photo: 6434581343 9893b036a4 7157
owner: 68034860@N03
title: xICT0637
originalsecret: null
originalformat: null
o_height: null
o_width: null
datetaken: 2011-11-15 09:00:09
dateupload: 1322713570
tags: shark scuba diving requin plong?e raiatea
license: 0
latitude: -16.740276
longitude: -151.41941
accuracy: 11
views: 0
interestingness: 165 out of 229

photo: 6434577631 cc96e29226 7032
owner: 68034860@N03
title: xICT0643
originalsecret: null
originalformat: null
o_height: null
o_width: null
datetaken: 2011-11-15 09:00:11
dateupload: 1322713515
tags: shark scuba diving requin plong?e raiatea
license: 0
latitude: -16.740276
longitude: -151.41941
accuracy: 11
views: 0
interestingness: 166 out of 229

photo: 6434575883 eb06e5f0f8 7023
owner: 68034860@N03
title: xICT0635
originalsecret: null
originalformat: null
o_height: null
o_width: null
datetaken: 2011-11-15 09:00:12
dateupload: 1322713487
tags: shark scuba diving requin plong?e raiatea
license: 0
latitude: -16.740276
longitude: -151.41941
accuracy: 11
views: 0
interestingness: 167 out of 229

photo: 6434574003 9e2654b28d 7144
owner: 68034860@N03
title: xICT0634
originalsecret: null
originalformat: null
o_height: null
o_width: null
datetaken: 2011-11-15 09:00:13
dateupload: 1322713459
tags: shark scuba diving requin plong?e raiatea
license: 0
latitude: -16.740276
longitude: -151.41941
accuracy: 11
views: 0
interestingness: 168 out of 229

photo: 6434566231 afc85e7322 7016
owner: 68034860@N03
title: xICT0630
originalsecret: null
originalformat: null
o_height: null
o_width: null
datetaken: 2011-11-15 09:00:16
dateupload: 1322713358
tags: shark scuba diving requin plong?e raiatea
license: 0
latitude: -16.740276
longitude: -151.41941
accuracy: 11
views: 0
interestingness: 169 out of 229

photo: 6434562425 d3cbe5c537 7026
owner: 68034860@N03
title: xICT0628
originalsecret: null
originalformat: null
o_height: null
o_width: null
datetaken: 2011-11-15 09:00:18
dateupload: 1322713301
tags: shark scuba diving requin plong?e raiatea
license: 0
latitude: -16.740276
longitude: -151.41941
accuracy: 11
views: 0
interestingness: 170 out of 229

photo: 6434559753 6071708563 7032
owner: 68034860@N03
title: xICT0627
originalsecret: null
originalformat: null
o_height: null
o_width: null
datetaken: 2011-11-15 09:00:19
dateupload: 1322713259
tags: shark scuba diving requin plong?e raiatea
license: 0
latitude: -16.740276
longitude: -151.41941
accuracy: 11
views: 0
interestingness: 171 out of 229

photo: 6434557899 054c89d650 7028
owner: 68034860@N03
title: xICT0626
originalsecret: null
originalformat: null
o_height: null
o_width: null
datetaken: 2011-11-15 09:00:20
dateupload: 1322713233
tags: shark scuba diving requin plong?e raiatea
license: 0
latitude: -16.740276
longitude: -151.41941
accuracy: 11
views: 0
interestingness: 172 out of 229

photo: 6434555727 dd7273c5b4 7020
owner: 68034860@N03
title: xICT0625
originalsecret: null
originalformat: null
o_height: null
o_width: null
datetaken: 2011-11-15 09:00:21
dateupload: 1322713204
tags: shark scuba diving requin plong?e raiatea
license: 0
latitude: -16.740276
longitude: -151.41941
accuracy: 11
views: 0
interestingness: 173 out of 229

photo: 6434553497 a958de15da 7146
owner: 68034860@N03
title: xICT0624
originalsecret: null
originalformat: null
o_height: null
o_width: null
datetaken: 2011-11-15 09:00:22
dateupload: 1322713173
tags: shark scuba diving requin plong?e raiatea
license: 0
latitude: -16.740276
longitude: -151.41941
accuracy: 11
views: 0
interestingness: 174 out of 229

photo: 6434551707 c3454ea470 7027
owner: 68034860@N03
title: xICT0623
originalsecret: null
originalformat: null
o_height: null
o_width: null
datetaken: 2011-11-15 09:00:23
dateupload: 1322713147
tags: shark scuba diving requin plong?e raiatea
license: 0
latitude: -16.740276
longitude: -151.41941
accuracy: 11
views: 0
interestingness: 175 out of 229

photo: 6434549545 4ba39e3caf 7162
owner: 68034860@N03
title: xICT0621
originalsecret: null
originalformat: null
o_height: null
o_width: null
datetaken: 2011-11-15 09:00:24
dateupload: 1322713118
tags: shark scuba diving requin plong?e raiatea
license: 0
latitude: -16.740276
longitude: -151.41941
accuracy: 11
views: 0
interestingness: 176 out of 229

photo: 6434547437 e584af4625 7149
owner: 68034860@N03
title: xICT0620
originalsecret: null
originalformat: null
o_height: null
o_width: null
datetaken: 2011-11-15 09:00:25
dateupload: 1322713086
tags: shark scuba diving requin plong?e raiatea
license: 0
latitude: -16.740276
longitude: -151.41941
accuracy: 11
views: 0
interestingness: 177 out of 229

photo: 6434546469 db3fbc6b85 7142
owner: 68034860@N03
title: xICT0619
originalsecret: null
originalformat: null
o_height: null
o_width: null
datetaken: 2011-11-15 09:00:26
dateupload: 1322713070
tags: shark scuba diving requin plong?e raiatea
license: 0
latitude: -16.740276
longitude: -151.41941
accuracy: 11
views: 0
interestingness: 178 out of 229

photo: 6434544723 a1d07e668b 7031
owner: 68034860@N03
title: xICT0618
originalsecret: null
originalformat: null
o_height: null
o_width: null
datetaken: 2011-11-15 09:00:27
dateupload: 1322713044
tags: shark scuba diving requin plong?e raiatea
license: 0
latitude: -16.740276
longitude: -151.41941
accuracy: 11
views: 0
interestingness: 179 out of 229

photo: 6434542569 dcec41a2c6 7005
owner: 68034860@N03
title: xICT0617
originalsecret: null
originalformat: null
o_height: null
o_width: null
datetaken: 2011-11-15 09:00:28
dateupload: 1322713010
tags: shark scuba diving requin plong?e raiatea
license: 0
latitude: -16.740276
longitude: -151.41941
accuracy: 11
views: 0
interestingness: 180 out of 229

photo: 6434540583 b3f332d965 7144
owner: 68034860@N03
title: xICT0616
originalsecret: null
originalformat: null
o_height: null
o_width: null
datetaken: 2011-11-15 09:00:29
dateupload: 1322712980
tags: shark scuba diving requin plong?e raiatea
license: 0
latitude: -16.740276
longitude: -151.41941
accuracy: 11
views: 0
interestingness: 181 out of 229

photo: 6434538181 679d76e323 7167
owner: 68034860@N03
title: xICT0614
originalsecret: null
originalformat: null
o_height: null
o_width: null
datetaken: 2011-11-15 09:00:30
dateupload: 1322712946
tags: shark scuba diving requin plong?e raiatea
license: 0
latitude: -16.740276
longitude: -151.41941
accuracy: 11
views: 0
interestingness: 182 out of 229

photo: 6434536909 c06c452d97 7029
owner: 68034860@N03
title: xICT0613
originalsecret: null
originalformat: null
o_height: null
o_width: null
datetaken: 2011-11-15 09:00:31
dateupload: 1322712929
tags: shark scuba diving requin plong?e raiatea
license: 0
latitude: -16.740276
longitude: -151.41941
accuracy: 11
views: 0
interestingness: 183 out of 229

photo: 6434533371 12cd72b8b6 7022
owner: 68034860@N03
title: xICT0611
originalsecret: null
originalformat: null
o_height: null
o_width: null
datetaken: 2011-11-15 09:00:33
dateupload: 1322712874
tags: shark scuba diving requin plong?e raiatea
license: 0
latitude: -16.740276
longitude: -151.41941
accuracy: 11
views: 0
interestingness: 184 out of 229

photo: 6434531753 eef94c6858 7028
owner: 68034860@N03
title: xICT0610
originalsecret: null
originalformat: null
o_height: null
o_width: null
datetaken: 2011-11-15 09:00:34
dateupload: 1322712846
tags: shark scuba diving requin plong?e raiatea
license: 0
latitude: -16.740276
longitude: -151.41941
accuracy: 11
views: 0
interestingness: 185 out of 229

photo: 6434530379 5bd7ec5e53 7152
owner: 68034860@N03
title: xICT0609
originalsecret: null
originalformat: null
o_height: null
o_width: null
datetaken: 2011-11-15 09:00:35
dateupload: 1322712822
tags: shark scuba diving requin plong?e raiatea
license: 0
latitude: -16.740276
longitude: -151.41941
accuracy: 11
views: 0
interestingness: 186 out of 229

photo: 6433763253 d953981654 7033
owner: 47403767@N08
title: Day Ninety-Six
originalsecret: e49a229d90
originalformat: jpg
o_height: 2809
o_width: 1861
datetaken: 2011-11-30 00:41:11
dateupload: 1322701542
tags: snow fall outside nikon 2011 d5100
license: 0
latitude: 43.850749
longitude: -79.021087
accuracy: 11
views: 15
interestingness: 187 out of 229

photo: 6434431067 428c244f4d 7020
owner: 76696114@N00
title: Truth Telling
originalsecret: 0fafac5b28
originalformat: jpg
o_height: 1496
o_width: 3242
datetaken: 2011-11-30 15:54:03
dateupload: 1322711371
tags: campus com bumpersticker collegeofmarin kentfieldca
license: 0
latitude: 37.954
longitude: -122.5495
accuracy: 16
views: 19
interestingness: 188 out of 229

photo: 6439573675 03fb03189a 7158
owner: 69650337@N02
title: DSC_0245
originalsecret: null
originalformat: null
o_height: null
o_width: null
datetaken: 2010-12-24 16:32:28
dateupload: 1322708801
tags: camera winter people person
license: 0
latitude: 43.818661
longitude: -79.187221
accuracy: 13
views: 0
interestingness: 189 out of 229

photo: 6434579477 f77d6da4e0 7035
owner: 68034860@N03
title: xICT0636
originalsecret: null
originalformat: null
o_height: null
o_width: null
datetaken: 2011-11-15 09:00:10
dateupload: 1322713541
tags: scuba diving plong?e raiatea
license: 0
latitude: -16.740276
longitude: -151.41941
accuracy: 11
views: 0
interestingness: 190 out of 229

photo: 6434572023 0c6b0113c9 7008
owner: 68034860@N03
title: xICT0633
originalsecret: null
originalformat: null
o_height: null
o_width: null
datetaken: 2011-11-15 09:00:14
dateupload: 1322713429
tags: scuba diving plong?e raiatea
license: 0
latitude: -16.740276
longitude: -151.41941
accuracy: 11
views: 0
interestingness: 191 out of 229

photo: 6434568563 b21f08fca0 7172
owner: 68034860@N03
title: xICT0632
originalsecret: null
originalformat: null
o_height: null
o_width: null
datetaken: 2011-11-15 09:00:15
dateupload: 1322713390
tags: scuba diving plong?e raiatea
license: 0
latitude: -16.740276
longitude: -151.41941
accuracy: 11
views: 0
interestingness: 192 out of 229

photo: 6434564279 55cd24b47e 7166
owner: 68034860@N03
title: xICT0629
originalsecret: null
originalformat: null
o_height: null
o_width: null
datetaken: 2011-11-15 09:00:17
dateupload: 1322713329
tags: scuba diving plong?e raiatea
license: 0
latitude: -16.740276
longitude: -151.41941
accuracy: 11
views: 0
interestingness: 193 out of 229

photo: 6434280025 4a103ebaf9 7172
owner: 21374845@N08
title: Raft Ride
originalsecret: e4a1f54520
originalformat: jpg
o_height: 640
o_width: 960
datetaken: 2011-09-17 17:05:00
dateupload: 1322709168
tags: grandcanyon coloradoriver maricopapoint hermitrapids
license: 0
latitude: 36.07175
longitude: -112.16608
accuracy: 16
views: 4
interestingness: 194 out of 229

photo: 6434763767 d324e771dd 7011
owner: 64610981@N04
title: Can't focus....make it art
originalsecret: 81482b8ea0
originalformat: jpg
o_height: 1536
o_width: 2048
datetaken: 2011-11-30 07:55:56
dateupload: 1322716512
tags: 
license: 0
latitude: 49.2505
longitude: -123.001834
accuracy: 16
views: 4
interestingness: 195 out of 229

photo: 6434602527 e33f62d2f8 7022
owner: 68034860@N03
title: xICT0648
originalsecret: null
originalformat: null
o_height: null
o_width: null
datetaken: 2011-11-15 09:00:00
dateupload: 1322713878
tags: plong?e raiatea
license: 0
latitude: -16.740276
longitude: -151.41941
accuracy: 11
views: 0
interestingness: 196 out of 229

photo: 6434600091 e081e70701 7025
owner: 68034860@N03
title: xICT0647
originalsecret: null
originalformat: null
o_height: null
o_width: null
datetaken: 2011-11-15 09:00:01
dateupload: 1322713844
tags: plong?e raiatea
license: 0
latitude: -16.740276
longitude: -151.41941
accuracy: 11
views: 0
interestingness: 197 out of 229

photo: 6434528909 fe067f4a76 7159
owner: 68034860@N03
title: xICT0608
originalsecret: null
originalformat: null
o_height: null
o_width: null
datetaken: 2011-11-15 09:00:36
dateupload: 1322712797
tags: plong?e raiatea
license: 0
latitude: -16.740276
longitude: -151.41941
accuracy: 11
views: 0
interestingness: 198 out of 229

photo: 6434527423 2c04a48643 7160
owner: 68034860@N03
title: xICT0607
originalsecret: null
originalformat: null
o_height: null
o_width: null
datetaken: 2011-11-15 09:00:37
dateupload: 1322712773
tags: plong?e raiatea
license: 0
latitude: -16.740276
longitude: -151.41941
accuracy: 11
views: 0
interestingness: 199 out of 229

photo: 6433911945 fd73c57f77 7151
owner: 58946917@N00
title: Camera Roll-771
originalsecret: 55a346749f
originalformat: jpg
o_height: 1868
o_width: 2500
datetaken: 2011-11-24 13:25:28
dateupload: 1322703737
tags: thanksgiving2011 titodannybirthday2011
license: 0
latitude: 34.202
longitude: -118.38
accuracy: 16
views: 1
interestingness: 200 out of 229

photo: 6433910729 3a5af8b1b4 7027
owner: 58946917@N00
title: Camera Roll-770
originalsecret: 009a2e2dcb
originalformat: jpg
o_height: 1868
o_width: 2500
datetaken: 2011-11-24 13:24:58
dateupload: 1322703716
tags: thanksgiving2011 titodannybirthday2011
license: 0
latitude: 34.202
longitude: -118.38
accuracy: 16
views: 0
interestingness: 201 out of 229

photo: 6433909507 0ef9a7ed44 7017
owner: 58946917@N00
title: Camera Roll-769
originalsecret: 8fe0f8f51b
originalformat: jpg
o_height: 1868
o_width: 2500
datetaken: 2011-11-24 13:24:39
dateupload: 1322703696
tags: thanksgiving2011 titodannybirthday2011
license: 0
latitude: 34.202166
longitude: -118.38
accuracy: 16
views: 1
interestingness: 202 out of 229

photo: 6433908315 a081e57b06 7161
owner: 58946917@N00
title: Camera Roll-768
originalsecret: 8ca7111d7d
originalformat: jpg
o_height: 1868
o_width: 2500
datetaken: 2011-11-24 13:24:33
dateupload: 1322703677
tags: thanksgiving2011 titodannybirthday2011
license: 0
latitude: 34.202166
longitude: -118.38
accuracy: 16
views: 0
interestingness: 203 out of 229

photo: 6433907129 cf3a1a86fa 7007
owner: 58946917@N00
title: Camera Roll-767
originalsecret: 991983b25f
originalformat: jpg
o_height: 1868
o_width: 2500
datetaken: 2011-11-24 13:24:19
dateupload: 1322703658
tags: thanksgiving2011 titodannybirthday2011
license: 0
latitude: 34.202166
longitude: -118.38
accuracy: 16
views: 0
interestingness: 204 out of 229

photo: 6433905987 a09ab1cca5 7167
owner: 58946917@N00
title: Camera Roll-766
originalsecret: 9951686293
originalformat: jpg
o_height: 1868
o_width: 2500
datetaken: 2011-11-24 13:24:09
dateupload: 1322703641
tags: thanksgiving2011 titodannybirthday2011
license: 0
latitude: 34.202
longitude: -118.380166
accuracy: 16
views: 0
interestingness: 205 out of 229

photo: 6433904729 aa3cdf94eb 7141
owner: 58946917@N00
title: Camera Roll-765
originalsecret: f1f0d718e4
originalformat: jpg
o_height: 1868
o_width: 2500
datetaken: 2011-11-24 13:23:58
dateupload: 1322703622
tags: thanksgiving2011 titodannybirthday2011
license: 0
latitude: 34.202166
longitude: -118.38
accuracy: 16
views: 0
interestingness: 206 out of 229

photo: 6433903425 8752d66457 7035
owner: 58946917@N00
title: Camera Roll-764
originalsecret: 5b1395d723
originalformat: jpg
o_height: 1868
o_width: 2500
datetaken: 2011-11-24 12:43:22
dateupload: 1322703602
tags: thanksgiving2011 titodannybirthday2011
license: 0
latitude: 34.202
longitude: -118.379833
accuracy: 16
views: 0
interestingness: 207 out of 229

photo: 6433902297 76f43a6a89 7031
owner: 58946917@N00
title: Camera Roll-763
originalsecret: f30a87824c
originalformat: jpg
o_height: 1868
o_width: 2500
datetaken: 2011-11-24 12:43:12
dateupload: 1322703584
tags: thanksgiving2011 titodannybirthday2011
license: 0
latitude: 34.202
longitude: -118.379833
accuracy: 16
views: 0
interestingness: 208 out of 229

photo: 6433901097 3528e38221 7029
owner: 58946917@N00
title: Camera Roll-762
originalsecret: acb33d6060
originalformat: jpg
o_height: 1868
o_width: 2500
datetaken: 2011-11-24 12:43:08
dateupload: 1322703567
tags: thanksgiving2011 titodannybirthday2011
license: 0
latitude: 34.202
longitude: -118.379833
accuracy: 16
views: 0
interestingness: 209 out of 229

photo: 6433899851 f693240f2e 7144
owner: 58946917@N00
title: Camera Roll-761
originalsecret: e260e3df93
originalformat: jpg
o_height: 2500
o_width: 1868
datetaken: 2011-11-24 12:36:07
dateupload: 1322703548
tags: thanksgiving2011 titodannybirthday2011
license: 0
latitude: 34.202166
longitude: -118.38
accuracy: 16
views: 0
interestingness: 210 out of 229

photo: 6433898699 9d4788d35b 7014
owner: 58946917@N00
title: Camera Roll-760
originalsecret: 8a1c1068f3
originalformat: jpg
o_height: 2500
o_width: 1868
datetaken: 2011-11-24 12:35:12
dateupload: 1322703531
tags: thanksgiving2011 titodannybirthday2011
license: 0
latitude: 34.202
longitude: -118.38
accuracy: 16
views: 0
interestingness: 211 out of 229

photo: 6433897409 96097b1aa4 7162
owner: 58946917@N00
title: Camera Roll-759
originalsecret: e4f0cf132d
originalformat: jpg
o_height: 1868
o_width: 2500
datetaken: 2011-11-24 12:33:50
dateupload: 1322703511
tags: thanksgiving2011 titodannybirthday2011
license: 0
latitude: 34.202
longitude: -118.379833
accuracy: 16
views: 0
interestingness: 212 out of 229

photo: 6433895997 9d7a526d56 7145
owner: 58946917@N00
title: Camera Roll-758
originalsecret: ac49e6d617
originalformat: jpg
o_height: 1868
o_width: 2500
datetaken: 2011-11-24 12:33:38
dateupload: 1322703490
tags: thanksgiving2011 titodannybirthday2011
license: 0
latitude: 34.202166
longitude: -118.38
accuracy: 16
views: 0
interestingness: 213 out of 229

photo: 6433894697 931551e6f3 7175
owner: 58946917@N00
title: Camera Roll-757
originalsecret: e62c6383f6
originalformat: jpg
o_height: 2500
o_width: 1868
datetaken: 2011-11-24 12:32:56
dateupload: 1322703470
tags: thanksgiving2011 titodannybirthday2011
license: 0
latitude: 34.202
longitude: -118.38
accuracy: 16
views: 0
interestingness: 214 out of 229

photo: 6433892995 1e37494f24 7017
owner: 58946917@N00
title: Camera Roll-756
originalsecret: 532a8300d4
originalformat: jpg
o_height: 1868
o_width: 2500
datetaken: 2011-11-24 12:31:53
dateupload: 1322703445
tags: thanksgiving2011 titodannybirthday2011
license: 0
latitude: 34.202
longitude: -118.379833
accuracy: 16
views: 0
interestingness: 215 out of 229

photo: 6433891599 9555d41d87 7032
owner: 58946917@N00
title: Camera Roll-755
originalsecret: cea13c9713
originalformat: jpg
o_height: 2500
o_width: 1868
datetaken: 2011-11-24 12:31:37
dateupload: 1322703425
tags: thanksgiving2011 titodannybirthday2011
license: 0
latitude: 34.202166
longitude: -118.379833
accuracy: 16
views: 0
interestingness: 216 out of 229

photo: 6433890461 7ca5992ce4 7173
owner: 58946917@N00
title: Camera Roll-754
originalsecret: bbd09e0838
originalformat: jpg
o_height: 1868
o_width: 2500
datetaken: 2011-11-24 12:31:28
dateupload: 1322703409
tags: thanksgiving2011 titodannybirthday2011
license: 0
latitude: 34.202166
longitude: -118.379833
accuracy: 16
views: 0
interestingness: 217 out of 229

photo: 6433549221 fd2ccc642c 7165
owner: 63425668@N04
title: 
originalsecret: 3e547768df
originalformat: jpg
o_height: 1024
o_width: 1544
datetaken: 2011-11-30 19:09:04
dateupload: 1322698316
tags: 
license: 0
latitude: 40.747256
longitude: -73.985409
accuracy: 15
views: 13
interestingness: 218 out of 229

photo: 6433953355 c2fb5f7a9a 7034
owner: 46892480@N06
title: 2011-11-29_04[1]
originalsecret: null
originalformat: null
o_height: null
o_width: null
datetaken: 2011-11-29 17:38:19
dateupload: 1322704365
tags: polaroidspectra
license: 0
latitude: 40.454996
longitude: -79.991675
accuracy: 16
views: 3
interestingness: 219 out of 229

photo: 6433953025 64f1f61de3 7001
owner: 46892480@N06
title: 2011-11-29_03[1]
originalsecret: null
originalformat: null
o_height: null
o_width: null
datetaken: 2011-11-29 17:36:42
dateupload: 1322704360
tags: polaroidspectra
license: 0
latitude: 40.454996
longitude: -79.991675
accuracy: 16
views: 4
interestingness: 220 out of 229

photo: 6434651933 e845e7da57 7012
owner: 35786191@N07
title: slow shutter speed
originalsecret: null
originalformat: null
o_height: null
o_width: null
datetaken: 2009-01-28 23:50:51
dateupload: 1322714625
tags: 
license: 6
latitude: 3.103492
longitude: 101.694946
accuracy: 8
views: 13
interestingness: 221 out of 229

photo: 6434546391 85cc7a16e5 7028
owner: 40091403@N08
title: 
originalsecret: null
originalformat: null
o_height: null
o_width: null
datetaken: 2011-11-30 19:41:55
dateupload: 1322713069
tags: 
license: 0
latitude: 24.550646
longitude: -81.79906
accuracy: 15
views: 12
interestingness: 222 out of 229

photo: 6434358787 e03ae6cf1b 7141
owner: 52490613@N06
title: Vis?o Noturna Alarmes e Monitoramento
originalsecret: null
originalformat: null
o_height: null
o_width: null
datetaken: 2011-12-01 01:32:03
dateupload: 1322710323
tags: 
license: 0
latitude: -23.545497
longitude: -46.566281
accuracy: 14
views: 3
interestingness: 223 out of 229

photo: 6434198831 d3e7a31c7b 7002
owner: 55793303@N08
title: downtown Sicamous
originalsecret: null
originalformat: null
o_height: null
o_width: null
datetaken: 2011-09-16 13:29:04
dateupload: 1322707906
tags: 
license: 0
latitude: 50.83592
longitude: -118.985795
accuracy: 14
views: 0
interestingness: 224 out of 229

photo: 6434197173 14b3a36df1 7174
owner: 55793303@N08
title: Salmon Arm's welcome sign
originalsecret: null
originalformat: null
o_height: null
o_width: null
datetaken: 2011-09-16 16:35:31
dateupload: 1322707880
tags: 
license: 0
latitude: 50.707465
longitude: -119.26054
accuracy: 14
views: 0
interestingness: 225 out of 229

photo: 6434195683 b71a669fb6 7170
owner: 55793303@N08
title: Highway #97A in Sicamous
originalsecret: null
originalformat: null
o_height: null
o_width: null
datetaken: 2011-09-15 15:36:03
dateupload: 1322707856
tags: 
license: 0
latitude: 50.837909
longitude: -118.970321
accuracy: 11
views: 2
interestingness: 226 out of 229

photo: 6434194253 902077e24d 7007
owner: 55793303@N08
title: Sicamous' welcome sign
originalsecret: null
originalformat: null
o_height: null
o_width: null
datetaken: 2011-09-15 16:21:32
dateupload: 1322707833
tags: 
license: 0
latitude: 50.818733
longitude: -118.97129
accuracy: 11
views: 0
interestingness: 227 out of 229

photo: 6434004333 9a4fbde23c 7141
owner: 52399933@N00
title: Closed photo shop, Portland ME
originalsecret: 372740e0b6
originalformat: jpg
o_height: 1979
o_width: 1154
datetaken: 2011-10-06 17:30:59
dateupload: 1322705107
tags: 
license: 0
latitude: 43.656166
longitude: -70.260833
accuracy: 16
views: 3
interestingness: 228 out of 229

photo: 6433900565 2aa6c439d8 7028
owner: 13738810@N08
title: iPhone 4 + Salvaged DVD Lens = Macro Camera
originalsecret: 78469559d2
originalformat: jpg
o_height: 3240
o_width: 4320
datetaken: 2011-11-30 21:23:23
dateupload: 1322703559
tags: 
license: 0
latitude: 26.570109
longitude: -81.946463
accuracy: 16
views: 6
interestingness: 229 out of 229

photo: 6433899961 76248e634b 7155
owner: 13738810@N08
title: iPhone 4 + Salvaged DVD Lens = Macro Camera
originalsecret: 4a7727ee8f
originalformat: jpg
o_height: 1936
o_width: 2592
datetaken: 2011-11-30 20:02:05
dateupload: 1322703549
tags: 
license: 0
latitude: 26.570109
longitude: -81.946463
accuracy: 16
views: 7
interestingness: 230 out of 229

photo: 6433899603 e8d5aba8c4 7169
owner: 13738810@N08
title: iPhone 4 + Salvaged DVD Lens = Macro Camera
originalsecret: f338082707
originalformat: jpg
o_height: 2592
o_width: 1936
datetaken: 2011-11-30 19:55:20
dateupload: 1322703544
tags: 
license: 0
latitude: 26.570109
longitude: -81.946463
accuracy: 16
views: 7
interestingness: 231 out of 229

photo: 6433899031 74f494aa25 7023
owner: 13738810@N08
title: iPhone 4 + Salvaged DVD Lens = Macro Camera
originalsecret: a72e39f151
originalformat: jpg
o_height: 1936
o_width: 2592
datetaken: 2011-11-30 19:40:01
dateupload: 1322703536
tags: 
license: 0
latitude: 26.570109
longitude: -81.946463
accuracy: 16
views: 5
interestingness: 232 out of 229

photo: 6433898597 1a2508916c 7035
owner: 13738810@N08
title: iPhone 4 + Salvaged DVD Lens = Macro Camera
originalsecret: 0a0eea1eba
originalformat: jpg
o_height: 1936
o_width: 2592
datetaken: 2011-11-30 19:37:41
dateupload: 1322703529
tags: 
license: 0
latitude: 26.570109
longitude: -81.946463
accuracy: 16
views: 5
interestingness: 233 out of 229

photo: 6433897999 6775f9267b 7174
owner: 13738810@N08
title: iPhone 4 + Salvaged DVD Lens = Macro Camera
originalsecret: 88d8becaa9
originalformat: jpg
o_height: 2592
o_width: 1936
datetaken: 2011-11-30 19:32:07
dateupload: 1322703520
tags: 
license: 0
latitude: 26.570109
longitude: -81.946463
accuracy: 16
views: 5
interestingness: 234 out of 229

photo: 6433897373 5641282932 7156
owner: 13738810@N08
title: iPhone 4 + Salvaged DVD Lens = Macro Camera
originalsecret: 777045625a
originalformat: jpg
o_height: 1936
o_width: 2592
datetaken: 2011-11-30 19:29:07
dateupload: 1322703511
tags: 
license: 0
latitude: 26.570109
longitude: -81.946463
accuracy: 16
views: 6
interestingness: 235 out of 229

