
mintime: 1322697600 maxtime: 1322706597.89
numimgs: 105
total pages: 1
visiting only 1 pages ( up to 250 images)
photo: 6433556133 729274c8e7 7157
owner: 11746711@N08
title: New York City on 11/28/2011
originalsecret: null
originalformat: null
o_height: null
o_width: null
datetaken: 2011-11-28 05:10:44
dateupload: 1322698433
tags: nyc newyorkcity longexposure newyork reflection night skyscraper geotagged downtown cityscape dumbo gehry financialdistrict eastriver gothamist wallstreet fdrdrive hdr southstreet seaport woolworthbuilding brooklynbridgepark freedomtower mudpig beekmanplace stevekelley beekmantower 60wallstreet 8sprucestreet oneworldtradecenter stevenkelley
license: 0
latitude: 40.695794
longitude: -73.999679
accuracy: 16
views: 1037
interestingness: 1 out of 105

photo: 6433582499 3ea828a2bd 7165
owner: 39467669@N04
title: Manhattan To Queens
originalsecret: null
originalformat: null
o_height: null
o_width: null
datetaken: 2011-11-30 19:09:09
dateupload: 1322698854
tags: nyc newyorkcity panorama manhattan queens eastriver queensborobridge canon135mmf2l danlove
license: 0
latitude: 40.736689
longitude: -73.972978
accuracy: 13
views: 198
interestingness: 2 out of 105

photo: 6433997833 3b066c4e2c 7023
owner: 45397516@N06
title: 
originalsecret: null
originalformat: null
o_height: null
o_width: null
datetaken: 2011-09-28 14:30:53
dateupload: 1322705015
tags: street city nyc newyorkcity wild people blackandwhite bw usa ny newyork streets men strange fashion america portraits canon lost weird insane crazy interesting intense scary manhattan unique f14 united unitedstatesofamerica streetphotography sigma style eerie creepy odd confused deranged characters gothamist states scared awkward headshots newyorkers frightening 30mm nycpeople oddballs srh hazlett 60d stevenhazlett stevenrhazlett
license: 0
latitude: 40.867168
longitude: -73.922628
accuracy: 15
views: 200
interestingness: 3 out of 105

photo: 6433774975 76e52f6120 7033
owner: 33264177@N05
title: 
originalsecret: c6e2ba1055
originalformat: jpg
o_height: 1200
o_width: 1201
datetaken: 2011-11-29 15:26:10
dateupload: 1322701720
tags: nyc newyorkcity eastvillage phillipkalantziscope
license: 3
latitude: 40.726323
longitude: -73.988113
accuracy: 15
views: 151
interestingness: 4 out of 105

photo: 6433676075 80e29bbf88 7011
owner: 51331020@N00
title: moscow #23 (b/w)
originalsecret: null
originalformat: null
o_height: null
o_width: null
datetaken: 2011-12-01 00:41:26
dateupload: 1322700238
tags: sky blackandwhite bw clouds river construction skyscrapers moscow wideangle futuristic moscowcity vents moscowriver
license: 0
latitude: 55.745877
longitude: 37.545003
accuracy: 16
views: 111
interestingness: 5 out of 105

photo: 6433876961 893c67ba76 7023
owner: 51291947@N07
title: Hong Kong Morning
originalsecret: f21b8b2d26
originalformat: jpg
o_height: 1024
o_width: 1536
datetaken: 2011-12-01 01:33:06
dateupload: 1322703219
tags: city morning silver skyscrapers hong kong pro efex
license: 0
latitude: 22.293265
longitude: 114.171209
accuracy: 14
views: 102
interestingness: 6 out of 105

photo: 6433948729 5fdda8d676 7172
owner: 60482229@N00
title: Downtown Baltimore
originalsecret: 3f4eb80948
originalformat: jpg
o_height: 1147
o_width: 768
datetaken: 2011-11-30 20:51:41
dateupload: 1322704301
tags: city md downtown cityscape skyscrapers maryland arches dailycommute baltimore rushhour citibank hdr wachovia baltimoremd baltimoremaryland lightstreet baltimorearchitecture baltimoretrustbuilding sonydslra100 113011 pse60 mecu artondra burkesrestaurant stpaulplaza artondrahallphotography november302011
license: 4
latitude: 39.287769
longitude: -76.613631
accuracy: 15
views: 104
interestingness: 7 out of 105

photo: 6385129393 1c9d6049e6 6215
owner: 34396697@N00
title: NYC Fall snowstorm 2011
originalsecret: null
originalformat: null
o_height: null
o_width: null
datetaken: 2011-11-12 10:38:39
dateupload: 1322702042
tags: nyc newyorkcity blackandwhite bw snow fall umbrella 35mm lomo lca manhattan snowstorm lomolca 35mmfilm pedestrians snowing kodakbw400cn badweather bw400cn 2011 filmphotographypodcast ny2011
license: 0
latitude: 40.753084
longitude: -73.993735
accuracy: 15
views: 95
interestingness: 8 out of 105

photo: 6433571583 88279af6ab 7034
owner: 39467669@N04
title: Manhattan To Queens B&W
originalsecret: null
originalformat: null
o_height: null
o_width: null
datetaken: 2011-11-30 19:10:54
dateupload: 1322698690
tags: nyc newyorkcity panorama manhattan queens eastriver queensborobridge canon135mmf2l danlove
license: 0
latitude: 40.736722
longitude: -73.972892
accuracy: 13
views: 135
interestingness: 9 out of 105

photo: 6433629991 f79ab5a7f3 7168
owner: 13668275@N07
title: Philadelphia 356
originalsecret: null
originalformat: null
o_height: null
o_width: null
datetaken: 2011-11-29 21:06:53
dateupload: 1322699554
tags: city blackandwhite bw philadelphia night pennsylvania streetphotography philly philadelphiastreetphotography ricohgxr
license: 0
latitude: 39.955675
longitude: -75.159959
accuracy: 14
views: 82
interestingness: 10 out of 105

photo: 6433512093 605e65114c 7145
owner: 41584113@N02
title: Inspired in Nottingham
originalsecret: null
originalformat: null
o_height: null
o_width: null
datetaken: 2011-11-23 00:54:23
dateupload: 1322697708
tags: street city nottingham people urban woman stockings girl fashion walking nikon path candid style tights skirt brunette tamron d7000 gjkerr
license: 0
latitude: 52.959289
longitude: -1.155509
accuracy: 11
views: 292
interestingness: 11 out of 105

photo: 6434013375 c5be6226a2 7159
owner: 40999618@N05
title: Berner M?nster
originalsecret: fb5b74848c
originalformat: jpg
o_height: 1500
o_width: 2000
datetaken: 2011-06-10 04:25:11
dateupload: 1322705232
tags: switzerland cathedral gothic bern minster oldcity bernermunster
license: 3
latitude: 46.949676
longitude: 7.43946
accuracy: 11
views: 47
interestingness: 12 out of 105

photo: 6434065471 9fef2a7881 7149
owner: 32670058@N08
title: Cardinal Couple
originalsecret: null
originalformat: null
o_height: null
o_width: null
datetaken: 2011-11-25 20:50:01
dateupload: 1322705985
tags: red bird birds nikon dof aves kansas d200 oiseaux cardinals gilrtwin
license: 0
latitude: 38.813696
longitude: -94.7509
accuracy: 16
views: 53
interestingness: 13 out of 105

photo: 6433521215 3c7c0a97ae 7006
owner: 8718347@N05
title: Piazza San Marco
originalsecret: de0d34c791
originalformat: jpg
o_height: 598
o_width: 900
datetaken: 2011-11-30 16:04:17
dateupload: 1322697857
tags: longexposure venice sky italy tower clouds buildings square bars europe mosaic restaurants wideangle oldbuildings center citylights slowshutter nightsky venezia dri hdr highdynamicrange cafes sanmarco piazzasanmarco towncenter veneto kajo digitalrangeincrease kajophotography
license: 0
latitude: 45.433755
longitude: 12.340779
accuracy: 14
views: 101
interestingness: 14 out of 105

photo: 6433884451 f01d725189 7174
owner: 43464925@N08
title: ????  - Sunset on Cosmos sea of flowers in Shinshou - Taichung City
originalsecret: null
originalformat: null
o_height: null
o_width: null
datetaken: 2011-11-30 16:46:45
dateupload: 1322703325
tags: sunset taiwan ?? cosmos ??? ?? ?? seaofflowers ??? taichungcity shinshou sonya850 sony2470za
license: 0
latitude: 24.218044
longitude: 120.812616
accuracy: 14
views: 79
interestingness: 15 out of 105

photo: 6433766485 13142f5091 7173
owner: 51038833@N08
title: Hard student Life
originalsecret: 82dc2588f1
originalformat: jpg
o_height: 4322
o_width: 3030
datetaken: 2011-11-30 19:25:23
dateupload: 1322701591
tags: friends food cooking colors amazing nikon shot fisheye greece thessaloniki 8mm hdr studentlife citycollege hoxha rokinon rilind
license: 6
latitude: 40.639537
longitude: 22.941373
accuracy: 14
views: 200
interestingness: 16 out of 105

photo: 6434020163 ab496cb294 7003
owner: 39336718@N06
title: Roses on the 1st day of summer 2011
originalsecret: 3aab5124fa
originalformat: jpg
o_height: 1450
o_width: 1600
datetaken: 2011-12-01 13:37:16
dateupload: 1322705325
tags: flowers newzealand roses plants sun flower nature leaves sunshine rose garden petals flora nikon nz wellington nikkor d300 nouvellez?lande wellingtoncity wellingtonnz nikond300 nikkorvr105mmf28micro bernzfotos
license: 0
latitude: -41.28145
longitude: 174.768877
accuracy: 14
views: 49
interestingness: 17 out of 105

photo: 6434017379 21d218e8d3 7163
owner: 39336718@N06
title: Roses on the 1st day of summer 2011
originalsecret: d0494f5cb2
originalformat: jpg
o_height: 1361
o_width: 1600
datetaken: 2011-12-01 13:27:52
dateupload: 1322705286
tags: flowers newzealand roses plants sun flower nature leaves sunshine rose garden petals flora nikon nz wellington nikkor d300 nouvellez?lande wellingtoncity wellingtonnz nikond300 nikkorvr105mmf28micro bernzfotos
license: 0
latitude: -41.28145
longitude: 174.768877
accuracy: 14
views: 22
interestingness: 18 out of 105

photo: 6433919113 2bcdb5839a 7154
owner: 10903216@N03
title: Black Cab
originalsecret: null
originalformat: null
o_height: null
o_width: null
datetaken: 2011-11-25 19:48:10
dateupload: 1322703853
tags: christmas street new city decorations people black weather night birmingham unitedkingdom cab taxi centre gear tokina busy f28 amusements citycentre hdr agora newstreet blackcab lenses themes d300 1116 timeofday tokina1116f28 agoraamusements
license: 0
latitude: 52.479238
longitude: -1.899648
accuracy: 16
views: 120
interestingness: 19 out of 105

photo: 6433958649 795b6bf915 7171
owner: 54530258@N02
title: Night traffic on the bridge -   Trafico de noche en el puente
originalsecret: b2f51c07c4
originalformat: jpg
o_height: 1867
o_width: 2800
datetaken: 2011-11-26 06:13:19
dateupload: 1322704441
tags: bridge puente pasadena suicidebridge coloradostreetbridge pas1 pasadebridge puentesuicida
license: 0
latitude: 34.14359
longitude: -118.168677
accuracy: 15
views: 30
interestingness: 20 out of 105

photo: 6434011005 18bd75cd14 7155
owner: 39336718@N06
title: Roses on the 1st day of summer 2011
originalsecret: de0732e5f1
originalformat: jpg
o_height: 1302
o_width: 1600
datetaken: 2011-12-01 13:04:54
dateupload: 1322705199
tags: flowers newzealand roses plants sun flower nature leaves sunshine rose garden petals flora nikon nz wellington nikkor d300 nouvellez?lande wellingtoncity wellingtonnz nikond300 nikkorvr105mmf28micro bernzfotos
license: 0
latitude: -41.28145
longitude: 174.768877
accuracy: 14
views: 31
interestingness: 21 out of 105

photo: 6433889213 5dbb5bba67 7168
owner: 41598419@N04
title: city portrait
originalsecret: null
originalformat: null
o_height: null
o_width: null
datetaken: 2010-01-01 00:00:00
dateupload: 1322703391
tags: china city shadow portrait shanghai pearltower photoreligion
license: 0
latitude: 31.247709
longitude: 121.472618
accuracy: 11
views: 38
interestingness: 22 out of 105

photo: 6433938503 cc40a8b05e 7032
owner: 38275388@N00
title: After Hours Study
originalsecret: null
originalformat: null
o_height: null
o_width: null
datetaken: 2011-11-30 19:57:45
dateupload: 1322704158
tags: nyc newyorkcity newyork pen nypl newyorkpubliclibrary computers olympus cellphones ep1 mzuiko17mm
license: 0
latitude: 40.75293
longitude: -73.981697
accuracy: 15
views: 58
interestingness: 23 out of 105

photo: 6433956925 0274b161d6 7158
owner: 54530258@N02
title: The moon and star over Pasadena  -- La luna y la estrella sobre Pasadena
originalsecret: 0f3e85eb4b
originalformat: jpg
o_height: 1997
o_width: 2930
datetaken: 2011-11-26 06:13:18
dateupload: 1322704417
tags: bridge puente pasadena suicidebridge coloradostreetbridge pas1 pasadebridge puentesuicida
license: 0
latitude: 34.143688
longitude: -118.168526
accuracy: 15
views: 14
interestingness: 24 out of 105

photo: 6433962663 0cb3c5e39f 7010
owner: 48922763@N04
title: Aragon Ballroom Built in 1926, Chicago Illinois
originalsecret: 6d6ced43e3
originalformat: jpg
o_height: 1715
o_width: 2669
datetaken: 2011-11-19 13:53:23
dateupload: 1322704500
tags: old city urban chicago building illinois midwest il uptown bands ballroom aragon concerts chicagoillinois chicagoil neightborhood orchestras bigbands aragonballroon
license: 0
latitude: 41.969142
longitude: -87.658002
accuracy: 16
views: 38
interestingness: 25 out of 105

photo: 6434019319 16a74f40d0 7169
owner: 39336718@N06
title: Roses on the 1st day of summer 2011
originalsecret: 9d16cd9c14
originalformat: jpg
o_height: 1178
o_width: 1600
datetaken: 2011-12-01 13:33:03
dateupload: 1322705313
tags: flowers newzealand roses plants sun flower nature leaves sunshine rose garden petals flora nikon nz wellington nikkor d300 nouvellez?lande wellingtoncity wellingtonnz nikond300 nikkorvr105mmf28micro bernzfotos
license: 0
latitude: -41.28145
longitude: 174.768877
accuracy: 14
views: 19
interestingness: 26 out of 105

photo: 6434099093 996cf46479 7029
owner: 51345226@N02
title: corner of Broadway & Wall Street
originalsecret: null
originalformat: null
o_height: null
o_width: null
datetaken: 2011-11-27 16:03:42
dateupload: 1322706461
tags: nyc newyorkcity newyork buildings broadway wallstreet
license: 0
latitude: 40.713955
longitude: -74.004077
accuracy: 11
views: 15
interestingness: 27 out of 105

photo: 6433775495 063f538430 7033
owner: 46005017@N00
title: Look Away
originalsecret: null
originalformat: null
o_height: null
o_width: null
datetaken: 2007-01-10 08:14:55
dateupload: 1322701728
tags: christmas newyorkcity decorations reflection mannequin window store manhattan bergdorf goodman
license: 0
latitude: 40.763612
longitude: -73.97394
accuracy: 16
views: 21
interestingness: 28 out of 105

photo: 6433560721 0605f9c6a6 7022
owner: 66476005@N00
title: Urban windbreak
originalsecret: 11d8d67b21
originalformat: jpg
o_height: 4138
o_width: 3159
datetaken: 2011-11-30 15:53:12
dateupload: 1322698514
tags: city urban tree nature bark trunk loblolly loblollyloblollyloblollyloblollyloblolly loblollyloblollyloblollyloblollyloblollyloblollyloblollyloblollyloblollyloblolly thatisfuntosay
license: 0
latitude: 34.737733
longitude: -86.574786
accuracy: 16
views: 27
interestingness: 29 out of 105

photo: 6433962649 32c78a37c4 7032
owner: 48922763@N04
title: Toaster on the run
originalsecret: 9d114f7443
originalformat: jpg
o_height: 1703
o_width: 2678
datetaken: 2011-11-19 13:19:09
dateupload: 1322704500
tags: city urban chicago building bread graffiti illinois mural midwest toaster run il uptown chicagoillinois chicagoil neightborhood tooster
license: 0
latitude: 41.978076
longitude: -87.658753
accuracy: 15
views: 36
interestingness: 30 out of 105

photo: 6433926893 d18ab381e2 7017
owner: 62855149@N00
title: City block blues
originalsecret: 5d7a4cd203
originalformat: jpg
o_height: 2565
o_width: 3796
datetaken: 2011-11-25 14:06:58
dateupload: 1322703978
tags: blue windows abstract building london glass architecture canon office offices overlap 40d 1755mmf28is
license: 0
latitude: 51.505577
longitude: -0.079908
accuracy: 16
views: 14
interestingness: 31 out of 105

photo: 6433868829 daf307acbf 7166
owner: 68914347@N06
title: Occupy Montreal ? Endgame
originalsecret: af5b2864d9
originalformat: jpg
o_height: 960
o_width: 1280
datetaken: 2011-11-30 17:31:46
dateupload: 1322703106
tags: street city canada news wall john square cops quebec montreal political politics photojournalism police lifestyle victoria 99 demonstrations protests percent occupy jantak jjantak
license: 0
latitude: 45.501602
longitude: -73.561636
accuracy: 16
views: 75
interestingness: 32 out of 105

photo: 6433746113 b596a6c35e 7153
owner: 41584113@N02
title: Christmas Wonderment in Nottingham
originalsecret: null
originalformat: null
o_height: null
o_width: null
datetaken: 2011-11-23 02:36:57
dateupload: 1322701285
tags: street city nottingham people urban woman stockings fashion walking nikon path candid style tights skirt brunette tamron d7000 gjkerr
license: 0
latitude: 52.950499
longitude: -1.145896
accuracy: 11
views: 209
interestingness: 33 out of 105

photo: 6433620401 d756d6f0fd 7169
owner: 34954144@N04
title: Upward
originalsecret: 2514aaf9f3
originalformat: jpg
o_height: 792
o_width: 1152
datetaken: 2011-04-16 16:33:45
dateupload: 1322699411
tags: 
license: 0
latitude: 37.782112
longitude: -122.441253
accuracy: 10
views: 39
interestingness: 34 out of 105

photo: 6433533879 2fe1563263 7010
owner: 11821713@N00
title: Der Spiegel
originalsecret: 74a25d62e7
originalformat: jpg
o_height: 4064
o_width: 2848
datetaken: 2011-11-26 16:12:28
dateupload: 1322698062
tags: city architecture germany deutschland hamburg stadt architektur derspiegel verlagshaus
license: 1
latitude: 53.546669
longitude: 10.003845
accuracy: 15
views: 72
interestingness: 35 out of 105

photo: 6434061873 b3fe2d17f6 7145
owner: 21044097@N00
title: Wtc3
originalsecret: 6e333bfcf0
originalformat: jpg
o_height: 1936
o_width: 2592
datetaken: 2011-11-30 13:57:25
dateupload: 1322705931
tags: nyc newyorkcity newyork worldtradecenter wtc flickrandroidapp:filter=none
license: 4
latitude: 40.710698
longitude: -74.011062
accuracy: 16
views: 24
interestingness: 36 out of 105

photo: 6433918439 eff99d0a26 7156
owner: 8640036@N07
title: Stone Arch Bridge
originalsecret: null
originalformat: null
o_height: null
o_width: null
datetaken: 2011-09-05 15:56:16
dateupload: 1322703842
tags: bridge minnesota minneapolis twincities stonearchbridge stanthonyfalls
license: 0
latitude: 44.986049
longitude: -93.269119
accuracy: 11
views: 10
interestingness: 37 out of 105

photo: 6433752949 119d77718f 7030
owner: 70127529@N00
title: Graffiti Moving Truck, Harlem, New York City
originalsecret: null
originalformat: null
o_height: null
o_width: null
datetaken: 2011-11-28 15:57:45
dateupload: 1322701388
tags: city nyc ny newyork art ford car truck graffiti moving harlem manhattan vehicle van
license: 0
latitude: 40.811409
longitude: -73.952107
accuracy: 16
views: 29
interestingness: 38 out of 105

photo: 6434063381 91a63014f7 7007
owner: 21044097@N00
title: Wtc4
originalsecret: d38e5382cd
originalformat: jpg
o_height: 1936
o_width: 2592
datetaken: 2011-11-30 13:56:38
dateupload: 1322705954
tags: nyc newyorkcity newyork worldtradecenter wtc flickrandroidapp:filter=none
license: 4
latitude: 40.710645
longitude: -74.011019
accuracy: 16
views: 16
interestingness: 39 out of 105

photo: 6434014205 e19d14796b 7016
owner: 39336718@N06
title: Roses on the 1st day of summer 2011
originalsecret: de7da23fd1
originalformat: jpg
o_height: 1600
o_width: 1545
datetaken: 2011-12-01 13:19:41
dateupload: 1322705244
tags: flowers newzealand roses plants sun flower nature leaves sunshine rose garden petals flora nikon nz wellington nikkor d300 nouvellez?lande wellingtoncity wellingtonnz nikond300 nikkorvr105mmf28micro bernzfotos
license: 0
latitude: -41.28145
longitude: 174.768877
accuracy: 14
views: 18
interestingness: 40 out of 105

photo: 6433979325 d9f085e79a 7005
owner: 57639431@N00
title: Along Old Almonte Road #1
originalsecret: f78398c3e8
originalformat: jpg
o_height: 1600
o_width: 2400
datetaken: 2011-11-25 13:14:20
dateupload: 1322704739
tags: topazadjust oldalmonteroad
license: 3
latitude: 45.273195
longitude: -76.033716
accuracy: 16
views: 19
interestingness: 41 out of 105

photo: 6433876405 b9f634017d 7032
owner: 40310954@N02
title: New Orleans City Park
originalsecret: null
originalformat: null
o_height: null
o_width: null
datetaken: 2011-11-25 18:06:38
dateupload: 1322703212
tags: park new city sculpture sepia orleans louisiana decoration
license: 0
latitude: 29.989099
longitude: -90.096044
accuracy: 13
views: 9
interestingness: 42 out of 105

photo: 6433962659 a9505bf38c 7148
owner: 48922763@N04
title: Aragon Ballroom Built in 1926, Chicago IL.
originalsecret: 767e013d2d
originalformat: jpg
o_height: 1871
o_width: 2794
datetaken: 2011-11-19 13:51:37
dateupload: 1322704500
tags: old city urban chicago building sign marquee illinois midwest neon dancing historic il uptown ballroom concerts chicagoillinois aragonballroom chicagoil neightborhood
license: 0
latitude: 41.969146
longitude: -87.65798
accuracy: 16
views: 33
interestingness: 43 out of 105

photo: 6433733689 d76c0d4bab 7148
owner: 10455329@N08
title: Ladyface Mountain
originalsecret: null
originalformat: null
o_height: null
o_width: null
datetaken: 2011-11-29 17:28:55
dateupload: 1322701102
tags: reflection landscape peak cornell southerncalifornia santamonicamountains sunsetlight chumash agourahills ladyface
license: 0
latitude: 34.12511
longitude: -118.749804
accuracy: 14
views: 14
interestingness: 44 out of 105

photo: 6434047367 1f6d076c45 7158
owner: 36971891@N08
title: Shanghai?????-??
originalsecret: null
originalformat: null
o_height: null
o_width: null
datetaken: 2011-11-30 18:08:50
dateupload: 1322705709
tags: china city architecture night buildings shanghai ?? ?? ?? ???? ???? ?? heritagearchitecture ????? ???????? ????
license: 0
latitude: 31.220141
longitude: 121.465015
accuracy: 11
views: 28
interestingness: 45 out of 105

photo: 6434013313 1d1790432d 7007
owner: 39336718@N06
title: Roses on the 1st day of summer 2011
originalsecret: b3d7f6838e
originalformat: jpg
o_height: 1600
o_width: 1569
datetaken: 2011-12-01 13:15:03
dateupload: 1322705231
tags: flowers newzealand roses plants sun flower nature leaves sunshine rose garden petals flora nikon nz wellington nikkor d300 nouvellez?lande wellingtoncity wellingtonnz nikond300 nikkorvr105mmf28micro bernzfotos
license: 0
latitude: -41.28145
longitude: 174.768877
accuracy: 14
views: 11
interestingness: 46 out of 105

photo: 6434010281 1a0e47f46d 7165
owner: 39336718@N06
title: Roses on the 1st day of summer 2011
originalsecret: 4294062137
originalformat: jpg
o_height: 1421
o_width: 1600
datetaken: 2011-12-01 13:00:46
dateupload: 1322705189
tags: flowers newzealand roses plants sun flower nature leaves sunshine rose garden petals flora nikon nz wellington nikkor d300 nouvellez?lande wellingtoncity wellingtonnz nikond300 nikkorvr105mmf28micro bernzfotos
license: 0
latitude: -41.28145
longitude: 174.768877
accuracy: 14
views: 13
interestingness: 47 out of 105

photo: 6433767465 59bce51945 7015
owner: 41701540@N02
title: Bare
originalsecret: null
originalformat: null
o_height: null
o_width: null
datetaken: 2011-11-30 08:19:47
dateupload: 1322701606
tags: city november autumn urban chicago motion blur fall apple station moving cta granville bare cab taxi winthrop north broadway dirty dirt scion planter xb edgewater core chicagotransitauthority 2011
license: 0
latitude: 41.994472
longitude: -87.658807
accuracy: 16
views: 37
interestingness: 48 out of 105

photo: 6433962655 99a9090de4 7153
owner: 48922763@N04
title: Facade of the Aragon Ballroom, Chicago Illinois.
originalsecret: 35efec0350
originalformat: jpg
o_height: 1784
o_width: 2600
datetaken: 2011-11-19 13:51:20
dateupload: 1322704500
tags: old city urban chicago building architecture facade illinois midwest faces historic il uptown ballroom aragon ornate chicagoillinois aragonballroom chicagoil neightborhood
license: 0
latitude: 41.969142
longitude: -87.657884
accuracy: 16
views: 20
interestingness: 49 out of 105

photo: 6433962635 c8b2b236b0 7143
owner: 48922763@N04
title: Graffiti, out of this world.
originalsecret: 37b45d41a2
originalformat: jpg
o_height: 1713
o_width: 2617
datetaken: 2011-11-19 13:18:28
dateupload: 1322704499
tags: city urban moon chicago building monkey illinois mural midwest space il uptown graffitti spaceship chicagoillinois chicagoil neightborhood chicagograffiti spacebrainz searchinganotherworld
license: 0
latitude: 41.97806
longitude: -87.658731
accuracy: 15
views: 19
interestingness: 50 out of 105

photo: 6433962619 bd83a402b7 7174
owner: 48922763@N04
title: Foremost Liquors ghost
originalsecret: ea99ddba48
originalformat: jpg
o_height: 1434
o_width: 2111
datetaken: 2011-11-19 13:06:42
dateupload: 1322704499
tags: city urban chicago building sign store illinois midwest bottles map decay ghost il uptown faded liquors ghostsign chicagoillinois chicagoil neightborhood foremost foremostliquors
license: 0
latitude: 41.972269
longitude: -87.659955
accuracy: 16
views: 25
interestingness: 51 out of 105

photo: 6433927621 77c7c73feb 7161
owner: 8640036@N07
title: St. Anthony falls 2011
originalsecret: null
originalformat: null
o_height: null
o_width: null
datetaken: 2011-09-05 15:43:50
dateupload: 1322703989
tags: bridge minnesota cities minneapolis twin twincities stonearchbridge stanthonyfalls
license: 0
latitude: 44.984713
longitude: -93.271179
accuracy: 11
views: 13
interestingness: 52 out of 105

photo: 6433776997 0520de6672 7010
owner: 46005017@N00
title: Golden Girl
originalsecret: null
originalformat: null
o_height: null
o_width: null
datetaken: 2007-01-10 08:15:46
dateupload: 1322701751
tags: christmas newyorkcity decorations reflection mannequin window store manhattan bergdorf goodman
license: 0
latitude: 40.763633
longitude: -73.973983
accuracy: 16
views: 23
interestingness: 53 out of 105

photo: 6433658779 667def5072 7001
owner: 10353403@N02
title: Royle Street, Salford
originalsecret: cbb4448101
originalformat: jpg
o_height: 2035
o_width: 3888
datetaken: 2011-11-24 14:25:28
dateupload: 1322699989
tags: geo:lat=0 geo:lon=0 geocity camera:make=canon camera:model=canoneos400ddigital exif:make=canon exif:iso_speed=200 exif:focal_length=24mm geostate geocountrys exif:model=canoneos400ddigital exif:aperture=?56 exif:lens=ef24mmf28
license: 0
latitude: 53.482063
longitude: -2.292001
accuracy: 15
views: 35
interestingness: 54 out of 105

photo: 6433841817 27ee039f92 7002
owner: 32810914@N03
title: Studio Work, November 2011
originalsecret: null
originalformat: null
o_height: null
o_width: null
datetaken: 2011-11-27 18:02:06
dateupload: 1322702704
tags: nyc newyork studio photoshoot longislandcity
license: 0
latitude: 40.763271
longitude: -73.940203
accuracy: 16
views: 13
interestingness: 55 out of 105

photo: 6433774069 3f4785fcc5 7020
owner: 46005017@N00
title: Fishy
originalsecret: null
originalformat: null
o_height: null
o_width: null
datetaken: 2007-01-10 08:14:19
dateupload: 1322701707
tags: christmas newyorkcity decorations window store manhattan bergdorf goodman
license: 0
latitude: 40.763681
longitude: -73.973886
accuracy: 16
views: 16
interestingness: 56 out of 105

photo: 6433559989 442577e6b2 7017
owner: 66476005@N00
title: Urban windbreak
originalsecret: f8b9eed625
originalformat: jpg
o_height: 2720
o_width: 4608
datetaken: 2011-11-30 15:55:53
dateupload: 1322698501
tags: city urban tree nature bark trunk
license: 0
latitude: 34.737649
longitude: -86.574701
accuracy: 16
views: 25
interestingness: 57 out of 105

photo: 6434010587 c6a88292b3 7023
owner: 39336718@N06
title: Roses on the 1st day of summer 2011
originalsecret: b4c25c03ae
originalformat: jpg
o_height: 854
o_width: 1600
datetaken: 2011-12-01 13:01:51
dateupload: 1322705193
tags: flowers newzealand roses plants sun flower nature leaves sunshine rose garden petals flora nikon nz wellington nikkor d300 nouvellez?lande wellingtoncity wellingtonnz nikond300 nikkorvr105mmf28micro bernzfotos
license: 0
latitude: -41.28145
longitude: 174.768877
accuracy: 14
views: 23
interestingness: 58 out of 105

photo: 6433964493 7e7a00a5e5 7020
owner: 61518665@N00
title: How It's Done
originalsecret: null
originalformat: null
o_height: null
o_width: null
datetaken: 2011-11-30 13:44:41
dateupload: 1322704528
tags: city railroad people industry minnesota construction industrial steel welding working minneapolis machinery mpls ducttape transit masstransit twincities lightrail sparks mn lrt
license: 0
latitude: 44.974764
longitude: -93.219176
accuracy: 15
views: 22
interestingness: 59 out of 105

photo: 6433773193 0cb0503726 7011
owner: 46005017@N00
title: Coy
originalsecret: null
originalformat: null
o_height: null
o_width: null
datetaken: 2007-01-10 08:13:43
dateupload: 1322701692
tags: christmas newyorkcity decorations mannequin window store manhattan bergdorf goodman
license: 0
latitude: 40.76358
longitude: -73.97379
accuracy: 16
views: 13
interestingness: 60 out of 105

photo: 6433538237 7dba5573db 7166
owner: 11552006@N07
title: City Hall, Sheffield
originalsecret: null
originalformat: null
o_height: null
o_width: null
datetaken: 2011-11-30 17:55:27
dateupload: 1322698132
tags: christmas sheffield christmaslights bretton98
license: 0
latitude: 53.384864
longitude: -1.464786
accuracy: 11
views: 43
interestingness: 61 out of 105

photo: 6433982853 bc5c705e35 7028
owner: 66733752@N00
title: Oregon Coast
originalsecret: 19807c9afd
originalformat: jpg
o_height: 2048
o_width: 1536
datetaken: 2011-10-31 16:10:04
dateupload: 1322704789
tags: ocean beach oregon motel roadtrip pacificocean oregoncoast lincolncity esterleemotel
license: 0
latitude: 44.937577
longitude: -124.024196
accuracy: 16
views: 16
interestingness: 62 out of 105

photo: 6434012747 288618f5c2 7034
owner: 39336718@N06
title: Roses on the 1st day of summer 2011
originalsecret: c27b709bdc
originalformat: jpg
o_height: 1505
o_width: 1600
datetaken: 2011-12-01 13:13:43
dateupload: 1322705224
tags: flowers newzealand roses plants sun flower nature leaves sunshine rose garden petals flora nikon nz wellington nikkor d300 nouvellez?lande wellingtoncity wellingtonnz nikond300 nikkorvr105mmf28micro bernzfotos
license: 0
latitude: -41.28145
longitude: 174.768877
accuracy: 14
views: 12
interestingness: 63 out of 105

photo: 6433980159 8e70d91b0c 7002
owner: 66733752@N00
title: Oregon Coast
originalsecret: ab62851fe9
originalformat: jpg
o_height: 1536
o_width: 2048
datetaken: 2011-10-31 14:09:24
dateupload: 1322704750
tags: building architecture oregon motel roadtrip oregoncoast lincolncity esterleemotel
license: 0
latitude: 44.937577
longitude: -124.024196
accuracy: 16
views: 6
interestingness: 64 out of 105

photo: 6434012051 67453fa053 7167
owner: 39336718@N06
title: Roses on the 1st day of summer 2011
originalsecret: f888a79618
originalformat: jpg
o_height: 1062
o_width: 1600
datetaken: 2011-12-01 13:10:13
dateupload: 1322705214
tags: flowers newzealand roses plants sun flower nature leaves sunshine rose garden petals flora nikon nz wellington nikkor d300 nouvellez?lande wellingtoncity wellingtonnz nikond300 nikkorvr105mmf28micro bernzfotos
license: 0
latitude: -41.28145
longitude: 174.768877
accuracy: 14
views: 15
interestingness: 65 out of 105

photo: 6434013675 ffbd407412 7034
owner: 39336718@N06
title: Roses on the 1st day of summer 2011
originalsecret: fa151cc652
originalformat: jpg
o_height: 1268
o_width: 1600
datetaken: 2011-12-01 13:17:36
dateupload: 1322705236
tags: flowers newzealand roses plants sun flower nature leaves sunshine rose garden petals flora nikon nz wellington nikkor d300 nouvellez?lande wellingtoncity wellingtonnz nikond300 nikkorvr105mmf28micro bernzfotos
license: 0
latitude: -41.28145
longitude: 174.768877
accuracy: 14
views: 26
interestingness: 66 out of 105

photo: 6434009869 d832cfd56e 7168
owner: 39336718@N06
title: Roses on the 1st day of summer 2011
originalsecret: 830b45c2b8
originalformat: jpg
o_height: 843
o_width: 1600
datetaken: 2011-12-01 12:58:14
dateupload: 1322705183
tags: flowers newzealand roses plants sun flower nature leaves sunshine rose garden petals flora nikon nz wellington nikkor d300 nouvellez?lande wellingtoncity wellingtonnz nikond300 nikkorvr105mmf28micro bernzfotos
license: 0
latitude: -41.28145
longitude: 174.768877
accuracy: 14
views: 22
interestingness: 67 out of 105

photo: 6434000713 564a91b8ac 7152
owner: 13910409@N05
title: Peacock Plant / Calathea makoyana / ???????(??????????)
originalsecret: 9c0bdef9bf
originalformat: jpg
o_height: 5616
o_width: 3744
datetaken: 2011-11-24 11:48:54
dateupload: 1322705058
tags: green tokyo leaf high hires resolution 5d ?? hi res ? markii ?? calathea peacockplant ?????? choufu makoyana ????? jindaishokubutsukouen ??? ??? ???? ????????????? ????????? ????? ??????? ??????????
license: 4
latitude: 35.671329
longitude: 139.54717
accuracy: 15
views: 8
interestingness: 68 out of 105

photo: 6433611215 3dc2c3b928 7161
owner: 38428539@N02
title: Vaulted arches and fluted pillars
originalsecret: null
originalformat: null
o_height: null
o_width: null
datetaken: 2011-11-30 13:13:34
dateupload: 1322699397
tags: museum scotland nikon gallery dundee mcmanus d3000
license: 0
latitude: 56.462496
longitude: -2.970997
accuracy: 16
views: 7
interestingness: 69 out of 105

photo: 6434016837 a3e01ee396 7028
owner: 39336718@N06
title: Roses on the 1st day of summer 2011
originalsecret: 68f1d986bd
originalformat: jpg
o_height: 1099
o_width: 1600
datetaken: 2011-12-01 13:26:48
dateupload: 1322705279
tags: flowers newzealand roses plants sun flower nature leaves sunshine rose garden petals flora nikon nz wellington nikkor d300 nouvellez?lande wellingtoncity wellingtonnz nikond300 nikkorvr105mmf28micro bernzfotos
license: 0
latitude: -41.28145
longitude: 174.768877
accuracy: 14
views: 14
interestingness: 70 out of 105

photo: 6434050687 6f157dca66 7022
owner: 18532920@N00
title: danger
originalsecret: 863f1b49e1
originalformat: jpg
o_height: 512
o_width: 384
datetaken: 2011-11-27 16:39:08
dateupload: 1322705759
tags: nevada sage mines carsonvalley carsoncity gardnerville stayoutstayalive
license: 0
latitude: 39.05755
longitude: -119.718639
accuracy: 16
views: 5
interestingness: 71 out of 105

photo: 6434050413 a23a9837ba 7159
owner: 62466827@N02
title: San Felipe de Neri Church
originalsecret: null
originalformat: null
o_height: null
o_width: null
datetaken: 2011-11-25 05:33:40
dateupload: 1322705755
tags: newmexico sanfelipedenerichurcholdtownalbuquerquealbuquerquenm
license: 0
latitude: 35.096684
longitude: -106.669789
accuracy: 16
views: 48
interestingness: 72 out of 105

photo: 6433791433 56414427a6 7016
owner: 54106155@N00
title: henna tattoo
originalsecret: null
originalformat: null
o_height: null
o_width: null
datetaken: 2011-11-20 20:48:43
dateupload: 1322701957
tags: city dumaguete
license: 0
latitude: 9.302897
longitude: 123.312091
accuracy: 11
views: 9
interestingness: 73 out of 105

photo: 6433749683 a5415cf907 7024
owner: 72098626@N00
title: Central Park Dance Skaters, Oct 2011 - 17
originalsecret: 6ca27a978d
originalformat: jpg
o_height: 3957
o_width: 2639
datetaken: 2011-10-23 15:28:04
dateupload: 1322701338
tags: newyork bottle dancers centralpark manhattan skate centralparkdanceskaters danceskaters
license: 1
latitude: 40.773277
longitude: -73.971356
accuracy: 16
views: 27
interestingness: 74 out of 105

photo: 6434103539 c552a9ccf4 7025
owner: 86544988@N00
title: gravestones bridge
originalsecret: null
originalformat: null
o_height: null
o_width: null
datetaken: 2011-11-27 15:36:06
dateupload: 1322706523
tags: park city bridge autumn urban white fall nature strange stone contrast outside outdoors woods place stones low maryland ground spot baltimore graves mysterious opening blocks scratched gravestones balanced stacked installed grat druidhill woodberry druidhillpark
license: 0
latitude: 39.32926
longitude: -76.647073
accuracy: 15
views: 11
interestingness: 75 out of 105

photo: 6434091519 37b767de53 7026
owner: 86544988@N00
title: tree-framed sky
originalsecret: null
originalformat: null
o_height: null
o_width: null
datetaken: 2011-11-27 15:22:10
dateupload: 1322706356
tags: above park city blue autumn trees sky urban fall nature outside outdoors woods place bare branches border maryland spot baltimore lookingup lookup frame opening edges druidhill woodberry druidhillpark
license: 0
latitude: 39.32926
longitude: -76.647073
accuracy: 15
views: 13
interestingness: 76 out of 105

photo: 6434051661 f25172cce4 7144
owner: 18532920@N00
title: mine
originalsecret: 44ab187fc0
originalformat: jpg
o_height: 2048
o_width: 1536
datetaken: 2011-11-27 15:07:02
dateupload: 1322705773
tags: nevada sage mines carsonvalley carsoncity gardnerville stayoutstayalive
license: 0
latitude: 39.058087
longitude: -119.719455
accuracy: 16
views: 6
interestingness: 77 out of 105

photo: 6434019671 51fc8fdf5d 7156
owner: 39336718@N06
title: Roses on the 1st day of summer 2011
originalsecret: 36b2bc1349
originalformat: jpg
o_height: 1081
o_width: 1600
datetaken: 2011-12-01 13:35:07
dateupload: 1322705318
tags: flowers newzealand roses plants sun flower nature leaves sunshine rose garden petals flora nikon nz wellington nikkor d300 nouvellez?lande wellingtoncity wellingtonnz nikond300 nikkorvr105mmf28micro bernzfotos
license: 0
latitude: -41.28145
longitude: 174.768877
accuracy: 14
views: 7
interestingness: 78 out of 105

photo: 6433982663 2b0b651ec2 7028
owner: 66733752@N00
title: Oregon Coast
originalsecret: 316457b50e
originalformat: jpg
o_height: 1536
o_width: 2048
datetaken: 2011-10-31 14:58:33
dateupload: 1322704786
tags: ocean beach oregon seagull roadtrip pacificocean oregoncoast lincolncity
license: 0
latitude: 44.937524
longitude: -124.025141
accuracy: 16
views: 19
interestingness: 79 out of 105

photo: 6433607443 b53a918c7b 7143
owner: 96675653@N00
title: night scene
originalsecret: null
originalformat: null
o_height: null
o_width: null
datetaken: 2011-09-05 21:50:16
dateupload: 1322699220
tags: longexposure nikon nightshot belgium brugge unesco bruges burg worldheritage flanders vlaanderen tompouce 18200mm d90 hccity
license: 0
latitude: 51.208557
longitude: 3.226965
accuracy: 15
views: 26
interestingness: 80 out of 105

photo: 6433793097 9a9893f1b2 7172
owner: 54790761@N04
title: Downtown
originalsecret: 22e849651e
originalformat: jpg
o_height: 2777
o_width: 4150
datetaken: 2011-11-21 06:14:21
dateupload: 1322701983
tags: lights downtown skyscrapers capetown citylights roads signalhill
license: 0
latitude: -33.919004
longitude: 18.401927
accuracy: 11
views: 9
interestingness: 81 out of 105

photo: 6433882491 6df3d34a9e 7148
owner: 45676477@N07
title: HC4B7616.JPG
originalsecret: null
originalformat: null
o_height: null
o_width: null
datetaken: 2011-11-30 21:20:21
dateupload: 1322703296
tags: worship praise eucharisticadoration eyefi bostoncatholic
license: 0
latitude: 42.19041
longitude: -71.058448
accuracy: 14
views: 67
interestingness: 82 out of 105

photo: 6434061691 7224121882 7172
owner: 48556423@N00
title: World Hoop Day
originalsecret: d7a40424e6
originalformat: jpg
o_height: 1936
o_width: 1936
datetaken: 2011-11-11 17:50:54
dateupload: 1322705929
tags: world park city november lake water fountain silhouette hoop evening orlando swan downtown day florida 11 swans lakeeola 111111 eola 2011 lakeeolapark worldhoopday orlandoset hipstamatic binaryday
license: 1
latitude: 28.544667
longitude: -81.370667
accuracy: 16
views: 22
interestingness: 83 out of 105

photo: 6434043379 5baaa416af 7166
owner: 32470925@N02
title: Dobrovsky's tunnels
originalsecret: null
originalformat: null
o_height: null
o_width: null
datetaken: 2011-11-09 11:01:00
dateupload: 1322705650
tags: city europe outdoor hometown brno czechrepublic neighbours vicinity southernmoravia trafficbuilding dobrovskystunnels brnozabovresky
license: 0
latitude: 49.216051
longitude: 16.580829
accuracy: 16
views: 11
interestingness: 84 out of 105

photo: 6434043067 45811b3d42 7170
owner: 32470925@N02
title: Dobrovsky's tunnels
originalsecret: null
originalformat: null
o_height: null
o_width: null
datetaken: 2011-11-09 11:00:39
dateupload: 1322705646
tags: city europe outdoor hometown brno czechrepublic neighbours vicinity southernmoravia trafficbuilding dobrovskystunnels brnozabovresky
license: 0
latitude: 49.216051
longitude: 16.580829
accuracy: 16
views: 10
interestingness: 85 out of 105

photo: 6434042761 80b3824331 7025
owner: 32470925@N02
title: Dobrovsky's tunnels
originalsecret: null
originalformat: null
o_height: null
o_width: null
datetaken: 2011-11-09 11:00:27
dateupload: 1322705641
tags: city europe outdoor hometown brno czechrepublic neighbours vicinity southernmoravia trafficbuilding dobrovskystunnels brnozabovresky
license: 0
latitude: 49.216051
longitude: 16.580829
accuracy: 16
views: 9
interestingness: 86 out of 105

photo: 6434042451 17abab1fe1 7023
owner: 32470925@N02
title: Dobrovsky's tunnels
originalsecret: null
originalformat: null
o_height: null
o_width: null
datetaken: 2011-11-09 10:59:58
dateupload: 1322705636
tags: city europe outdoor hometown brno czechrepublic neighbours vicinity southernmoravia trafficbuilding dobrovskystunnels brnozabovresky
license: 0
latitude: 49.216051
longitude: 16.580829
accuracy: 16
views: 7
interestingness: 87 out of 105

photo: 6434042073 9e6ef492a8 7028
owner: 32470925@N02
title: Dobrovsky's tunnels
originalsecret: null
originalformat: null
o_height: null
o_width: null
datetaken: 2011-11-09 10:59:38
dateupload: 1322705631
tags: city europe outdoor hometown brno czechrepublic neighbours vicinity southernmoravia trafficbuilding dobrovskystunnels brnozabovresky
license: 0
latitude: 49.216051
longitude: 16.580829
accuracy: 16
views: 10
interestingness: 88 out of 105

photo: 6434041755 b3e1910ffe 7009
owner: 32470925@N02
title: Dobrovsky's tunnels
originalsecret: null
originalformat: null
o_height: null
o_width: null
datetaken: 2011-11-09 10:59:18
dateupload: 1322705626
tags: city europe outdoor hometown brno czechrepublic neighbours vicinity southernmoravia trafficbuilding dobrovskystunnels brnozabovresky
license: 0
latitude: 49.216051
longitude: 16.580829
accuracy: 16
views: 8
interestingness: 89 out of 105

photo: 6434041407 31445f14c8 7159
owner: 32470925@N02
title: Dobrovsky's tunnels
originalsecret: null
originalformat: null
o_height: null
o_width: null
datetaken: 2011-11-09 10:59:06
dateupload: 1322705621
tags: city europe outdoor hometown brno czechrepublic neighbours vicinity southernmoravia trafficbuilding dobrovskystunnels brnozabovresky
license: 0
latitude: 49.216051
longitude: 16.580829
accuracy: 16
views: 7
interestingness: 90 out of 105

photo: 6434041101 2a2d72c359 7158
owner: 32470925@N02
title: Dobrovsky's tunnels
originalsecret: null
originalformat: null
o_height: null
o_width: null
datetaken: 2011-11-09 10:58:46
dateupload: 1322705617
tags: city europe outdoor hometown brno czechrepublic neighbours vicinity southernmoravia trafficbuilding dobrovskystunnels brnozabovresky
license: 0
latitude: 49.216051
longitude: 16.580829
accuracy: 16
views: 8
interestingness: 91 out of 105

photo: 6434037833 fc7d29c19b 7156
owner: 32470925@N02
title: Housing construction in Brno - Zabovresky district
originalsecret: null
originalformat: null
o_height: null
o_width: null
datetaken: 2011-11-10 07:36:06
dateupload: 1322705570
tags: city architecture europe outdoor hometown brno czechrepublic neighbours vicinity southernmoravia brnozabovresky
license: 0
latitude: 49.211254
longitude: 16.583202
accuracy: 15
views: 10
interestingness: 92 out of 105

photo: 6434037401 9265cfa692 7015
owner: 32470925@N02
title: Housing construction in Brno - Zabovresky district
originalsecret: null
originalformat: null
o_height: null
o_width: null
datetaken: 2011-11-10 07:35:17
dateupload: 1322705565
tags: city architecture europe outdoor hometown brno czechrepublic neighbours vicinity southernmoravia brnozabovresky
license: 0
latitude: 49.211254
longitude: 16.583202
accuracy: 15
views: 6
interestingness: 93 out of 105

photo: 6434037017 5b8b8870b3 7030
owner: 32470925@N02
title: Housing construction in Brno - Zabovresky district
originalsecret: null
originalformat: null
o_height: null
o_width: null
datetaken: 2011-11-10 07:33:56
dateupload: 1322705559
tags: city architecture europe outdoor hometown brno czechrepublic neighbours vicinity southernmoravia brnozabovresky
license: 0
latitude: 49.211254
longitude: 16.583202
accuracy: 15
views: 10
interestingness: 94 out of 105

photo: 6434033395 7d0fe40a13 7154
owner: 32470925@N02
title: Sky over the city of Brno
originalsecret: null
originalformat: null
o_height: null
o_width: null
datetaken: 2011-11-14 09:35:48
dateupload: 1322705512
tags: city sky nature europe outdoor hometown brno czechrepublic neighbours vicinity southernmoravia brnozabovresky
license: 0
latitude: 49.207297
longitude: 16.592252
accuracy: 16
views: 11
interestingness: 95 out of 105

photo: 6434033009 9d2624c0ed 7160
owner: 32470925@N02
title: Sky over the city of Brno
originalsecret: null
originalformat: null
o_height: null
o_width: null
datetaken: 2011-11-14 09:07:53
dateupload: 1322705507
tags: city sky nature europe outdoor hometown brno czechrepublic neighbours vicinity southernmoravia brnozabovresky
license: 0
latitude: 49.207297
longitude: 16.592252
accuracy: 16
views: 6
interestingness: 96 out of 105

photo: 6434032617 4afbc0cfe2 7164
owner: 32470925@N02
title: Fall in Brno
originalsecret: null
originalformat: null
o_height: null
o_width: null
datetaken: 2011-10-31 11:51:09
dateupload: 1322705502
tags: city sky nature europe outdoor hometown brno czechrepublic neighbours vicinity southernmoravia brnozabovresky
license: 0
latitude: 49.2165
longitude: 16.577285
accuracy: 16
views: 7
interestingness: 97 out of 105

photo: 6434032057 d8bd6ab333 7020
owner: 32470925@N02
title: Fall in Brno
originalsecret: null
originalformat: null
o_height: null
o_width: null
datetaken: 2011-10-31 11:50:43
dateupload: 1322705495
tags: city sky nature europe outdoor hometown brno czechrepublic neighbours vicinity southernmoravia brnozabovresky
license: 0
latitude: 49.2165
longitude: 16.577285
accuracy: 16
views: 12
interestingness: 98 out of 105

photo: 6434018933 d1fdd24a3a 7152
owner: 39336718@N06
title: Roses on the 1st day of summer 2011
originalsecret: cf9646e980
originalformat: jpg
o_height: 1233
o_width: 1600
datetaken: 2011-12-01 13:31:54
dateupload: 1322705308
tags: flowers newzealand roses plants sun flower nature leaves sunshine rose garden petals flora nikon nz wellington nikkor d300 nouvellez?lande wellingtoncity wellingtonnz nikond300 nikkorvr105mmf28micro bernzfotos
license: 0
latitude: -41.28145
longitude: 174.768877
accuracy: 14
views: 14
interestingness: 99 out of 105

photo: 6434018555 cc553ec918 7172
owner: 39336718@N06
title: Roses on the 1st day of summer 2011
originalsecret: 50d9e6e80e
originalformat: jpg
o_height: 1087
o_width: 1600
datetaken: 2011-12-01 13:30:46
dateupload: 1322705302
tags: flowers newzealand roses plants sun flower nature leaves sunshine rose garden petals flora nikon nz wellington nikkor d300 nouvellez?lande wellingtoncity wellingtonnz nikond300 nikkorvr105mmf28micro bernzfotos
license: 0
latitude: -41.28145
longitude: 174.768877
accuracy: 14
views: 14
interestingness: 100 out of 105

photo: 6434018215 ca5cee9e58 7161
owner: 39336718@N06
title: Roses on the 1st day of summer 2011
originalsecret: 9f3448db16
originalformat: jpg
o_height: 1167
o_width: 1600
datetaken: 2011-12-01 13:29:20
dateupload: 1322705298
tags: flowers newzealand roses plants sun flower nature leaves sunshine rose garden petals flora nikon nz wellington nikkor d300 nouvellez?lande wellingtoncity wellingtonnz nikond300 nikkorvr105mmf28micro bernzfotos
license: 0
latitude: -41.28145
longitude: 174.768877
accuracy: 14
views: 6
interestingness: 101 out of 105

photo: 6434017773 6008bf3f16 7172
owner: 39336718@N06
title: Roses on the 1st day of summer 2011
originalsecret: 52d060ae32
originalformat: jpg
o_height: 1001
o_width: 1600
datetaken: 2011-12-01 13:28:42
dateupload: 1322705292
tags: flowers newzealand roses plants sun flower nature leaves sunshine rose garden petals flora nikon nz wellington nikkor d300 nouvellez?lande wellingtoncity wellingtonnz nikond300 nikkorvr105mmf28micro bernzfotos
license: 0
latitude: -41.28145
longitude: 174.768877
accuracy: 14
views: 20
interestingness: 102 out of 105

photo: 6434016413 bf483bf491 7033
owner: 39336718@N06
title: Roses on the 1st day of summer 2011
originalsecret: c174cb0d34
originalformat: jpg
o_height: 1063
o_width: 1600
datetaken: 2011-12-01 13:25:21
dateupload: 1322705273
tags: flowers newzealand roses plants sun flower nature leaves sunshine rose garden petals flora nikon nz wellington nikkor d300 nouvellez?lande wellingtoncity wellingtonnz nikond300 nikkorvr105mmf28micro bernzfotos
license: 0
latitude: -41.28145
longitude: 174.768877
accuracy: 14
views: 7
interestingness: 103 out of 105

photo: 6434015969 65f3ca7f8d 7167
owner: 39336718@N06
title: Roses on the 1st day of summer 2011
originalsecret: b71c4ee9f3
originalformat: jpg
o_height: 1087
o_width: 1600
datetaken: 2011-12-01 13:24:21
dateupload: 1322705267
tags: flowers newzealand roses plants sun flower nature leaves sunshine rose garden petals flora nikon nz wellington nikkor d300 nouvellez?lande wellingtoncity wellingtonnz nikond300 nikkorvr105mmf28micro bernzfotos
license: 0
latitude: -41.28145
longitude: 174.768877
accuracy: 14
views: 9
interestingness: 104 out of 105

photo: 6434015667 f92e44ea8d 7144
owner: 39336718@N06
title: Roses on the 1st day of summer 2011
originalsecret: 8a2fbb192f
originalformat: jpg
o_height: 1600
o_width: 1404
datetaken: 2011-12-01 13:22:26
dateupload: 1322705263
tags: flowers newzealand roses plants sun flower nature leaves sunshine rose garden petals flora nikon nz wellington nikkor d300 nouvellez?lande wellingtoncity wellingtonnz nikond300 nikkorvr105mmf28micro bernzfotos
license: 0
latitude: -41.28145
longitude: 174.768877
accuracy: 14
views: 17
interestingness: 105 out of 105

photo: 6434015069 482b9d41d3 7029
owner: 39336718@N06
title: Roses on the 1st day of summer 2011
originalsecret: 751d65b441
originalformat: jpg
o_height: 1125
o_width: 1600
datetaken: 2011-12-01 13:21:39
dateupload: 1322705255
tags: flowers newzealand roses plants sun flower nature leaves sunshine rose garden petals flora nikon nz wellington nikkor d300 nouvellez?lande wellingtoncity wellingtonnz nikond300 nikkorvr105mmf28micro bernzfotos
license: 0
latitude: -41.28145
longitude: 174.768877
accuracy: 14
views: 7
interestingness: 106 out of 105

photo: 6434014655 1edafcaa73 7143
owner: 39336718@N06
title: Roses on the 1st day of summer 2011
originalsecret: 00f71ba8b3
originalformat: jpg
o_height: 1506
o_width: 1600
datetaken: 2011-12-01 13:20:52
dateupload: 1322705250
tags: flowers newzealand roses plants sun flower nature leaves sunshine rose garden petals flora nikon nz wellington nikkor d300 nouvellez?lande wellingtoncity wellingtonnz nikond300 nikkorvr105mmf28micro bernzfotos
license: 0
latitude: -41.28145
longitude: 174.768877
accuracy: 14
views: 8
interestingness: 107 out of 105

photo: 6434012289 888cb8db4a 7035
owner: 39336718@N06
title: Roses on the 1st day of summer 2011
originalsecret: 61f39edae3
originalformat: jpg
o_height: 736
o_width: 1600
datetaken: 2011-12-01 13:12:22
dateupload: 1322705217
tags: flowers newzealand roses plants sun flower nature leaves sunshine rose garden petals flora nikon nz wellington nikkor d300 nouvellez?lande wellingtoncity wellingtonnz nikond300 nikkorvr105mmf28micro bernzfotos
license: 0
latitude: -41.28145
longitude: 174.768877
accuracy: 14
views: 6
interestingness: 108 out of 105

photo: 6434011739 ece82f6f8b 7172
owner: 39336718@N06
title: Roses on the 1st day of summer 2011
originalsecret: f342cd818b
originalformat: jpg
o_height: 816
o_width: 1600
datetaken: 2011-12-01 13:08:40
dateupload: 1322705210
tags: flowers newzealand roses plants sun flower nature leaves sunshine rose garden petals flora nikon nz wellington nikkor d300 nouvellez?lande wellingtoncity wellingtonnz nikond300 nikkorvr105mmf28micro bernzfotos
license: 0
latitude: -41.28145
longitude: 174.768877
accuracy: 14
views: 11
interestingness: 109 out of 105

photo: 6434011443 d66962f575 7173
owner: 39336718@N06
title: Roses on the 1st day of summer 2011
originalsecret: 1596a55c07
originalformat: jpg
o_height: 1600
o_width: 1363
datetaken: 2011-12-01 13:06:53
dateupload: 1322705205
tags: flowers newzealand roses plants sun flower nature leaves sunshine rose garden petals flora nikon nz wellington nikkor d300 nouvellez?lande wellingtoncity wellingtonnz nikond300 nikkorvr105mmf28micro bernzfotos
license: 0
latitude: -41.28145
longitude: 174.768877
accuracy: 14
views: 8
interestingness: 110 out of 105

photo: 6433998269 2fbf45766b 7160
owner: 13910409@N05
title: Green / ?(???)
originalsecret: 2faa77989b
originalformat: jpg
o_height: 3744
o_width: 5616
datetaken: 2011-11-24 11:47:55
dateupload: 1322705022
tags: green tokyo leaf high hires resolution 5d ?? hi res ? markii ?? ?????? choufu ????? jindaishokubutsukouen ??? ??? ???? ?????????????
license: 4
latitude: 35.671329
longitude: 139.54717
accuracy: 15
views: 12
interestingness: 111 out of 105

photo: 6433981381 1c0bdc309d 7160
owner: 66733752@N00
title: Oregon Coast
originalsecret: 9aa04aab2f
originalformat: jpg
o_height: 1536
o_width: 2048
datetaken: 2011-10-31 14:52:14
dateupload: 1322704767
tags: ocean building beach architecture oregon hotel roadtrip resort pacificocean oregoncoast lincolncity innatspanishhead
license: 0
latitude: 44.935898
longitude: -124.024507
accuracy: 16
views: 14
interestingness: 112 out of 105

photo: 6433981163 db0b303b3e 7154
owner: 66733752@N00
title: Oregon Coast
originalsecret: ceb857b1c2
originalformat: jpg
o_height: 1536
o_width: 2048
datetaken: 2011-10-31 14:51:34
dateupload: 1322704764
tags: oregoncoast lincolncity oregon roadtrip pacificocean ocean beach esterleemotel motel cliff
license: 0
latitude: 44.937524
longitude: -124.025141
accuracy: 16
views: 9
interestingness: 113 out of 105

photo: 6433979921 fa484b4501 7141
owner: 66733752@N00
title: Oregon Coast
originalsecret: 549e93788d
originalformat: jpg
o_height: 1536
o_width: 2048
datetaken: 2011-10-31 14:11:26
dateupload: 1322704747
tags: ocean sun reflection beach oregon view roadtrip pacificocean oregoncoast lincolncity esterleemotel
license: 0
latitude: 44.937577
longitude: -124.024196
accuracy: 16
views: 7
interestingness: 114 out of 105

photo: 6433960493 c15158de39 7174
owner: 59284335@N05
title: Manoel Ferreira_239
originalsecret: 44c5aeac6e
originalformat: jpg
o_height: 2100
o_width: 1588
datetaken: 2011-11-06 16:27:48
dateupload: 1322704468
tags: nov2011
license: 3
latitude: -23.482334
longitude: -45.072834
accuracy: 16
views: 1
interestingness: 115 out of 105

photo: 6433959677 49c9bc87eb 7029
owner: 85659491@N00
title: Austin City Limits 11/30/11
originalsecret: 94453a787e
originalformat: jpg
o_height: 2736
o_width: 3648
datetaken: 2011-11-30 20:48:57
dateupload: 1322704457
tags: austin concert live dfw wilco pbs austincitylimits consumerist austintx jefftweedy s95 nffcnnr pegnews canons95 moodytheater
license: 1
latitude: 30.265483
longitude: -97.747131
accuracy: 16
views: 13
interestingness: 116 out of 105

photo: 6433949091 5d77187253 7158
owner: 35041397@N00
title: Raton, New Mexico
originalsecret: f848776948
originalformat: jpg
o_height: 3154
o_width: 4933
datetaken: 2011-10-12 13:02:24
dateupload: 1322704306
tags: city usa newmexico raw raton aerial mesa windowseat canon7d canon18135is zeesstof
license: 0
latitude: 36.90533
longitude: -104.439002
accuracy: 11
views: 17
interestingness: 117 out of 105

photo: 6433921213 10a8452491 7142
owner: 8640036@N07
title: Stone Arch Bridge
originalsecret: null
originalformat: null
o_height: null
o_width: null
datetaken: 2011-09-05 16:09:14
dateupload: 1322703888
tags: bridge reflection water minnesota minneapolis mississippiriver twincities stonearchbridge stanthonyfalls
license: 0
latitude: 44.985927
longitude: -93.267059
accuracy: 11
views: 6
interestingness: 118 out of 105

photo: 6433920357 310c40034a 7008
owner: 8640036@N07
title: Stone Arch Bridge
originalsecret: null
originalformat: null
o_height: null
o_width: null
datetaken: 2011-09-05 16:07:15
dateupload: 1322703873
tags: bridge reflection water minnesota minneapolis twincities stonearchbridge stanthonyfalls
license: 0
latitude: 44.980949
longitude: -93.266716
accuracy: 11
views: 6
interestingness: 119 out of 105

photo: 6433919501 b9a511c8dd 7011
owner: 8640036@N07
title: 35W Bridge
originalsecret: null
originalformat: null
o_height: null
o_width: null
datetaken: 2011-09-05 16:03:36
dateupload: 1322703860
tags: bridge water minnesota minneapolis mississippiriver twincities stonearchbridge stanthonyfalls 35wbridge
license: 0
latitude: 44.984227
longitude: -93.261222
accuracy: 11
views: 4
interestingness: 120 out of 105

photo: 6433876085 78ab22d616 7167
owner: 38076609@N02
title: Ghost Ballet for the East Bank Machineworks
originalsecret: 65549d67b9
originalformat: jpg
o_height: 900
o_width: 1200
datetaken: 2008-12-07 12:33:48
dateupload: 1322703207
tags: city sculpture art downtown tn nashville tennessee steel riverfront 2008 aliceaycock ghostballetfortheeastbankmachineworks jbtuohy
license: 0
latitude: 36.163292
longitude: -86.771929
accuracy: 15
views: 9
interestingness: 121 out of 105

photo: 6433868131 23639999af 7154
owner: 68914347@N06
title: Occupy Montreal ? Endgame
originalsecret: 2457c723ca
originalformat: jpg
o_height: 960
o_width: 1280
datetaken: 2011-11-30 17:31:36
dateupload: 1322703096
tags: street city canada news wall john square cops quebec montreal political politics photojournalism police lifestyle victoria 99 demonstrations protests percent occupy jantak jjantak
license: 0
latitude: 45.501602
longitude: -73.561636
accuracy: 16
views: 66
interestingness: 122 out of 105

photo: 6433867409 cdf9c03370 7166
owner: 68914347@N06
title: Occupy Montreal ? Endgame
originalsecret: d6693ce5a8
originalformat: jpg
o_height: 960
o_width: 1280
datetaken: 2011-11-30 17:31:25
dateupload: 1322703085
tags: street city canada news wall john square cops quebec montreal political politics photojournalism police lifestyle victoria 99 demonstrations protests percent occupy jantak jjantak
license: 0
latitude: 45.501602
longitude: -73.561636
accuracy: 16
views: 54
interestingness: 123 out of 105

photo: 6433742125 492e454179 7173
owner: 72098626@N00
title: Central Park Dance Skaters, Oct 2011 - 15
originalsecret: 41a3582004
originalformat: jpg
o_height: 2801
o_width: 4201
datetaken: 2011-10-23 15:26:58
dateupload: 1322701227
tags: newyork dancers mayor centralpark manhattan skate beret centralparkdanceskaters themayor danceskaters
license: 1
latitude: 40.773277
longitude: -73.971356
accuracy: 16
views: 19
interestingness: 124 out of 105

photo: 6433734899 d16df83274 7007
owner: 72098626@N00
title: Central Park Dance Skaters, Oct 2011 - 13
originalsecret: e658419ddd
originalformat: jpg
o_height: 2810
o_width: 4215
datetaken: 2011-10-23 15:24:11
dateupload: 1322701120
tags: newyork sunglasses scarf couple dancers dancing centralpark manhattan skate centralparkdanceskaters danceskaters
license: 1
latitude: 40.773277
longitude: -73.971356
accuracy: 16
views: 43
interestingness: 125 out of 105

photo: 6433724843 40eabba012 7019
owner: 72098626@N00
title: Central Park Dance Skaters, Oct 2011 - 11
originalsecret: 14416ee88c
originalformat: jpg
o_height: 4928
o_width: 3264
datetaken: 2011-10-23 15:19:53
dateupload: 1322700963
tags: newyork sunglasses dancers centralpark manhattan skate yellowshirt centralparkdanceskaters yellowclothes danceskaters
license: 1
latitude: 40.773277
longitude: -73.971356
accuracy: 16
views: 17
interestingness: 126 out of 105

photo: 6433710283 3cc0c129f5 7003
owner: 70127529@N00
title: Museum of the City of New York, East Harlem, Manhattan
originalsecret: null
originalformat: null
o_height: null
o_width: null
datetaken: 2011-11-28 15:44:52
dateupload: 1322700731
tags: city nyc ny newyork museum architecture harlem manhattan towers twin exhibit east banners eastharlem baton exhibitiion 5avenue kevinroche
license: 0
latitude: 40.792596
longitude: -73.952279
accuracy: 16
views: 13
interestingness: 127 out of 105

photo: 6433673229 d5558c36d8 7002
owner: 10353403@N02
title: ThisProject
originalsecret: 1c0db306df
originalformat: jpg
o_height: 2479
o_width: 3718
datetaken: 2011-11-24 14:59:15
dateupload: 1322700198
tags: geocity camera:make=canon camera:model=canoneos400ddigital exif:make=canon exif:iso_speed=200 exif:focal_length=24mm geostate geocountrys exif:model=canoneos400ddigital exif:aperture=?56 exif:lens=ef24mmf28 geo:lon=2295164453357 geo:lat=53470158999799
license: 0
latitude: 53.470158
longitude: -2.295164
accuracy: 16
views: 2
interestingness: 128 out of 105

photo: 6433661453 ffe0492364 7029
owner: 48886342@N00
title: Sa?o Paulo Blue Sky
originalsecret: ae079ded51
originalformat: jpg
o_height: 2592
o_width: 1936
datetaken: 2011-08-05 18:15:05
dateupload: 1322700029
tags: city cidade luz azul clouds buildings flare nuvens noite lightpole bluelight pr?dios skyblue c?uazul postedeluz nightblue ruaurbano streetcity??
license: 1
latitude: -23.56287
longitude: -46.654659
accuracy: 16
views: 0
interestingness: 129 out of 105

photo: 6433596759 8520e3726d 7146
owner: 32810914@N03
title: Studio Work, November 2011
originalsecret: null
originalformat: null
o_height: null
o_width: null
datetaken: 2011-11-27 17:06:13
dateupload: 1322699060
tags: nyc newyork vintage studio photoshoot longislandcity
license: 0
latitude: 40.763218
longitude: -73.940225
accuracy: 16
views: 14
interestingness: 130 out of 105

photo: 6433551569 3ce97ae0a1 7147
owner: 70127529@N00
title: The East Harlem School at Exodus House, Manhattan, New York City
originalsecret: null
originalformat: null
o_height: null
o_width: null
datetaken: 2011-11-28 15:32:56
dateupload: 1322698355
tags: city nyc school house ny newyork building architecture modern harlem manhattan east spanish independent middle eastharlem elbarrio spanishharlem ehs exodus 2avenue 103street
license: 0
latitude: 40.788522
longitude: -73.943535
accuracy: 16
views: 17
interestingness: 131 out of 105

photo: 6433520457 2757ba49e0 7161
owner: 70127529@N00
title: White Castle Restaurant, East Harlem, New York City
originalsecret: null
originalformat: null
o_height: null
o_width: null
datetaken: 2011-11-28 15:28:29
dateupload: 1322697845
tags: city nyc food white ny newyork castle restaurant harlem manhattan fast east drivethru eastharlem 103street 1avenue
license: 0
latitude: 40.787787
longitude: -73.941507
accuracy: 16
views: 21
interestingness: 132 out of 105

photo: 6433518609 f0779ba1c1 7023
owner: 17662852@N00
title: IMG_4835_6_7_tonemapped
originalsecret: 56052c3586
originalformat: jpg
o_height: 3464
o_width: 5201
datetaken: 2011-11-29 21:13:57
dateupload: 1322697815
tags: park new york city nyc autumn trees fall leaves rain night clouds long exposure central hdr ramble photomatix
license: 0
latitude: 40.76692
longitude: -73.97364
accuracy: 16
views: 11
interestingness: 133 out of 105

photo: 6433514123 5bc7662a72 7168
owner: 17662852@N00
title: IMG_4826_7_8_tonemapped
originalsecret: 5583d13882
originalformat: jpg
o_height: 3464
o_width: 5198
datetaken: 2011-11-29 20:58:16
dateupload: 1322697742
tags: park new york city nyc autumn trees fall leaves rain night clouds long exposure central hdr ramble photomatix
license: 0
latitude: 40.773651
longitude: -73.97114
accuracy: 16
views: 9
interestingness: 134 out of 105

photo: 6433510863 8406aafe33 7006
owner: 17662852@N00
title: IMG_4789_90_91_tonemapped
originalsecret: 0880ab3c97
originalformat: jpg
o_height: 3461
o_width: 5198
datetaken: 2011-11-29 20:35:03
dateupload: 1322697687
tags: park new york city nyc autumn trees fall leaves rain night clouds long exposure central hdr ramble photomatix
license: 0
latitude: 40.775504
longitude: -73.971827
accuracy: 16
views: 10
interestingness: 135 out of 105

photo: 6433507705 bddd0c9c6b 7017
owner: 17662852@N00
title: IMG_4780_1_2_tonemapped
originalsecret: 7256e05683
originalformat: jpg
o_height: 3355
o_width: 5128
datetaken: 2011-11-29 20:21:05
dateupload: 1322697635
tags: park new york city nyc autumn trees fall leaves rain night clouds long exposure central hdr ramble photomatix
license: 0
latitude: 40.774984
longitude: -73.970496
accuracy: 16
views: 7
interestingness: 136 out of 105

photo: 6433505453 85feb0675f 7172
owner: 17662852@N00
title: IMG_4755_6_7_tonemapped
originalsecret: 62700a45f2
originalformat: jpg
o_height: 3336
o_width: 5068
datetaken: 2011-11-29 19:55:14
dateupload: 1322697603
tags: park new york city nyc autumn trees fall leaves rain night clouds long exposure central hdr ramble photomatix
license: 0
latitude: 40.778514
longitude: -73.971902
accuracy: 16
views: 11
interestingness: 137 out of 105

photo: 6434062323 89de2c33a9 7008
owner: 44124466908@N01
title: #Occupysf media area as GA begins #ows
originalsecret: 44088ed92b
originalformat: jpg
o_height: 1936
o_width: 2592
datetaken: 2011-11-30 18:13:31
dateupload: 1322705938
tags: sanfrancisco california ca iphone 2011 iphone4 iphonephoto iphone4camera iphone4photo
license: 3
latitude: 37.794166
longitude: -122.394
accuracy: 16
views: 71
interestingness: 138 out of 105

photo: 6433981853 8b87d83154 7165
owner: 66733752@N00
title: Oregon Coast
originalsecret: 5885fa366a
originalformat: jpg
o_height: 1536
o_width: 2048
datetaken: 2011-10-31 14:59:14
dateupload: 1322704774
tags: ocean beach oregon sand roadtrip driftwood pacificocean oregoncoast lincolncity
license: 0
latitude: 44.937524
longitude: -124.025141
accuracy: 16
views: 12
interestingness: 139 out of 105

photo: 6433918995 ec585b7d08 7017
owner: 8640036@N07
title: Stone Arch bridge
originalsecret: null
originalformat: null
o_height: null
o_width: null
datetaken: 2011-09-05 15:56:59
dateupload: 1322703851
tags: bridge minnesota arch minneapolis twincities stonearchbridge stanthonyfalls
license: 0
latitude: 44.97903
longitude: -93.26493
accuracy: 11
views: 8
interestingness: 140 out of 105

photo: 6433831993 8ecc977bf9 7007
owner: 42470363@N08
title: Sunrise over Bangkok
originalsecret: null
originalformat: null
o_height: null
o_width: null
datetaken: 2010-11-15 06:06:26
dateupload: 1322702559
tags: city beautiful skyline sunrise thailand bangkok bkk canong10
license: 0
latitude: 13.743113
longitude: 100.557453
accuracy: 16
views: 9
interestingness: 141 out of 105

photo: 6433806115 ab50b290bd 7146
owner: 42470363@N08
title: Storm cloud over Bangkok
originalsecret: null
originalformat: null
o_height: null
o_width: null
datetaken: 2010-10-09 16:42:00
dateupload: 1322702175
tags: city storm beautiful skyline clouds thailand bangkok bkk canong10
license: 0
latitude: 13.743113
longitude: 100.557453
accuracy: 16
views: 14
interestingness: 142 out of 105

photo: 6433786325 9aa0c84a59 7148
owner: 42470363@N08
title: Bangkok night sky line
originalsecret: null
originalformat: null
o_height: null
o_width: null
datetaken: 2010-10-10 21:01:36
dateupload: 1322701885
tags: city beautiful skyline night thailand lights bangkok bkk canong10
license: 0
latitude: 13.743113
longitude: 100.557453
accuracy: 16
views: 12
interestingness: 143 out of 105

photo: 6433730269 3c6e74f19d 7164
owner: 55142136@N08
title: Clouds & Tourists
originalsecret: 28a7ee2a0b
originalformat: jpg
o_height: 2181
o_width: 3264
datetaken: 2011-12-01 11:49:18
dateupload: 1322701046
tags: city apple harbour sydney australia 4s iphone iphoneography iphone4s
license: 0
latitude: -33.858833
longitude: 151.213167
accuracy: 16
views: 19
interestingness: 144 out of 105

photo: 6433595031 06b7153d49 7033
owner: 38308378@N05
title: Firestone
originalsecret: 4ae8ed229b
originalformat: jpg
o_height: 4288
o_width: 2848
datetaken: 2011-11-15 19:40:07
dateupload: 1322699034
tags: city red lake sign neon glow salt saltlakecity firestone
license: 2
latitude: 40.762722
longitude: -111.884604
accuracy: 16
views: 12
interestingness: 145 out of 105

photo: 6434066277 069f9959e4 7173
owner: 27091198@N00
title: Praha Roofs
originalsecret: 4f7f05cb04
originalformat: jpg
o_height: 1096
o_width: 1600
datetaken: 2009-02-12 13:37:05
dateupload: 1322705997
tags: city architecture cityscape prague praha roofs czechrepublic charlesbridge
license: 0
latitude: 50.092186
longitude: 14.406337
accuracy: 15
views: 42
interestingness: 146 out of 105

photo: 6433982495 6927ac7a20 7172
owner: 66733752@N00
title: Oregon Coast
originalsecret: 4f36059deb
originalformat: jpg
o_height: 1536
o_width: 2048
datetaken: 2011-10-31 14:59:53
dateupload: 1322704784
tags: ocean beach oregon rocks roadtrip pacificocean oregoncoast lincolncity
license: 0
latitude: 44.937524
longitude: -124.025141
accuracy: 16
views: 8
interestingness: 147 out of 105

photo: 6433982039 e474089ab3 7009
owner: 66733752@N00
title: Oregon Coast
originalsecret: 131b8615b7
originalformat: jpg
o_height: 1536
o_width: 2048
datetaken: 2011-10-31 14:58:54
dateupload: 1322704777
tags: ocean beach oregon seagull roadtrip pacificocean oregoncoast lincolncity
license: 0
latitude: 44.937524
longitude: -124.025141
accuracy: 16
views: 14
interestingness: 148 out of 105

photo: 6433981581 908ed8bf5a 7033
owner: 66733752@N00
title: Oregon Coast
originalsecret: 88a035571b
originalformat: jpg
o_height: 1536
o_width: 2048
datetaken: 2011-10-31 14:53:17
dateupload: 1322704770
tags: ocean beach oregon waves roadtrip pacificocean oregoncoast lincolncity
license: 0
latitude: 44.937524
longitude: -124.025141
accuracy: 16
views: 8
interestingness: 149 out of 105

photo: 6433980907 7eff17f0c4 7021
owner: 66733752@N00
title: Oregon Coast
originalsecret: 82de45a5fa
originalformat: jpg
o_height: 1536
o_width: 2048
datetaken: 2011-10-31 14:50:35
dateupload: 1322704761
tags: oregoncoast lincolncity oregon roadtrip pacificocean ocean beach sand
license: 0
latitude: 44.937524
longitude: -124.025141
accuracy: 16
views: 8
interestingness: 150 out of 105

photo: 6433980673 31050300b1 7156
owner: 66733752@N00
title: Oregon Coast
originalsecret: aba1b026d3
originalformat: jpg
o_height: 1536
o_width: 2048
datetaken: 2011-10-31 14:45:25
dateupload: 1322704757
tags: ocean beach oregon sand roadtrip pacificocean oregoncoast lincolncity
license: 0
latitude: 44.937524
longitude: -124.025141
accuracy: 16
views: 7
interestingness: 151 out of 105

photo: 6433980441 3832c60ff2 7020
owner: 66733752@N00
title: Oregon Coast
originalsecret: 19319c23af
originalformat: jpg
o_height: 1536
o_width: 2048
datetaken: 2011-10-31 14:43:00
dateupload: 1322704754
tags: ocean beach oregon sand roadtrip pacificocean oregoncoast lincolncity
license: 0
latitude: 44.937524
longitude: -124.025141
accuracy: 16
views: 8
interestingness: 152 out of 105

photo: 6433928731 27b0fcb5f4 7032
owner: 8640036@N07
title: St. Anthony falls 2011
originalsecret: null
originalformat: null
o_height: null
o_width: null
datetaken: 2011-09-05 15:54:55
dateupload: 1322704007
tags: minnesota cities minneapolis twin stonearchbridge stanthonyfalls
license: 0
latitude: 44.986291
longitude: -93.269119
accuracy: 11
views: 16
interestingness: 153 out of 105

photo: 6433757043 7d93f9bb99 7147
owner: 60032663@N00
title: Catba city sunset
originalsecret: a9fbe76a32
originalformat: jpg
o_height: 2848
o_width: 4272
datetaken: 2011-11-29 07:02:34
dateupload: 1322701451
tags: nationalpark asia vietnam halong halongbay catbaisland catba 2011
license: 1
latitude: 20.724809
longitude: 107.049922
accuracy: 12
views: 3
interestingness: 154 out of 105

photo: 6433739041 5a775e9e9c 7005
owner: 72098626@N00
title: Central Park Dance Skaters, Oct 2011 - 14
originalsecret: 540197190c
originalformat: jpg
o_height: 4431
o_width: 2795
datetaken: 2011-10-23 15:25:40
dateupload: 1322701181
tags: newyork sunglasses dancers centralpark manhattan skate centralparkdanceskaters danceskaters
license: 1
latitude: 40.773277
longitude: -73.971356
accuracy: 16
views: 18
interestingness: 155 out of 105

photo: 6433730873 42f97a7698 7006
owner: 72098626@N00
title: Central Park Dance Skaters, Oct 2011 - 12
originalsecret: 3951b8671f
originalformat: jpg
o_height: 4928
o_width: 3264
datetaken: 2011-10-23 15:22:43
dateupload: 1322701055
tags: newyork dancers centralpark manhattan helmet skate centralparkdanceskaters danceskaters
license: 1
latitude: 40.773277
longitude: -73.971356
accuracy: 16
views: 26
interestingness: 156 out of 105

photo: 6433596341 f078198d0a 7019
owner: 45676477@N07
title: HC4B7547.JPG
originalsecret: null
originalformat: null
o_height: null
o_width: null
datetaken: 2011-11-30 19:39:34
dateupload: 1322699053
tags: worship praise eucharisticadoration eyefi bostoncatholic
license: 0
latitude: 42.19041
longitude: -71.058448
accuracy: 14
views: 71
interestingness: 157 out of 105

photo: 6434099543 87f23daab8 7009
owner: 51345226@N02
title: NYSE
originalsecret: null
originalformat: null
o_height: null
o_width: null
datetaken: 2011-11-27 16:03:55
dateupload: 1322706467
tags: nyc newyorkcity newyork buildings wallstreet stockexchange nyse
license: 0
latitude: 40.714866
longitude: -74.006481
accuracy: 11
views: 17
interestingness: 158 out of 105

photo: 6434097763 398380362e 7003
owner: 51345226@N02
title: The Heroes of 9/11
originalsecret: null
originalformat: null
o_height: null
o_width: null
datetaken: 2011-11-27 16:03:05
dateupload: 1322706444
tags: nyc newyorkcity newyork 911 september112001 heroes
license: 0
latitude: 40.714606
longitude: -74.006137
accuracy: 11
views: 6
interestingness: 159 out of 105

photo: 6434050625 22d391586e 7020
owner: 18532920@N00
title: carson valley
originalsecret: f0d9445b5d
originalformat: jpg
o_height: 2048
o_width: 1536
datetaken: 2011-11-27 14:46:32
dateupload: 1322705758
tags: nevada sage mines carsonvalley carsoncity gardnerville stayoutstayalive
license: 0
latitude: 39.057217
longitude: -119.717642
accuracy: 16
views: 0
interestingness: 160 out of 105

photo: 6433926369 31d93c1c44 7021
owner: 8640036@N07
title: Gold Medal Flour
originalsecret: null
originalformat: null
o_height: null
o_width: null
datetaken: 2011-09-05 16:39:38
dateupload: 1322703971
tags: minnesota cities minneapolis twin twincities stonearchbridge stanthonyfalls
license: 0
latitude: 44.988477
longitude: -93.263282
accuracy: 11
views: 4
interestingness: 161 out of 105

photo: 6433924247 0649fbd3cd 7143
owner: 8640036@N07
title: St. Anthony falls
originalsecret: null
originalformat: null
o_height: null
o_width: null
datetaken: 2011-09-05 16:34:25
dateupload: 1322703937
tags: minnesota cities minneapolis twin twincities stonearchbridge stanthonyfalls
license: 0
latitude: 44.982406
longitude: -93.269462
accuracy: 11
views: 4
interestingness: 162 out of 105

photo: 6433923155 d0a4de7728 7002
owner: 8640036@N07
title: St. Anthony falls
originalsecret: null
originalformat: null
o_height: null
o_width: null
datetaken: 2011-09-05 16:15:30
dateupload: 1322703920
tags: bridge minnesota ruins minneapolis twincities stonearchbridge stanthonyfalls
license: 0
latitude: 44.98277
longitude: -93.271179
accuracy: 11
views: 2
interestingness: 163 out of 105

photo: 6433817965 d1a515eebb 7035
owner: 24038987@N06
title: Late night in work. Scooby Watches over the city
originalsecret: 2617efbfdb
originalformat: jpg
o_height: 612
o_width: 612
datetaken: 2011-12-01 01:19:03
dateupload: 1322702343
tags: square squareformat iphoneography instagramapp xproii uploaded:by=instagram foursquare:venue=4dd2b0206365cd4836e4a81a
license: 0
latitude: 53.394384
longitude: -2.979204
accuracy: 16
views: 0
interestingness: 164 out of 105

photo: 6433746267 f70c548c7a 7026
owner: 72098626@N00
title: Central Park Dance Skaters, Oct 2011 - 16
originalsecret: 0f6f3df13d
originalformat: jpg
o_height: 2711
o_width: 4067
datetaken: 2011-10-23 15:27:50
dateupload: 1322701287
tags: newyork dancers centralpark manhattan skate centralparkdanceskaters danceskaters
license: 1
latitude: 40.773277
longitude: -73.971356
accuracy: 16
views: 27
interestingness: 165 out of 105

photo: 6433637619 23d635f9ee 7144
owner: 25218275@N07
title: 331: Footy
originalsecret: null
originalformat: null
o_height: null
o_width: null
datetaken: 2011-11-27 17:16:19
dateupload: 1322699659
tags: liverpool football pub projector screen firstnational 3652011
license: 0
latitude: 53.405133
longitude: -2.991292
accuracy: 16
views: 8
interestingness: 166 out of 105

photo: 6433536461 7b99f030a8 7009
owner: 81952901@N00
title: Gold at Saint Paul
originalsecret: null
originalformat: null
o_height: null
o_width: null
datetaken: 2011-12-01 01:08:24
dateupload: 1322698104
tags: london
license: 0
latitude: 51.513803
longitude: -0.099971
accuracy: 16
views: 15
interestingness: 167 out of 105

photo: 6434108641 bac996db79 7017
owner: 51345226@N02
title: me & the VanHoven girls
originalsecret: null
originalformat: null
o_height: null
o_width: null
datetaken: 2011-11-27 16:04:32
dateupload: 1322706595
tags: nyc newyorkcity newyork buildings manhattan timessquare
license: 0
latitude: 40.714216
longitude: -74.005107
accuracy: 11
views: 13
interestingness: 168 out of 105

photo: 6434108137 8fdfe52faa 7162
owner: 51345226@N02
title: strolling along Times Square
originalsecret: null
originalformat: null
o_height: null
o_width: null
datetaken: 2011-11-27 16:04:11
dateupload: 1322706588
tags: nyc newyorkcity newyork buildings manhattan timessquare
license: 0
latitude: 40.713565
longitude: -74.004421
accuracy: 11
views: 14
interestingness: 169 out of 105

photo: 6433931611 d991ce0dfd 7141
owner: 57835821@N00
title: Rosemary Beach
originalsecret: 4f37bcdf60
originalformat: jpg
o_height: 3456
o_width: 4608
datetaken: 2011-11-26 10:21:39
dateupload: 1322704052
tags: florida cityhall fl newurbanism rosemarybeach traditionalneighborhood
license: 0
latitude: 30.279647
longitude: -86.016399
accuracy: 16
views: 5
interestingness: 170 out of 105

photo: 6433925573 0a45b3877c 7154
owner: 8640036@N07
title: St. Anthony falls
originalsecret: null
originalformat: null
o_height: null
o_width: null
datetaken: 2011-09-05 16:37:40
dateupload: 1322703959
tags: minnesota cities minneapolis twincities stonearchbridge stanthonyfalls
license: 0
latitude: 44.98277
longitude: -93.261222
accuracy: 11
views: 2
interestingness: 171 out of 105

photo: 6433894051 8d61a51a24 7030
owner: 45676477@N07
title: HC3Y7225.JPG
originalsecret: null
originalformat: null
o_height: null
o_width: null
datetaken: 2011-11-30 21:33:01
dateupload: 1322703461
tags: worship praise eucharisticadoration eyefi bostoncatholic
license: 0
latitude: 42.19041
longitude: -71.058448
accuracy: 14
views: 72
interestingness: 172 out of 105

photo: 6433519089 d6d19a811e 7017
owner: 8736322@N08
title: Mount Rubidoux Junipero Serra Plaque
originalsecret: null
originalformat: null
o_height: null
o_width: null
datetaken: 2011-11-30 13:07:09
dateupload: 1322697823
tags: ca riverside juniperoserra riversidecalifornia mountrubidoux landmarksofthecityofriveride
license: 0
latitude: 33.984159
longitude: -117.392928
accuracy: 16
views: 4
interestingness: 173 out of 105

photo: 6434107655 41512718be 7033
owner: 51345226@N02
title: Two Wall Street
originalsecret: null
originalformat: null
o_height: null
o_width: null
datetaken: 2011-11-27 16:04:02
dateupload: 1322706581
tags: nyc newyorkcity newyork buildings wallstreet
license: 0
latitude: 40.713695
longitude: -74.003047
accuracy: 11
views: 11
interestingness: 174 out of 105

photo: 6434098649 9ae6648d43 7020
owner: 51345226@N02
title: WTC Path Station sign
originalsecret: null
originalformat: null
o_height: null
o_width: null
datetaken: 2011-11-27 16:03:20
dateupload: 1322706455
tags: nyc newyorkcity newyork worldtradecenter trade
license: 0
latitude: 40.714606
longitude: -74.004764
accuracy: 11
views: 8
interestingness: 175 out of 105

photo: 6434064323 8ab4a69704 7027
owner: 68630375@N08
title: Christmas Tree
originalsecret: null
originalformat: null
o_height: null
o_width: null
datetaken: 2011-11-30 13:16:28
dateupload: 1322705967
tags: christmas ohio tree downtown youngstown
license: 0
latitude: 41.102056
longitude: -80.64866
accuracy: 14
views: 8
interestingness: 176 out of 105

photo: 6433922237 aa070ae6ee 7002
owner: 8640036@N07
title: Stone Arch Bridge
originalsecret: null
originalformat: null
o_height: null
o_width: null
datetaken: 2011-09-05 16:11:53
dateupload: 1322703905
tags: minnesota minneapolis twincities stonearchbridge stanthonyfalls
license: 0
latitude: 44.980463
longitude: -93.269119
accuracy: 11
views: 3
interestingness: 177 out of 105

photo: 6433873335 ebf3a99634 7163
owner: 45676477@N07
title: HC4B7610.JPG
originalsecret: null
originalformat: null
o_height: null
o_width: null
datetaken: 2011-11-30 21:08:45
dateupload: 1322703171
tags: worship praise eucharisticadoration eyefi bostoncatholic
license: 0
latitude: 42.19041
longitude: -71.058448
accuracy: 14
views: 61
interestingness: 178 out of 105

photo: 6433852425 352e7ef439 7170
owner: 45676477@N07
title: HC4B7601.JPG
originalsecret: null
originalformat: null
o_height: null
o_width: null
datetaken: 2011-11-30 20:57:44
dateupload: 1322702854
tags: worship praise eucharisticadoration eyefi bostoncatholic
license: 0
latitude: 42.19041
longitude: -71.058448
accuracy: 14
views: 57
interestingness: 179 out of 105

photo: 6433839931 0a9604b06e 7028
owner: 45676477@N07
title: HC4B7591.JPG
originalsecret: null
originalformat: null
o_height: null
o_width: null
datetaken: 2011-11-30 20:49:51
dateupload: 1322702677
tags: worship praise eucharisticadoration eyefi bostoncatholic
license: 0
latitude: 42.19041
longitude: -71.058448
accuracy: 14
views: 57
interestingness: 180 out of 105

photo: 6433829275 9e05093522 7020
owner: 45676477@N07
title: HC4B7583.JPG
originalsecret: null
originalformat: null
o_height: null
o_width: null
datetaken: 2011-11-30 20:47:30
dateupload: 1322702516
tags: worship praise eucharisticadoration eyefi bostoncatholic
license: 0
latitude: 42.19041
longitude: -71.058448
accuracy: 14
views: 58
interestingness: 181 out of 105

photo: 6433806905 ae9d811d75 7011
owner: 45676477@N07
title: HC4B7570.JPG
originalsecret: null
originalformat: null
o_height: null
o_width: null
datetaken: 2011-11-30 20:42:27
dateupload: 1322702186
tags: worship praise eucharisticadoration eyefi bostoncatholic
license: 0
latitude: 42.19041
longitude: -71.058448
accuracy: 14
views: 60
interestingness: 182 out of 105

photo: 6433796655 f7ea5b0ae0 7010
owner: 33170436@N03
title: Menhir by Michael Le Grand
originalsecret: 19b23602ea
originalformat: jpg
o_height: 4000
o_width: 3000
datetaken: 2011-11-16 12:36:49
dateupload: 1322702036
tags: city canberra menhir michaellegrand archivesact
license: 2
latitude: -35.28076
longitude: 149.130617
accuracy: 16
views: 1
interestingness: 183 out of 105

photo: 6433796647 e92d30d92a 7167
owner: 33170436@N03
title: Menhir by Michael Le Grand
originalsecret: 933e43cca3
originalformat: jpg
o_height: 4000
o_width: 3000
datetaken: 2011-11-16 12:36:41
dateupload: 1322702036
tags: city canberra menhir michaellegrand archivesact
license: 2
latitude: -35.28076
longitude: 149.130617
accuracy: 16
views: 1
interestingness: 184 out of 105

photo: 6433726159 6b72f92328 7030
owner: 45676477@N07
title: HC3Y7205.JPG
originalsecret: null
originalformat: null
o_height: null
o_width: null
datetaken: 2011-11-30 20:52:07
dateupload: 1322700984
tags: worship praise eucharisticadoration eyefi bostoncatholic
license: 0
latitude: 42.19041
longitude: -71.058448
accuracy: 14
views: 72
interestingness: 185 out of 105

photo: 6433687909 f45358263e 7014
owner: 13281029@N00
title: We Built This City
originalsecret: 0a81cfe332
originalformat: jpg
o_height: 3199
o_width: 2133
datetaken: 2011-11-30 18:35:28
dateupload: 1322700404
tags: msh1111 msh111113
license: 1
latitude: 29.885955
longitude: -97.939703
accuracy: 15
views: 1
interestingness: 186 out of 105

photo: 6433629295 324bb3fda6 7160
owner: 45676477@N07
title: HC3Y7198.JPG
originalsecret: null
originalformat: null
o_height: null
o_width: null
datetaken: 2011-11-30 20:20:03
dateupload: 1322699544
tags: worship praise eucharisticadoration eyefi bostoncatholic
license: 0
latitude: 42.19041
longitude: -71.058448
accuracy: 14
views: 61
interestingness: 187 out of 105

photo: 6433582779 b1ceb7c91c 7005
owner: 45676477@N07
title: HC4B7538.JPG
originalsecret: null
originalformat: null
o_height: null
o_width: null
datetaken: 2011-11-30 19:39:18
dateupload: 1322698858
tags: worship praise eucharisticadoration eyefi bostoncatholic
license: 0
latitude: 42.19041
longitude: -71.058448
accuracy: 14
views: 58
interestingness: 188 out of 105

photo: 6433576539 76f4e6e363 7019
owner: 34964115@N00
title: photo.JPG
originalsecret: null
originalformat: null
o_height: null
o_width: null
datetaken: 2011-11-30 09:58:09
dateupload: 1322698764
tags: nyc newyorkcity moblog tagalongproject iphone
license: 0
latitude: 40.747777
longitude: -73.989615
accuracy: 16
views: 65
interestingness: 189 out of 105

photo: 6433566707 a409f3440b 7029
owner: 45676477@N07
title: HC3Y7170.JPG
originalsecret: null
originalformat: null
o_height: null
o_width: null
datetaken: 2011-11-30 20:08:33
dateupload: 1322698609
tags: worship praise eucharisticadoration eyefi bostoncatholic
license: 0
latitude: 42.19041
longitude: -71.058448
accuracy: 14
views: 66
interestingness: 190 out of 105

photo: 6433566257 52b72e0d16 7019
owner: 45676477@N07
title: HC4B7527.JPG
originalsecret: null
originalformat: null
o_height: null
o_width: null
datetaken: 2011-11-30 19:36:04
dateupload: 1322698602
tags: eyefi bostoncatholic eucharisticadoration praise worship
license: 0
latitude: 42.19041
longitude: -71.058448
accuracy: 14
views: 52
interestingness: 191 out of 105

photo: 6433557757 cc5eb496d5 7171
owner: 24448805@N07
title: New Rules...
originalsecret: null
originalformat: null
o_height: null
o_width: null
datetaken: 2011-11-12 22:04:55
dateupload: 1322698460
tags: 
license: 0
latitude: 40.779907
longitude: -73.981171
accuracy: 15
views: 32
interestingness: 192 out of 105

photo: 6433554595 c4d506f7fc 7029
owner: 45676477@N07
title: HC3Y7179.JPG
originalsecret: null
originalformat: null
o_height: null
o_width: null
datetaken: 2011-11-30 20:09:54
dateupload: 1322698406
tags: worship praise eucharisticadoration eyefi bostoncatholic
license: 0
latitude: 42.19041
longitude: -71.058448
accuracy: 14
views: 69
interestingness: 193 out of 105

photo: 6433515421 88c4513f70 7158
owner: 8736322@N08
title: Evergreen Cemetery
originalsecret: null
originalformat: null
o_height: null
o_width: null
datetaken: 2011-11-30 12:45:52
dateupload: 1322697762
tags: ca riverside riversidecalifornia evergreencemetery landmarksofthecityofriveride
license: 0
latitude: 33.980102
longitude: -117.386817
accuracy: 16
views: 4
interestingness: 194 out of 105

photo: 6434098291 0cd9ed9fd0 7021
owner: 51345226@N02
title: NASD
originalsecret: null
originalformat: null
o_height: null
o_width: null
datetaken: 2011-11-27 16:03:13
dateupload: 1322706450
tags: nyc newyorkcity newyork nasd
license: 0
latitude: 40.715256
longitude: -74.003391
accuracy: 11
views: 8
interestingness: 195 out of 105

photo: 6433597549 d2ccc4a006 7158
owner: 71131959@N02
title: IMG_3365
originalsecret: null
originalformat: null
o_height: null
o_width: null
datetaken: 2011-12-01 00:24:31
dateupload: 1322699071
tags: vancouver van vancity
license: 0
latitude: 49.26991
longitude: -123.201713
accuracy: 11
views: 1
interestingness: 196 out of 105

photo: 6433534901 b5bda3fa54 7162
owner: 54675562@N08
title: Hard Rock Cafe - Times Square
originalsecret: null
originalformat: null
o_height: null
o_width: null
datetaken: 2011-10-28 18:39:05
dateupload: 1322698078
tags: nyc newyorkcity hardrockcafe
license: 0
latitude: 40.756676
longitude: -73.986182
accuracy: 15
views: 11
interestingness: 197 out of 105

photo: 6434035667 b87bc8008f 7171
owner: 62466827@N02
title: Old Town Albuquerque
originalsecret: null
originalformat: null
o_height: null
o_width: null
datetaken: 2011-11-24 09:21:19
dateupload: 1322705541
tags: newmexico oldtownalbuquerquealbuquerquenm
license: 0
latitude: 35.095824
longitude: -106.669478
accuracy: 16
views: 15
interestingness: 198 out of 105

photo: 6433909805 06d03d39d8 7169
owner: 45114065@N00
title: ????????????Labo????????????????????????????????
originalsecret: 33cb25d241
originalformat: jpg
o_height: 1024
o_width: 768
datetaken: 2011-12-01 10:41:41
dateupload: 1322703701
tags: picplz foursquare:venue=4c4ba45d46240f47871697f3
license: 1
latitude: 33.237998
longitude: 131.606738
accuracy: 16
views: 26
interestingness: 199 out of 105

photo: 6433823359 d4253bd006 7148
owner: 11823458@N07
title: ...
originalsecret: null
originalformat: null
o_height: null
o_width: null
datetaken: 2011-11-30 17:20:22
dateupload: 1322702422
tags: picplz foursquare:venue=4bcb63cb68f976b0bdfe6083
license: 0
latitude: 29.715213
longitude: -95.415995
accuracy: 16
views: 2
interestingness: 200 out of 105

photo: 6433791453 1fd15481b6 7034
owner: 45114065@N00
title: Venue???????????????
originalsecret: 20673cccd3
originalformat: jpg
o_height: 640
o_width: 427
datetaken: 2011-12-01 10:12:38
dateupload: 1322701958
tags: picplz foursquare:venue=4e967a558231e0b8ae85aabd
license: 1
latitude: 33.234877
longitude: 131.606375
accuracy: 16
views: 28
interestingness: 201 out of 105

photo: 6433648941 2745a56a8d 7160
owner: 31451222@N00
title: Wallpaper
originalsecret: 3493df4851
originalformat: jpg
o_height: 1024
o_width: 768
datetaken: 2011-11-30 18:37:18
dateupload: 1322699838
tags: picplz foursquare:venue=4bfdd50bf61dc9b6afb09fde
license: 0
latitude: 20.674547
longitude: -103.371412
accuracy: 16
views: 1
interestingness: 202 out of 105

photo: 6433836245 14ee17b96c 7153
owner: 48717770@N08
title: picplz_upload
originalsecret: null
originalformat: null
o_height: null
o_width: null
datetaken: 2011-11-30 17:23:42
dateupload: 1322702622
tags: picplz
license: 0
latitude: 38.605891
longitude: -121.516753
accuracy: 16
views: 0
interestingness: 203 out of 105

photo: 6433790289 18a86d3b35 7023
owner: 48717770@N08
title: picplz_upload
originalsecret: null
originalformat: null
o_height: null
o_width: null
datetaken: 2011-11-30 17:12:22
dateupload: 1322701942
tags: picplz
license: 0
latitude: 38.606049
longitude: -121.516896
accuracy: 16
views: 0
interestingness: 204 out of 105

photo: 6433790203 75be2477e2 7027
owner: 48717770@N08
title: picplz_upload
originalsecret: null
originalformat: null
o_height: null
o_width: null
datetaken: 2011-11-30 17:12:20
dateupload: 1322701940
tags: picplz
license: 0
latitude: 38.605858
longitude: -121.516829
accuracy: 16
views: 0
interestingness: 205 out of 105

photo: 6433679831 e1b49ebe43 7034
owner: 69841928@N00
title: ????????????????
originalsecret: null
originalformat: null
o_height: null
o_width: null
datetaken: 2011-12-01 09:44:52
dateupload: 1322700292
tags: picplz
license: 0
latitude: 32.693335
longitude: 128.841697
accuracy: 16
views: 0
interestingness: 206 out of 105

photo: 6433603501 4f585b6d32 7160
owner: 64755830@N05
title: Auckland City waterfront
originalsecret: null
originalformat: null
o_height: null
o_width: null
datetaken: 2011-10-30 15:06:31
dateupload: 1322699159
tags: 
license: 0
latitude: -36.842022
longitude: 174.758405
accuracy: 13
views: 5
interestingness: 207 out of 105

photo: 6433822751 45c7e4cc69 7166
owner: 39021425@N07
title: Waka-waka
originalsecret: null
originalformat: null
o_height: null
o_width: null
datetaken: 2011-11-30 20:46:42
dateupload: 1322702413
tags: 
license: 0
latitude: 14.848401
longitude: 120.809783
accuracy: 12
views: 2
interestingness: 208 out of 105

photo: 6433818859 b6b110d960 7165
owner: 39021425@N07
title: DSC08260
originalsecret: null
originalformat: null
o_height: null
o_width: null
datetaken: 2011-11-30 19:05:20
dateupload: 1322702356
tags: 
license: 0
latitude: 14.848401
longitude: 120.809783
accuracy: 12
views: 9
interestingness: 209 out of 105

photo: 6433814679 1af6ceeb4a 7011
owner: 39021425@N07
title: New & Improved
originalsecret: null
originalformat: null
o_height: null
o_width: null
datetaken: 2011-11-30 19:05:08
dateupload: 1322702298
tags: 
license: 0
latitude: 14.848401
longitude: 120.809783
accuracy: 12
views: 13
interestingness: 210 out of 105

photo: 6433811057 c874587795 7019
owner: 39021425@N07
title: The Cathedral at Night
originalsecret: null
originalformat: null
o_height: null
o_width: null
datetaken: 2011-11-30 18:24:55
dateupload: 1322702246
tags: 
license: 0
latitude: 14.848401
longitude: 120.809783
accuracy: 12
views: 3
interestingness: 211 out of 105

photo: 6433640605 b575f325fe 7022
owner: 65934665@N06
title: Garden in Forbidden City
originalsecret: d972da4a25
originalformat: jpg
o_height: 3158
o_width: 4224
datetaken: 2011-11-04 06:46:41
dateupload: 1322699702
tags: 
license: 1
latitude: 39.921118
longitude: 116.396472
accuracy: 16
views: 4
interestingness: 212 out of 105

photo: 6433615663 aa89ccaef2 7030
owner: 65934665@N06
title: Shopping in Forbidden City
originalsecret: d91c3d4979
originalformat: jpg
o_height: 3158
o_width: 4224
datetaken: 2011-11-04 06:12:52
dateupload: 1322699339
tags: 
license: 1
latitude: 39.916879
longitude: 116.396904
accuracy: 16
views: 2
interestingness: 213 out of 105

photo: 6433611845 b183360e72 7022
owner: 38428539@N02
title: What the people said...
originalsecret: null
originalformat: null
o_height: null
o_width: null
datetaken: 2011-11-30 13:40:35
dateupload: 1322699285
tags: 
license: 0
latitude: 56.460572
longitude: -2.97016
accuracy: 16
views: 2
interestingness: 214 out of 105

photo: 6433593365 00cac68a4d 7024
owner: 65934665@N06
title: Forbidden City
originalsecret: 284bfc2c91
originalformat: jpg
o_height: 3158
o_width: 4224
datetaken: 2011-11-04 06:06:44
dateupload: 1322699012
tags: 
license: 1
latitude: 39.915296
longitude: 116.396873
accuracy: 16
views: 1
interestingness: 215 out of 105

photo: 6433577895 3307bf2704 7035
owner: 65934665@N06
title: Forbidden City
originalsecret: ba7e91c296
originalformat: jpg
o_height: 3158
o_width: 4224
datetaken: 2011-11-04 05:59:48
dateupload: 1322698785
tags: 
license: 1
latitude: 39.915296
longitude: 116.396873
accuracy: 16
views: 2
interestingness: 216 out of 105


mintime: 1322706597.89 maxtime: 1322719108.67
numimgs: 302
total pages: 2
visiting only 2 pages ( up to 500 images)
photo: 6434591497 ab5625cfa9 7016
owner: 7241805@N03
title: Two Giants
originalsecret: a522d74084
originalformat: jpg
o_height: 954
o_width: 1200
datetaken: 2011-12-01 17:30:52
dateupload: 1322713722
tags: city pink blue windows light sky orange motion color berlin tower yellow skyline night germany circle lights evening colorful europe stripes himmel christmasmarket center weihnachtsmarkt lila sphere round bewegung ferriswheel quarter fernsehturm rotation bluehour blau bigwheel rund riesenrad attraction beleuchtung kreis viertel
license: 0
latitude: 52.516214
longitude: 13.417654
accuracy: 15
views: 242
interestingness: 1 out of 302

photo: 6434287721 b8e98be47f 7157
owner: 13111789@N00
title: "Hey!....."
originalsecret: null
originalformat: null
o_height: null
o_width: null
datetaken: 2011-12-01 03:14:39
dateupload: 1322709279
tags: film analog 35mm kodak 11 ishootfilm ilfordhp5 hp5 apug ilford fujica fujinon xtol ilfordhp5400 ?allrightsreserved st801 irishphotography lifeindublin kodakxtol fujinon55mmf18 dublinstreetphotography anthonycronin livingindublin filmdev:recipe=5424
license: 0
latitude: 53.350042
longitude: -6.258191
accuracy: 15
views: 387
interestingness: 2 out of 302

photo: 3110128323 62841b7a3a 3106
owner: 29958169@N03
title: Freedom Libert? ??????? Libertad Libert?
originalsecret: 70de418eae
originalformat: jpg
o_height: 1819
o_width: 1321
datetaken: 2006-07-15 09:41:26
dateupload: 1322707353
tags: city italy italian mediterraneo italia award castellana otranto trulli gallipoli salento puglia bari vieste lecce grotte murge taranto adriatico brindisi padrepio alberobello apulia ostuni trani gargano monopoli foggia ionio locorotondo negramaro fasano peschici portocesareo copertino 58points luoghimagici artofimages capturethefinest mygearandme
license: 0
latitude: 40.149619
longitude: 18.487672
accuracy: 13
views: 1600
interestingness: 3 out of 302

photo: 6434249937 2097dfc59d 7012
owner: 58376470@N05
title: higher after
originalsecret: 29cf1cb5d4
originalformat: jpg
o_height: 694
o_width: 1024
datetaken: 2011-11-30 19:18:08
dateupload: 1322708716
tags: city nyc newyorkcity bw building night buildings manhattan worldfinancialcenter blackanwhite flickraward
license: 0
latitude: 40.709881
longitude: -74.011502
accuracy: 15
views: 123
interestingness: 4 out of 302

photo: 6434426929 c61d911799 7014
owner: 34561876@N07
title: Awe-Inspiring
originalsecret: null
originalformat: null
o_height: null
o_width: null
datetaken: 2011-11-29 16:48:59
dateupload: 1322711310
tags: ocean california november light sunset red sea sky orange sun west color detail reflection beach wet water weather yellow clouds composition contrast photoshop mirror evening coast pier interestingness high cool nice interesting twilight sand exposure flickr paradise surf waves dynamic angle pacific sandiego wind dusk air tide horizon low tripod fine wide perspective smooth clarity calm sharp explore adobe level stunning local capture range tranquil hdr infinite imperialbeach endless photomatix bracketed ef1635mmf28l americasfinestcity cs5 canoneos5dmarkii
license: 0
latitude: 32.579672
longitude: -117.133376
accuracy: 14
views: 626
interestingness: 5 out of 302

photo: 6434160631 3b9070bc47 7013
owner: 57393475@N08
title: White on White Empire State Building in Black and White
originalsecret: null
originalformat: null
o_height: null
o_width: null
datetaken: 2011-11-30 21:14:47
dateupload: 1322707336
tags: city nyc newyork skyline island long manhattan longisland lic empirestatebuilding ourdailychallenge
license: 0
latitude: 40.745176
longitude: -73.959649
accuracy: 16
views: 103
interestingness: 6 out of 302

photo: 6434326249 3aa93ff10b 7035
owner: 37375837@N05
title: rain, rain go away
originalsecret: null
originalformat: null
o_height: null
o_width: null
datetaken: 2011-10-27 10:45:09
dateupload: 1322709862
tags: blackandwhite bw oklahoma water monochrome rain canon drops sidewalk okc oklahomacity bricktown img3056 canon7d alpinezonephotography
license: 0
latitude: 35.464956
longitude: -97.511537
accuracy: 16
views: 23
interestingness: 7 out of 302

photo: 6434639733 5dcd113d79 7155
owner: 34661352@N06
title: monterrey1-1036
originalsecret: e32098bb53
originalformat: jpg
o_height: 600
o_width: 900
datetaken: 2011-12-01 00:21:42
dateupload: 1322714435
tags: city urban mountain mexico nuevoleon monterrey
license: 0
latitude: 25.730632
longitude: -100.61119
accuracy: 10
views: 62
interestingness: 8 out of 302

photo: 6434251129 57eeab21cf 7162
owner: 32251314@N00
title: IMG_9847001
originalsecret: null
originalformat: null
o_height: null
o_width: null
datetaken: 2011-11-17 16:05:55
dateupload: 1322708734
tags: city cidade by m?xico architecture mexico arquitectura cit? ciudad vila stadt architektur mexique altstadt ville stad architectuur campeche centrohistorico messico staad cascoantiguo wow1 citt?vecchia ????? hiri mji wwwvisitmexicocom ???? ????????? ??????? lunsod ?????? malerischealtstadt
license: 0
latitude: 19.843318
longitude: -90.538308
accuracy: 15
views: 48
interestingness: 9 out of 302

photo: 6434746387 f121f17960 7154
owner: 62668801@N00
title: Framed
originalsecret: 6a5cf0e095
originalformat: jpg
o_height: 704
o_width: 1000
datetaken: 2011-11-23 13:43:36
dateupload: 1322716215
tags: nyc newyorkcity woman ny newyork rain umbrella walking subway entrance streetphotography
license: 3
latitude: 40.708092
longitude: -74.007425
accuracy: 15
views: 31
interestingness: 10 out of 302

photo: 6434360561 9bb2ca0e84 7035
owner: 12471248@N08
title: Stranger 036/100
originalsecret: null
originalformat: null
o_height: null
o_width: null
datetaken: 2011-11-28 10:24:11
dateupload: 1322710348
tags: sanfrancisco portrait people unionsquare tailor brooksbrothers 100strangers
license: 0
latitude: 37.787911
longitude: -122.410663
accuracy: 13
views: 99
interestingness: 11 out of 302

photo: 6434148509 aa72fe897e 7017
owner: 63871694@N04
title: IMG_2618s "Lily"
originalsecret: 29d7bd9c62
originalformat: jpg
o_height: 800
o_width: 1200
datetaken: 2011-11-26 12:49:32
dateupload: 1322707161
tags: city flowers orange flower macro nature gardens canon garden flora oz australia brisbane 100mm qld queensland botanic cbd dslr parklands magnoliophyta angiosperm 600d 100mmf28lmacro
license: 0
latitude: -27.462776
longitude: 153.017277
accuracy: 13
views: 49
interestingness: 12 out of 302

photo: 6434788411 b99e32578d 7166
owner: 48179569@N05
title: Dortmund
originalsecret: cff80296b5
originalformat: jpg
o_height: 3712
o_width: 5552
datetaken: 2011-11-30 21:22:25
dateupload: 1322716945
tags: city urban germany deutschland nrw ruhrgebiet dortmund nord
license: 0
