
mintime: 1322697600 maxtime: 1324512427.5
numimgs: 196
total pages: 1
visiting only 1 pages ( up to 250 images)
photo: 6438477361 ecf5cb832a 7173
owner: 20687176@N04
title: Sarangkot, Nepal - Annapurna Range
originalsecret: null
originalformat: null
o_height: null
o_width: null
datetaken: 2011-11-28 08:36:52
dateupload: 1322778064
tags: morning travel nepal camp vacation mountain fish tourism sunrise trek landscape asia hiking south iii tail visit explore abc peaks himalaya everest range pokhara base annapurna sanctuary himalayan fishtail sarangkot sarankot i machapuchare dhauligiri
license: 0
latitude: 28.229541
longitude: 83.961296
accuracy: 11
views: 822
interestingness: 1 out of 196

photo: 6472040305 f8858f17a7 7023
owner: 53760536@N07
title: Rock Beach Road
originalsecret: null
originalformat: null
o_height: null
o_width: null
datetaken: 2011-11-29 16:53:32
dateupload: 1323313651
tags: sunset portrait usa sunlight seascape lightpainting color colour reflection fall nature clouds composition photoshop landscape photography losangeles nikon rocks raw realestate outdoor picture sealife trail pacificocean research balance algae southerncalifornia orangecounty hdr lagunabeach tonemapped d300s neilkremer neilarmstrong2
license: 0
latitude: 33.531664
longitude: -117.776527
accuracy: 11
views: 584
interestingness: 2 out of 196

photo: 6451093621 f8093608b4 7014
owner: 61517957@N08
title: ''Stinger'' SMG
originalsecret: null
originalformat: null
o_height: null
o_width: null
datetaken: 2011-12-04 14:51:31
dateupload: 1322981491
tags: mod iron lego contest custom smg stinger modder brickarms
license: 0
latitude: 1.365579
longitude: 103.827713
accuracy: 2
views: 449
interestingness: 3 out of 196

photo: 6442739047 c5bcddcc30 7010
owner: 26136824@N02
title: Schrammsteine
originalsecret: null
originalformat: null
o_height: null
o_width: null
datetaken: 2011-10-22 17:35:25
dateupload: 1322851331
tags: autumn fall nature germany landscape herbst natur sachsen landschaft saxon farben s?chsischeschweiz saxonyswitzerland
license: 0
latitude: 50.91097
longitude: 14.215879
accuracy: 11
views: 318
interestingness: 4 out of 196

photo: 6453863757 ce45c50199 7164
owner: 8378546@N08
title: Portuguese skies
originalsecret: 3f6a391ed0
originalformat: jpg
o_height: 600
o_width: 900
datetaken: 2011-07-06 15:28:07
dateupload: 1323073930
tags: sky reflection strange up architecture modern star design pov dirty pole clear 1740l
license: 0
latitude: 38.768405
longitude: -9.095917
accuracy: 16
views: 179
interestingness: 5 out of 196

photo: 6453430967 3c0897827d 7003
owner: 46306125@N03
title: Tree Swallow Sunning in River Alders, The Surreal Swallow Series Continued
originalsecret: e7ba2b9b5f
originalformat: jpg
o_height: 1017
o_width: 1024
datetaken: 2011-05-14 08:22:37
dateupload: 1323016177
tags: spring bravo snowstorm yukon whitehorse alder torpor yukonriver sunning treeswallow tachycinetabicolor migratorybird northerncanada thinfilminterference piloerection bertlawisland plumageiridescence coldweathersurvivalstrategies featherfluffing slowedmetabolism
license: 0
latitude: 60.732315
longitude: -135.093384
accuracy: 5
views: 288
interestingness: 6 out of 196

photo: 6443195209 05c1e32b9c 7160
owner: 14279081@N08
title: fall
originalsecret: ca598b07d9
originalformat: jpg
o_height: 1936
o_width: 1936
datetaken: 2011-12-02 21:27:10
dateupload: 1322857630
tags: above city november blue autumn light sky italy orange brown white house black hot roma tree green fall leaves weather yellow composition contrast square photography mood shadows view angle pov walk branches perspective roofs clear bouquet framing tone lazio celeste iphone atmophere lomofi instagram ?ss????
license: 0
latitude: 41.90311
longitude: 12.495759
accuracy: 11
views: 830
interestingness: 7 out of 196

photo: 6456170959 ff4a7100fd 7001
owner: 35213698@N08
title: Sunflower Bokeh
originalsecret: 4ba519f720
originalformat: jpg
o_height: 763
o_width: 1140
datetaken: 2008-02-25 13:42:45
dateupload: 1323043461
tags: california ca travel usa flower macro 20d nature yellow photoshop canon landscape photo interestingness interesting day photographer desert cs2 bokeh picture clear explore adobe mojave sunflower february southerncalifornia 2008 amboy adjust infocus denoise topazlabs photographersnaturecom davetoussaint
license: 0
latitude: 34.445016
longitude: -115.738649
accuracy: 15
views: 121
interestingness: 8 out of 196

photo: 6452892499 e958d5b03d 7168
owner: 49025062@N04
title: December Morning on Argyle Lake
originalsecret: 7edaea36be
originalformat: jpg
o_height: 1984
o_width: 2634
datetaken: 2011-12-04 07:25:47
dateupload: 1323010437
tags: morning winter house reflection fall clouds sunrise landscape pond nikon december smooth victorian longisland clear argyle babylon hdr argylelake babylonvillage nikond90 babylonandbeyond
license: 0
latitude: 40.695411
longitude: -73.331336
accuracy: 16
views: 189
interestingness: 9 out of 196

photo: 6435467201 8f1a6ebe04 7155
owner: 47145915@N02
title: Thorpe Marsh ~ Explore
originalsecret: null
originalformat: null
o_height: null
o_width: null
datetaken: 2011-11-23 10:39:35
dateupload: 1322731961
tags: 
license: 0
latitude: 53.57625
longitude: -1.087989
accuracy: 16
views: 696
interestingness: 10 out of 196

photo: 6445968811 09df085c13 7157
owner: 57744786@N08
title: Whispering waves
originalsecret: 349b20d04d
originalformat: jpg
o_height: 1175
o_width: 1943
datetaken: 2011-12-01 17:23:11
dateupload: 1322908503
tags: longexposure sea beach night newcastle purple northernireland codown slievedonard lightbursts
license: 0
latitude: 54.210749
longitude: -5.888414
accuracy: 14
views: 147
interestingness: 11 out of 196

photo: 6439246237 28bf7ce509 7158
owner: 14198543@N07
title: Moonlight Mile
originalsecret: 91f8519d0f
originalformat: jpg
o_height: 1024
o_width: 768
datetaken: 2011-12-01 17:57:58
dateupload: 1322789580
tags: moon ontario canada detail digital lune lens mare photos sony awesome first luna craters galaxy astrophotography handheld quarter astronomy nightsky terminator outerspace mississauga tonight astronomia current 47 17x teleconversion dschx1 blinkagain
license: 0
latitude: 43.565528
longitude: -79.586162
accuracy: 13
views: 194
interestingness: 12 out of 196

photo: 6433069111 b91206c703 7163
owner: 44314998@N04
title: Iceland colours
originalsecret: 5da5966a61
originalformat: jpg
o_height: 2197
o_width: 2773
datetaken: 2008-07-01 00:00:00
dateupload: 1322757012
tags: volcano iceland myvatn vulcano islanda hverir
license: 0
latitude: 65.606146
longitude: -16.809082
accuracy: 6
views: 150
interestingness: 13 out of 196

photo: 6445637463 61367b2f69 7011
owner: 10989519@N06
title: De Mark - Small river in the afternoon light
originalsecret: 4fed29e0d5
originalformat: jpg
o_height: 2988
o_width: 4500
datetaken: 2011-11-28 14:47:54
dateupload: 1322900793
tags: park travel blue autumn trees light sky reflection fall nature water netherlands beautiful beauty dutch silhouette rural river season landscape outdoors mirror countryside scenery europe quiet peace silent view natural bright outdoor mark space bare horizon low small country rustic seasonal smooth scenic peaceful atmosphere scene surface calm clear silence serenity attractive romantic serene recreation relaxation untouched picturesque idyllic zon tranquil autumnal landschap noordbrabant meandering sfeer northbrabant ulvenhout markdal laagstaande
license: 0
latitude: 51.550391
longitude: 4.78815
accuracy: 13
views: 140
interestingness: 14 out of 196

photo: 6435324371 d55bb365ec 7025
owner: 60556382@N03
title: Reflections of Bruges - Explored
originalsecret: 4b97443d56
originalformat: jpg
o_height: 2592
o_width: 3888
datetaken: 2011-11-28 09:14:51
dateupload: 1322728460
tags: city reflection water canon canal belgium brugge historic bruges rebelxs flickraward 1000d ourdailychallenge
license: 0
latitude: 51.208819
longitude: 3.223628
accuracy: 11
views: 2802
interestingness: 15 out of 196

photo: 6434840133 92a81a7abc 7165
owner: 82036340@N00
title: Into the Clear
originalsecret: eca2c55d40
originalformat: jpg
o_height: 1243
o_width: 1870
datetaken: 2011-11-30 07:57:55
dateupload: 1322717954
tags: sanfrancisco california morning bridge usa fog geoff goldengate quinn geoffrey southtower artisticphotos royalgroup flickraward
license: 0
latitude: 37.827412
longitude: -122.488174
accuracy: 11
views: 116
interestingness: 16 out of 196

photo: 6466685521 0e8feb85dd 7173
owner: 46423414@N03
title: Beach Park I
originalsecret: 4e9cf9cbfc
originalformat: jpg
o_height: 1024
o_width: 1024
datetaken: 2011-12-06 17:58:08
dateupload: 1323190688
tags: ocean longexposure sea bw seascape water canon square eos blackwhite tranquility squareformat nd 5d canonef24105mmf40l leefilters canonef1740mmf40l bwnd110 canoneos5dmarkii neutraldenisity
license: 0
latitude: 55.654347
longitude: 12.649726
accuracy: 13
views: 105
interestingness: 17 out of 196

photo: 6458448769 6d9351451d 7024
owner: 81147047@N00
title: Pier Sunrise Bognor Regis
originalsecret: null
originalformat: null
o_height: null
o_width: null
datetaken: 2011-12-02 08:06:25
dateupload: 1323072379
tags: pictures ocean uk blue light sunset sun seascape color detail beach water clouds landscape photography dawn sussex pier morninglight photo seaside colours westsussex photos picture blues wideangle bluesky pic prom dslr decking planks bognor hdr highdynamicrange bognorregis topaz photomatix a700 tonemapped tonemapping sigmawideangle sonya700 topazadjust
license: 0
latitude: 50.780434
longitude: -0.676431
accuracy: 13
views: 115
interestingness: 18 out of 196

photo: 5328436708 169ef89eed 5204
owner: 53366513@N00
title: stars in their eyes...
originalsecret: 94e42f0714
originalformat: jpg
o_height: 2108
o_width: 3484
datetaken: 2009-06-11 21:02:03
dateupload: 1323188890
tags: mountains stars star shootingstar tagliacozzo velino marsica montevelino poggiofillipo
license: 0
latitude: 42.084958
longitude: 13.305095
accuracy: 14
views: 310
interestingness: 19 out of 196

photo: 6456679987 8afe4806cb 7151
owner: 32649792@N00
title: Malibu Hindu Temple - Calabasas, California
originalsecret: null
originalformat: null
o_height: null
o_width: null
datetaken: 2011-11-26 13:22:30
dateupload: 1323049088
tags: california sky blackandwhite usa sun architecture religious temple worship day canyon malibu clear burst hindu hdr mandir calabasas malibuhindutemple sonydslr sonydslra500 kartikjayaraman
license: 0
latitude: 34.152259
longitude: -118.693801
accuracy: 11
views: 157
interestingness: 20 out of 196

photo: 6461400161 c4d7d3e39a 7153
owner: 45409431@N00
title: mist clears (cc)
originalsecret: 9e16a4efee
originalformat: jpg
o_height: 2848
o_width: 4272
datetaken: 2011-12-02 10:30:41
dateupload: 1323113272
tags: panorama mist fog germany landscape deutschland nebel lift creative commons away blow clear cc landschaft lifts clears lichten w?rtemberg marfis75 cobways
license: 5
latitude: 49.543479
longitude: 8.528137
accuracy: 9
views: 95
interestingness: 21 out of 196

photo: 6450968053 8debb0c130 7144
owner: 32699608@N02
title: Day 337/365 - Manufactured Chaos!
originalsecret: null
originalformat: null
o_height: null
o_width: null
datetaken: 2011-12-03 12:41:23
dateupload: 1322979283
tags: 
license: 0
latitude: 26.832955
longitude: -80.105094
accuracy: 11
views: 472
interestingness: 22 out of 196

photo: 6465805165 801bbc1c2b 7152
owner: 45991067@N00
title: Portal of Fire
originalsecret: null
originalformat: null
o_height: null
o_width: null
datetaken: 2011-12-02 17:33:34
dateupload: 1323179485
tags: beach? ?big ?light ?landscape? fire? ?nature? ?sunset? sur? pfeiffer? ?julia ?portal ?pacific? ?ocean? beam? ?seascape? ?pfeiffer ?portal? ?scenic? ?pfeiffer?
license: 0
latitude: 36.238129
longitude: -121.816781
accuracy: 15
views: 155
interestingness: 23 out of 196

photo: 6458955047 0728ae413a 7174
owner: 38662888@N08
title: Clear lines under a yellow sky
originalsecret: null
originalformat: null
o_height: null
o_width: null
datetaken: 2011-11-01 17:03:02
dateupload: 1323082319
tags: autumn foglie alberi canon lens focus walk fisheye explore erba pietre cielo manual 8mm sentiero autunno prato montagna luce collina 2011 gialli tenuta samyang stokaz coldeimat
license: 0
latitude: 46.07329
longitude: 12.330093
accuracy: 12
views: 153
interestingness: 24 out of 196

photo: 6460162927 f9df5ba831 7022
owner: 9103928@N06
title: Cardume  - School of Fish
originalsecret: null
originalformat: null
o_height: null
o_width: null
datetaken: 2011-12-04 11:45:02
dateupload: 1323198060
tags: brazil lake southamerica nature water ?gua brasil canon lago pond natureza florian?polis lagoa santacatarina lagoadaconcei??o peixes shoal am?ricadosul cardume suldobrasil fishpondconception southernbrazildircinha
license: 0
latitude: -27.620577
longitude: -48.468589
accuracy: 11
views: 307
interestingness: 25 out of 196

photo: 6434060839 a54c181865 7147
owner: 7202153@N03
title: Clear Creek Canyon & North Rim from Tonto Trail - Grand Canyon
originalsecret: 56f9d7b485
originalformat: jpg
o_height: 3000
o_width: 4000
datetaken: 2011-11-20 13:35:46
dateupload: 1322705914
tags: park camping light arizona storm clouds creek nationalpark hiking grandcanyon grand canyon hike trail national backpacking backcountry grandview tonto southrim grandcanyonnationalpark tontotrail alhikesaz belowtherim gc2011 grandviewyakipoint2011 clearcreekcanyonclear
license: 2
latitude: 36.091657
longitude: -112.077916
accuracy: 16
views: 102
interestingness: 26 out of 196

photo: 6471578645 a1f8ac091a 7020
owner: 15470975@N03
title: These magnificent Crepuscular rays reminds me of the Tibetan Flag, at Lake Manasarovar.
originalsecret: null
originalformat: null
o_height: null
o_width: null
datetaken: 2011-09-13 14:53:55
dateupload: 1323266943
tags: lake tar crepuscularrays manasarovar 2011 tibetanflag tibetautonomousregion flagoftibet maphamyutso ?????????? ?janreurink tibetanplateau????????????b?togang buddhism?????????????????? tibet??? ngari???????? natureofphenomena???????????????choskyidbyings nature????????????rangbyungrangjung anavatapta ???? purang??????????county ????????????? farwesttibet landscape??????????yulljongsy?njong rainclouds?????????charsprin ????????????padmalhatso unvanquishedturquoiselake waterwhichiscoolsweetlightsoftclearpureandwhichneitherupsetsthestomachnorirritatesthethroattheeightqualitiesofperfectwater???????????????????chuyenlakgyenden divinelotuslakepadmalhamtsho rainwaterrainfallheavyrain??????charchu rain?????charpa lakemanasarovarnameofnagawholivestherenameoflakenagaking?????????madr?pa evercoollakemtshomadrospa?????????????tsomadr?pa lakemanasarovar??????????????madr?pemto flagpole???????darchog flag???dar
license: 0
latitude: 30.579553
longitude: 81.475811
accuracy: 16
views: 121
interestingness: 27 out of 196

photo: 6433679729 e3dd1250d4 7030
owner: 47715880@N04
title: Retreating Vapour
originalsecret: null
originalformat: null
o_height: null
o_width: null
datetaken: 2011-11-30 17:01:01
dateupload: 1322700291
tags: sunset lake 3 snow toronto ontario golden long exposure day post image first adobe hour processing beaches 1750 scarborough 28 bluffs non hdr vapour vapor lightroom 500d retreating
license: 0
latitude: 43.705034
longitude: -79.235308
accuracy: 14
views: 343
interestingness: 28 out of 196

photo: 6436000069 af1952c63d 7001
owner: 38745062@N02
title: Stars over Grand Teton Mountain Range
originalsecret: null
originalformat: null
o_height: null
o_width: null
datetaken: 2011-09-29 01:06:28
dateupload: 1322743588
tags: park sky mountain nature night dark way stars evening twilight shiny long exposure heaven glow shine nightscape time dusk infinity space deep peak grand twinkle astro sparkle galaxy national astrophotography astronomy teton universe exploration range milky cosmic starry cosmos astrology constellation distant milkyway starlight starrynightsky
license: 0
latitude: 43.717961
longitude: -110.660294
accuracy: 16
views: 137
interestingness: 29 out of 196

photo: 6470092863 8b2f4510f9 7169
owner: 91218927@N00
title: a most peculiar sunset
originalsecret: null
originalformat: null
o_height: null
o_width: null
datetaken: 2011-12-07 05:50:54
dateupload: 1323237147
tags: park autumn light sunset usa sun sunlight lake reflection fall nature water strange digital america photography evening photo illinois twilight dock solitude december day ray afternoon natural image photos dusk horizon pillar peaceful sunny images calm il clear ill american area tuesday imaging rays recreation contemplate stillness contemplation peculiar straightup crystallake 2011 mchenrycounty threeoaks olysg918 contemplativeimaging ronzack lumgh1 20111206 ci20111206gh13oak
license: 0
latitude: 42.219317
longitude: -88.302268
accuracy: 14
views: 78
interestingness: 30 out of 196

photo: 6453573511 c121ca962a 7165
owner: 24655957@N07
title: Playa de La Concha y Monta?a Clara - La Graciosa
originalsecret: edb4cc34ca
originalformat: jpg
o_height: 681
o_width: 1024
datetaken: 2011-11-30 12:53:38
dateupload: 1323017618
tags: andreasweibel andyw archipelago beach canarias canary clara concha foto fotografia graciosa imedia imediafotocom isla island lagraciosa landscape lanzarote monta?a paisaje photo photograhy playa scenic water waves
license: 0
latitude: 29.274682
longitude: -13.517189
accuracy: 13
views: 106
interestingness: 31 out of 196

photo: 6436939423 c8bcc85231 7148
owner: 22563396@N03
title: breathtaking world
originalsecret: 22a4bbdc28
originalformat: jpg
o_height: 1004
o_width: 1504
datetaken: 2011-09-05 11:11:15
dateupload: 1322757702
tags: china light sunset sun mountains night montagne river liriver tramonto village guilin fiume september clear ?? sole settembre notte cina luce guangxi peoplesrepublicofchina villaggio ?? 2011 xingping zh?nggu? karstformations formazionicarsiche repubblicapopolarecinese fiumeli nikond3100 breathtakingworld
license: 0
latitude: 24.921468
longitude: 110.522975
accuracy: 12
views: 76
interestingness: 32 out of 196

photo: 6475892055 3332a20764 7173
owner: 15451984@N00
title: C'est moi!
originalsecret: null
originalformat: null
o_height: null
o_width: null
datetaken: 2011-09-13 13:14:12
dateupload: 1323334019
tags: ocean blue sea summer beach me sunglasses standing sand day tara sunny clear pacificpalisades photobyjake goodweather taraholland photobyjakeholland 22447864010006
license: 0
latitude: 34.079788
longitude: -118.546989
accuracy: 13
views: 113
interestingness: 33 out of 196

photo: 6468088077 2bd7706f97 7142
owner: 92009745@N00
title: Vi?ey
originalsecret: null
originalformat: null
o_height: null
o_width: null
datetaken: 2011-12-06 18:11:15
dateupload: 1323207779
tags: ocean winter snow mountains tower island iceland peace snowy imagine ?sland videy 2011 vi?ey canonef300mmf4lisusm canoneos5dmarkii imaginepeacetower
license: 0
latitude: 64.147608
longitude: -21.922107
accuracy: 16
views: 115
interestingness: 34 out of 196

photo: 6456171791 b535ab7e0f 7031
owner: 47305639@N05
title: The Purpose Is Clear, "Strike For Justice", Occupy DC, McPherson Square, Washington, DC
originalsecret: 061272e0c8
originalformat: jpg
o_height: 900
o_width: 900
datetaken: 2011-11-19 05:11:45
dateupload: 1323043470
tags: street urban blackandwhite bw washingtondc blackwhite justice dc washington protest streetphotography documentary solidarity dcist dignity urbanphotography mcphersonsquare 500x500 documentaryphotography canong10 4tografie occupydc occupymovement
license: 0
latitude: 38.90172
longitude: -77.034244
accuracy: 13
views: 89
interestingness: 35 out of 196

photo: 6443236077 bc12cd3f52 7008
owner: 35196188@N03
title: EL FARO DEL FIN DEL MUNDO // THE END OF THE WORLD FARO
originalsecret: null
originalformat: null
o_height: null
o_width: null
datetaken: 2011-09-21 18:28:19
dateupload: 1322858237
tags: costa mar playa islas misterio bruma
license: 0
latitude: 43.563134
longitude: -6.30907
accuracy: 13
views: 109
interestingness: 36 out of 196

photo: 6470301763 bd77075bf4 7004
owner: 35436622@N06
title: DOOBLE AIRCH BRIG.
originalsecret: c9f2366e1a
originalformat: jpg
o_height: 2120
o_width: 2816
datetaken: 2011-03-28 07:53:49
dateupload: 1323241400
tags: bridge blue trees winter white reflection tree green nature water pool landscape march scotland town stream arch village view riverside footbridge reflected reflect reflective lime salmonriver wintertime riverbank waterside borders brig bankside waterreflection waterscape limetree hawick teviot metalbridge scottishborders roxburghshire riverscape teviotdale riverteviot wiltonlodgepark fujifinepixa607 spetch tillatomentosa thegreyauldtoon spetchmanspool lauriebridge teviotvalley airch teviotwater seatroutriver airched onearchedbridge
license: 0
latitude: 55.422852
longitude: -2.799925
accuracy: 14
views: 62
interestingness: 37 out of 196

photo: 6465383351 70b0be03e9 7151
owner: 27531711@N08
title: Light of the Moon
originalsecret: null
originalformat: null
o_height: null
o_width: null
datetaken: 2011-11-10 19:02:02
dateupload: 1323172251
tags: autumn sky fall dark georgia nightshot sunny moonlight moonscape lakelanier hallcounty vanpughpark johncothron cothronphotography
license: 0
latitude: 34.189136
longitude: -83.996035
accuracy: 16
views: 202
interestingness: 38 out of 196

photo: 6455842277 89e9ae5793 7142
owner: 63255278@N08
title: Climbing to Shangdian Eastbound
originalsecret: 049214d633
originalformat: jpg
o_height: 865
o_width: 1280
datetaken: 1999-11-25 21:31:41
dateupload: 1323040023
tags: china snow steam inner mongolia jitong qj jingpeng neimongol qj7012 qj6389
license: 0
latitude: 43.226443
longitude: 117.562465
accuracy: 11
views: 86
interestingness: 39 out of 196

photo: 6477584029 bfce924da1 7169
owner: 53185476@N03
title: "light up the darkness"
originalsecret: 1668e9f5dc
originalformat: jpg
o_height: 3265
o_width: 3159
datetaken: 2011-11-29 18:30:28
dateupload: 1323364220
tags: lightpollution forthrailbridge lightupthedarkness
license: 3
latitude: 55.989644
longitude: -3.385162
accuracy: 11
views: 85
interestingness: 40 out of 196

photo: 6459114997 8926aaf1b7 7150
owner: 66076061@N00
title: Crooked Jetty, Tasman Peninsula, Tasmania
originalsecret: null
originalformat: null
o_height: null
o_width: null
datetaken: 2011-11-05 05:39:24
dateupload: 1323085225
tags: blue trees sea sky seascape black tree water fog clouds sunrise boats boat skies matthew jetty australia clear stewart tasmania tasman peninsula crooked 071211
license: 0
latitude: -42.927268
longitude: 147.824478
accuracy: 9
views: 147
interestingness: 41 out of 196

photo: 6444723177 bfd71d54ee 7030
owner: 37342835@N04
title: Upper Takaka Hills
originalsecret: null
originalformat: null
o_height: null
o_width: null
datetaken: 2011-11-30 19:19:11
dateupload: 1322882455
tags: blue trees sunset shadow sky sun sunlight white mountains color colour field forest canon photography afternoon clear british welsh svenska clearskies 550d uppertakaka timboss81 timbowphotography
license: 0
latitude: -40.868872
longitude: 172.799835
accuracy: 10
views: 77
interestingness: 42 out of 196

photo: 6474072823 5b3a07891d 7003
owner: 46642852@N08
title: Dunblane Cathedral Startrails
originalsecret: null
originalformat: null
o_height: null
o_width: null
datetaken: 2011-12-07 20:23:54
dateupload: 1323340681
tags: slr night scotland long exposure shot cathedral sony alpha dunblane startrails a900
license: 0
latitude: 56.189311
longitude: -3.964884
accuracy: 15
views: 90
interestingness: 43 out of 196

photo: 6443886605 d38e299c0c 7021
owner: 19011707@N02
title: One of the 99%
originalsecret: eba645360e
originalformat: jpg
o_height: 1074
o_width: 1518
datetaken: 2011-12-02 11:30:40
dateupload: 1322867713
tags: poverty man nikon littlerock candid 99 arkansas dailyphoto streetshot odc 365group ourdailychallenge photowalkshoot occupyamerica
license: 0
latitude: 34.760653
longitude: -92.385406
accuracy: 11
views: 166
interestingness: 44 out of 196

photo: 6470224021 4e5fcce659 7156
owner: 62425933@N04
title: Sunset Silhouette
originalsecret: null
originalformat: null
o_height: null
o_width: null
datetaken: 2011-12-06 16:52:18
dateupload: 1323239721
tags: nature sunsets deer buck whitetaileddeer odc ourdailychallenge
license: 0
latitude: 42.051332
longitude: -87.875518
accuracy: 11
views: 64
interestingness: 45 out of 196

photo: 6438339339 57201af7e7 7003
owner: 59617389@N06
title: To The Point
originalsecret: null
originalformat: null
o_height: null
o_width: null
datetaken: 2011-12-01 13:49:07
dateupload: 1322776256
tags: street portrait urban blackandwhite bw photography movement loop candid contest streetphotography headlines occupywallstreet occupychicago 85mmstreetphotographycontest
license: 0
latitude: 41.878188
longitude: -87.632119
accuracy: 16
views: 550
interestingness: 46 out of 196

photo: 6436076347 6c23f2d371 7169
owner: 26713910@N05
title: lembran?as do Brasil, Calhetas
originalsecret: null
originalformat: null
o_height: null
o_width: null
datetaken: 2011-12-01 05:09:21
dateupload: 1322744961
tags: 
license: 0
latitude: -8.139785
longitude: -34.900474
accuracy: 11
views: 112
interestingness: 47 out of 196

photo: 6457010427 959be52e19 7145
owner: 25906147@N06
title: Guess where
originalsecret: 824b2b7ee1
originalformat: jpg
o_height: 632
o_width: 950
datetaken: 2011-12-03 20:32:20
dateupload: 1323052711
tags: sanfrancisco goldengate
license: 0
latitude: 37.83148
longitude: -122.478268
accuracy: 15
views: 129
interestingness: 48 out of 196

photo: 6464771743 52502340e8 7154
owner: 39656565@N06
title: Swimming in Paradise #1
originalsecret: null
originalformat: null
o_height: null
o_width: null
datetaken: 2011-11-17 11:48:29
dateupload: 1323159310
tags: morning sea water swimming thailand island phiphi clear krabi losama lohsamah
license: 0
latitude: 7.674246
longitude: 98.766231
accuracy: 13
views: 64
interestingness: 49 out of 196

photo: 6463069501 4bbe3d144e 7032
owner: 41126359@N00
title: The Spirit of the Season
originalsecret: 5b83ac64fc
originalformat: jpg
o_height: 3538
o_width: 5896
datetaken: 2011-12-03 20:30:25
dateupload: 1323133349
tags: 
license: 0
latitude: 28.416975
longitude: -81.581168
accuracy: 16
views: 178
interestingness: 50 out of 196

photo: 6451575971 716e46a600 7142
owner: 27574245@N05
title: Aurora over the city
originalsecret: null
originalformat: null
o_height: null
o_width: null
datetaken: 2011-12-04 19:41:41
dateupload: 1322990773
tags: life winter urban canada green photoshop landscape interestingness frost peace nt calm explore firstplace northwestterritories doublerainbow hdr element northernlights auroraborealis yellowknife clearskies naturesfinest photomatix tonemapped ? fandabydozy
license: 0
latitude: 62.454105
longitude: -114.391365
accuracy: 16
views: 76
interestingness: 51 out of 196

photo: 6470651517 598f5894f2 7012
owner: 43291186@N06
title: Edinburgh's Christmas
originalsecret: 86b28e6dfd
originalformat: jpg
o_height: 4098
o_width: 5123
datetaken: 2011-12-06 16:47:17
dateupload: 1323249132
tags: christmas uk wheel canon scotland edinburgh edinburghcastle unitedkingdom princesstreetgardens princesstreet carousel fair ferris escocia rides newtown edimburgo jenners newcollege winterwonderland scottmonument themound ?cosse standrewsquare stdavidsstreet ?dimbourg 5dii tse24lii
license: 0
latitude: 55.95284
longitude: -3.193266
accuracy: 15
views: 138
interestingness: 52 out of 196

photo: 6466149911 e54d8b97e5 7019
owner: 47226420@N02
title: # Cause there'll be no sunlight if I lose you, baby There'll be no clear skies if I lose you, baby Just like the clouds, My eyes will do the same if you walk away Everyday, it will rain, rain, rain.
originalsecret: null
originalformat: null
o_height: null
o_width: null
datetaken: 2011-12-04 09:38:59
dateupload: 1323184142
tags: 
license: 0
latitude: 10.34633
longitude: 107.079963
accuracy: 11
views: 62
interestingness: 53 out of 196

photo: 6446412663 9389d51505 7008
owner: 15823425@N00
title: Pleasantly Plain
originalsecret: 9ed21700e7
originalformat: jpg
o_height: 533
o_width: 800
datetaken: 2010-07-16 14:07:58
dateupload: 1322917289
tags: sunlight white west green nature beautiful field grass horizontal clouds rural season landscape outdoors freedom daylight spring montana warm alone mt unitedstates farm infinity empty wheat lawn large meadow fluffy bluesky nobody clean growth health pasture crop simplicity western backgrounds environment prairie copyspace agriculture plains simple eternity plain idyllic emptiness perfection sparse scenics clearsky freshness stratosphere beginnings highwood stockphoto flatland grassy newlife easternmontana greatplains stockphotography colorimage ruralscene beautyinnature heavenandearth frontorbackyard lushfoliage chouteaucounty horizonoverland toddklassy montanatravelphotographer
license: 0
latitude: 47.646409
longitude: -110.706675
accuracy: 15
views: 322
interestingness: 54 out of 196

photo: 6444733473 c12b0b096d 7021
owner: 37342835@N04
title: Afternoon glow
originalsecret: null
originalformat: null
o_height: null
o_width: null
datetaken: 2011-11-30 19:27:16
dateupload: 1322882640
tags: blue trees light sunset shadow sky sun sunlight white mountains color colour water field forest canon dark photography afternoon shine spray clear british layers welsh svenska clearskies 550d uppertakaka timboss81 timbowphotography
license: 0
latitude: -40.86991
longitude: 172.808761
accuracy: 10
views: 96
interestingness: 55 out of 196

photo: 6438460939 fba77a3aa9 7156
owner: 40715570@N06
title: Final approach
originalsecret: null
originalformat: null
o_height: null
o_width: null
datetaken: 2011-12-01 22:15:06
dateupload: 1322777856
tags: uk lighthouse airport edinburgh airplanes newhaven startrails scotlant
license: 0
latitude: 55.982586
longitude: -3.198094
accuracy: 13
views: 242
interestingness: 56 out of 196

photo: 6323771202 fbd270f50a 6052
owner: 45920781@N02
title: ambre
originalsecret: null
originalformat: null
o_height: null
o_width: null
datetaken: 2011-11-02 04:07:31
dateupload: 1323184877
tags: blue light white window girl beautiful hair la crazy movement eyes colours young moi pale clear blonde overexposed camille fais moue richez
license: 3
latitude: 48.864913
longitude: 2.297627
accuracy: 15
views: 259
interestingness: 57 out of 196

photo: 6461456081 9b351ea238 7166
owner: 64587980@N02
title: A shadow of the pillars
originalsecret: f18dff34c1
originalformat: jpg
o_height: 1024
o_width: 683
datetaken: 2011-12-05 11:37:42
dateupload: 1323113858
tags: winter shadow blackandwhite sun london architecture december arch walk pillar corridor somersethouse londonbuildings 365days
license: 0
latitude: 51.510291
longitude: -0.117759
accuracy: 13
views: 110
interestingness: 58 out of 196

photo: 6461160301 1865f772f3 7143
owner: 35492921@N06
title: Sinterklaas &  Zwarte Piet  bij ons thuis
originalsecret: null
originalformat: null
o_height: null
o_width: null
datetaken: 2011-12-05 17:51:26
dateupload: 1323110658
tags: hgv otw ?allrightsreserved sinterklaaszwartepiet mikazu001 pepernootsnoepgoed lekkerpeppernotten
license: 0
latitude: 52.725971
longitude: 6.47552
accuracy: 11
views: 117
interestingness: 59 out of 196

photo: 6452917285 cd597ae1ff 7017
owner: 15823425@N00
title: January 2012 | Grainery Chill
originalsecret: e05f76c3b0
originalformat: jpg
o_height: 565
o_width: 800
datetaken: 2011-12-04 07:42:31
dateupload: 1323010718
tags: wood old blue winter sky sunlight snow cold west color building history mill abandoned nature beautiful beauty horizontal architecture clouds rural america vintage landscape outdoors countryside wooden scenery montana alone mt exterior snowy antique wheat country farming rustic grain tracks nobody clear company forgotten american western ghosttown tall prairie copyspace agriculture flour pastoral desolate grainelevator agricultural grainery bucolic snowscape relic stockphoto milling brokendown tranquilscene lonesome greatplains stockphotography deteriorating agribusiness cerealcrop hiline gallatinvalley lothair montanaphotographers toddklassy
license: 0
latitude: 48.471555
longitude: -111.227619
accuracy: 16
views: 149
interestingness: 60 out of 196

photo: 6441156223 5559cf4bb9 7143
owner: 46259338@N06
title: Light Bowl
originalsecret: 5e491bdd36
originalformat: jpg
o_height: 904
o_width: 1400
datetaken: 2011-12-01 19:25:09
dateupload: 1322827876
tags: 
license: 0
latitude: 54.859882
longitude: -1.477272
accuracy: 11
views: 104
interestingness: 61 out of 196

photo: 6441006973 40100bdd8a 7169
owner: 40297601@N02
title: Raccoon...#27 (My favorite)
originalsecret: null
originalformat: null
o_height: null
o_width: null
datetaken: 2011-10-06 07:51:50
dateupload: 1322824729
tags: canada animals canon wildlife manitoba raccoon mammals 50d canonef400mmf56l amazingwildlifephotography
license: 0
latitude: 49.655321
longitude: -96.208906
accuracy: 13
views: 56
interestingness: 62 out of 196

photo: 6477771883 1dcf576034 7012
owner: 32062054@N08
title: Winter Smile
originalsecret: null
originalformat: null
o_height: null
o_width: null
datetaken: 2011-11-21 08:33:15
dateupload: 1323366828
tags: winter waterdrop drop dewdrop coldweather spark redberry coldday bluebackground blueair sunnymorning redonblue dropreflection sunnybokeh decembersmile clearbubble
license: 0
latitude: 33.133382
longitude: -117.327547
accuracy: 11
views: 50
interestingness: 63 out of 196

photo: 6459580433 e144d254c9 7035
owner: 56811243@N05
title: "Rue du Tresor..."
originalsecret: null
originalformat: null
o_height: null
o_width: null
datetaken: 2011-05-22 16:33:28
dateupload: 1323092503
tags: old city bw white canada black art dark alley nikon quebec tourist du canadian clear qu?bec artists and quebeccity 1855mm nikkor rue tresor attraction vieux crowded vieuxqu?bec qu?beccity nikkor1855mm artistsalley ruedutresor clearphotography
license: 0
latitude: 46.813101
longitude: -71.206136
accuracy: 16
views: 47
interestingness: 64 out of 196

photo: 6435912739 557dffd1ef 7151
owner: 57181139@N03
title: Kazma Meteor
originalsecret: 98a045966e
originalformat: jpg
o_height: 664
o_width: 999
datetaken: 2011-11-24 12:31:17
dateupload: 1322741891
tags: mountains star kuwait starts meteor ???? ???? ???? kazma ???? ????? ???? ???? ?????????
license: 1
latitude: 29.449503
longitude: 47.718681
accuracy: 11
views: 154
interestingness: 65 out of 196

photo: 6470995455 1fbe9b44d4 7035
owner: 40365844@N05
title: It is a ladies bike!
originalsecret: null
originalformat: null
o_height: null
o_width: null
datetaken: 2011-12-07 11:10:42
dateupload: 1323256606
tags: uk flowers light england 120 6x6 film bike yorkshire leeds rangefinder horn bycicle foldingcamera standdevelopment sovietcamera
license: 0
latitude: 53.809843
longitude: -1.569864
accuracy: 15
views: 144
interestingness: 66 out of 196

photo: 6459167351 c5d3ee9d88 7175
owner: 15823425@N00
title: Flaxen Sea, 2011
originalsecret: 931139cd5e
originalformat: jpg
o_height: 800
o_width: 618
datetaken: 2010-08-27 13:13:27
dateupload: 1323086131
tags: sea summer food brown sunlight plant abstract west nature field barley yellow vertical rural america bread landscape outdoors gold countryside montana day mt flat bright earth farm empty wheat country grain harvest straw dry sunny bluesky nobody farmland rye health mature bakery crop simplicity ingredients western backgrounds growing agriculture minimalism yield distance pure idyllic clearsky freshness ripe goldentriangle stockphoto harvesting vast stockphotography cultivated hiroshisugimoto agribusiness wholegrain cerealcrop colorimage ruralscene fortbenton chouteaucounty horizonoverland americasbreadbasket montanaphotographers toddklassy
license: 0
latitude: 47.763113
longitude: -110.688457
accuracy: 14
views: 127
interestingness: 67 out of 196

photo: 6475142801 87fccfae5b 7017
owner: 44319079@N06
title: Drifting golden sky
originalsecret: null
originalformat: null
o_height: null
o_width: null
datetaken: 2011-11-06 16:53:29
dateupload: 1323318330
tags: city longexposure sunset building skyline skyscraper canon landscape cityscape taiwan ?? taipei101 ?? ?? crepuscularrays ??? ??101 ??? ?? ??? ?? canoneos550d wb5000k32
license: 0
latitude: 25.031133
longitude: 121.584255
accuracy: 16
views: 78
interestingness: 68 out of 196

photo: 6474738601 ec24c8d99f 7012
owner: 26495293@N05
title: RED, TURQUOISE, GOLD
originalsecret: 7f24c2272e
originalformat: jpg
o_height: 2021
o_width: 3053
datetaken: 2011-12-07 20:19:49
dateupload: 1323311706
tags: november autumn sun sunlight newmexico tree slr fall mamiya film leaves sunshine berries fallcolor kodak branches bluesky 35mmfilm brightcolors treebranch abiquiu autumncolor redberries yellowleaves clearday ektar goldleaves nc1000s nc1000 turquoisesky ektar100 mamiya50mmf17
license: 0
latitude: 36.208178
longitude: -106.310169
accuracy: 16
views: 50
interestingness: 69 out of 196

photo: 6471372203 ed01452929 7156
owner: 38088948@N05
title: Cherrapunjee- second wettest place
originalsecret: null
originalformat: null
o_height: null
o_width: null
datetaken: 2011-12-04 13:46:48
dateupload: 1323263822
tags: 
license: 0
latitude: 25.288179
longitude: 91.730339
accuracy: 11
views: 63
interestingness: 70 out of 196

photo: 6471252139 06cbbe40df 7013
owner: 15823425@N00
title: Up Side Down
originalsecret: 63575cdd87
originalformat: jpg
o_height: 533
o_width: 800
datetaken: 2010-07-23 20:55:12
dateupload: 1323261681
tags: above park street travel family carnival summer vacation sky people motion childhood festival horizontal kids clouds composition season fun outdoors daylight fairgrounds flying movement montana mt ride arms action circus steel air statefair fear culture machine bluesky kitsch games exhibition scissors entertainment riding novelty havre amusementpark leisure recreation copyspace dizzy activity midway sideview excitement countyfair funfair enjoyment themepark highup fayre attraction clearsky stockphoto traditionalculture stockphotography exhilaration thrillrides colorimage hiline recreationalpursuit upsdiedown unrecognizableperson toddklassy montanaphotographer greatnorthernfair
license: 0
latitude: 48.555847
longitude: -109.710175
accuracy: 16
views: 94
interestingness: 71 out of 196

photo: 6458551963 d4aa8dd356 7007
owner: 56115748@N00
title: Winter Splendor
originalsecret: null
originalformat: null
o_height: null
o_width: null
datetaken: 2011-12-04 16:55:07
dateupload: 1323074382
tags: seattle longexposure sunset night cityscape dusk clear spaceneedle pugetsound kerrypark nightsky nightfall mtrainer
license: 0
latitude: 47.629334
longitude: -122.359993
accuracy: 14
views: 45
interestingness: 72 out of 196

photo: 6447993241 bfd760e181 7023
owner: 51037504@N04
title: The Peter Iredale: Under The Moonlight
originalsecret: null
originalformat: null
o_height: null
o_width: null
datetaken: 2011-12-02 22:12:09
dateupload: 1322938107
tags: ocean park moon night stars ship state pacific fort stevens peter wreck iredale
license: 0
latitude: 46.178314
longitude: -123.979672
accuracy: 15
views: 80
interestingness: 73 out of 196

photo: 6445349991 81bbed5777 7008
owner: 79815930@N00
title: RB_12-02-2011_SanFrancisco-Night
originalsecret: null
originalformat: null
o_height: null
o_width: null
datetaken: 2011-12-02 20:13:20
dateupload: 1322894110
tags: pentaxk10d copyrightrichardbeebe richardbeebe buildings lights presents pentaxart sf san franciscosanfranciscocalifnight 1001nights
license: 0
latitude: 37.819005
longitude: -122.373104
accuracy: 11
views: 128
interestingness: 74 out of 196

photo: 6444525727 fe3e9f0a3a 7151
owner: 62783804@N05
title: King Arthur Carrousel - Disneyland
originalsecret: null
originalformat: null
o_height: null
o_width: null
datetaken: 2011-12-02 18:24:19
dateupload: 1322879059
tags: 
license: 0
latitude: 33.813201
longitude: -117.918963
accuracy: 16
views: 56
interestingness: 75 out of 196

photo: 6450857207 ef18774c9e 7154
owner: 54766734@N04
title: A Crystal Clear Night
originalsecret: 900d9b1b6e
originalformat: jpg
o_height: 4670
o_width: 5184
datetaken: 2011-12-04 03:40:03
dateupload: 1322977330
tags: road blue trees sky snow black night stars highlands galaxy 30seconds milkyway
license: 0
latitude: 57.168804
longitude: -2.96957
accuracy: 13
views: 159
interestingness: 76 out of 196

photo: 6433651443 226b43f358 7150
owner: 54816077@N03
title: The "Cold One" - Explored November 30th, 2011
originalsecret: null
originalformat: null
o_height: null
o_width: null
datetaken: 2011-11-30 12:59:54
dateupload: 1322699874
tags: winter snow blur mexico bokeh explore petawawa selectivefocus closeupview canonef50mmf14 explored alienskinexposure canon60d adobephotoshopcs5 adobelightroom34 thousandwordimages
license: 0
latitude: 45.861563
longitude: -77.254314
accuracy: 11
views: 135
interestingness: 77 out of 196

photo: 6429193471 65f511db41 7029
owner: 22829128@N08
title: Temple of Poseidon
originalsecret: null
originalformat: null
o_height: null
o_width: null
datetaken: 2011-09-13 14:33:05
dateupload: 1322701440
tags: blue sea sky temple day columns ruin aegean athens clear greece poseidon sounion colonnade portico doric 5252 pelagos archeaological aigaion
license: 0
latitude: 37.648847
longitude: 24.030371
accuracy: 16
views: 67
interestingness: 78 out of 196

photo: 6458768227 48463d2800 7029
owner: 72176412@N00
title: Northern Flickr (II)
originalsecret: 19322a822d
originalformat: jpg
o_height: 770
o_width: 770
datetaken: 2011-12-04 15:56:38
dateupload: 1323078687
tags: bird woodpecker colaptesauratus avianexcellence northernflickrmale
license: 0
latitude: 49.285835
longitude: -122.786378
accuracy: 13
views: 63
interestingness: 79 out of 196

photo: 6438359081 93630ebd23 7004
owner: 27955898@N07
title: Cader Idris
originalsecret: e7be884ac8
originalformat: jpg
o_height: 4288
o_width: 2848
datetaken: 2011-09-24 12:15:56
dateupload: 1322776498
tags: 
license: 0
latitude: 52.689286
longitude: -3.882122
accuracy: 11
views: 73
interestingness: 80 out of 196

photo: 6436482175 2413ba957c 7149
owner: 64666585@N03
title: WICT Leaving Clearing
originalsecret: 6aeef9b802
originalformat: jpg
o_height: 4343
o_width: 7040
datetaken: 2011-11-29 07:33:30
dateupload: 1322751441
tags: 
license: 0
latitude: 41.777584
longitude: -87.737331
accuracy: 13
views: 75
interestingness: 81 out of 196

photo: 6476192699 e59948bfc9 7010
owner: 40279823@N00
title: First destination 2012 - Paris
originalsecret: 1300126839
originalformat: jpg
o_height: 2677
o_width: 1785
datetaken: 2011-10-01 12:58:52
dateupload: 1323341104
tags: 
license: 1
latitude: 48.839144
longitude: 2.39298
accuracy: 16
views: 142
interestingness: 82 out of 196

photo: 6467015477 501232e8b6 7013
owner: 47245207@N05
title: c? air leth
originalsecret: null
originalformat: null
o_height: null
o_width: null
datetaken: 2011-10-25 15:12:24
dateupload: 1323194762
tags: dog skye scotland retriever sorcha d5000 dubhard
license: 0
latitude: 57.115926
longitude: -5.996131
accuracy: 11
views: 104
interestingness: 83 out of 196

photo: 6439431379 1db46721cb 7173
owner: 56811243@N05
title: "Vieux-Qu?bec..."
originalsecret: null
originalformat: null
o_height: null
o_width: null
datetaken: 2011-12-01 21:19:34
dateupload: 1322792985
tags: park old city panorama canada saint buildings river french town lawrence nikon cityscape quebec panoramic clear upper qu?bec handheld quebeccity 1855mm nikkor ch?teau vieuxqu?bec frontenac ch?teaufrontenac saintlawrenceriver uppertown nikkor1855mm d3000 clearphotography
license: 0
latitude: 46.809569
longitude: -71.20487
accuracy: 16
views: 76
interestingness: 84 out of 196

photo: 6476571253 2830d7dc43 7013
owner: 15823425@N00
title: Bountiful Windmills
originalsecret: 8e93677b8c
originalformat: jpg
o_height: 533
o_width: 800
datetaken: 2010-07-16 14:21:59
dateupload: 1323348912
tags: ranch blue sky west green history water field silhouette horizontal skyline museum rural america outdoors countryside energy montana mt power state wind many farm steel small rustic towers machine nobody windmills well monitor collection pump machinery nostalgia western multiple environment backlit prairie copyspace agriculture plains waterpump turbine blades lattice watermill types agricultural clearsky rudder windpower powersupply windenergy stockphoto sources renewableenergy stockphotography smalltownamerica colorimage ruralscene fortbenton chouteaucounty fuelandpowergeneration builtstructure montanaphotography aermotorwindmillcompany toddklassy museumofthenortherngreatplains montanaagriculturalcenter multibladed differentkindsof
license: 0
latitude: 47.825217
longitude: -110.666366
accuracy: 16
views: 77
interestingness: 85 out of 196

photo: 6440821387 4541e39689 7144
owner: 8428747@N05
title: 
originalsecret: null
originalformat: null
o_height: null
o_width: null
datetaken: 2011-11-05 15:17:07
dateupload: 1322820567
tags: ohio day farm sunny clear concord lakecounty lakecountyohio concordohio
license: 0
latitude: 41.673988
longitude: -81.224006
accuracy: 11
views: 43
interestingness: 86 out of 196

photo: 6430483147 91def62895 7169
owner: 32614507@N05
title: Berryessa Gap
originalsecret: null
originalformat: null
o_height: null
o_width: null
datetaken: 2011-11-29 17:04:59
dateupload: 1322754364
tags: california winter sunset orange black field fog canon landscape eos farm gap farmland card valley sacramento agriculture solano berryessa 1755mm 50d efs1755mmf28isusm
license: 0
latitude: 38.51325
longitude: -121.821784
accuracy: 11
views: 148
interestingness: 87 out of 196

photo: 6447714847 7bdf962a5f 7153
owner: 22563396@N03
title: night falls on the river
originalsecret: d21a158613
originalformat: jpg
o_height: 917
o_width: 1506
datetaken: 2011-09-05 12:05:47
dateupload: 1322934708
tags: china light sunset sun mountains night montagne river liriver tramonto village guilin fiume september clear ?? sole settembre notte cina luce guangxi peoplesrepublicofchina villaggio ?? 2011 xingping zh?nggu? karstformations formazionicarsiche repubblicapopolarecinese fiumeli nikond3100 breathtakingworld
license: 0
latitude: 24.921468
longitude: 110.522975
accuracy: 12
views: 69
interestingness: 88 out of 196

photo: 6471585489 73bb213e35 7010
owner: 35256124@N06
title: American Wigeon Fly By
originalsecret: null
originalformat: null
o_height: null
o_width: null
datetaken: 2011-12-04 13:14:06
dateupload: 1323267042
tags: brown birds inflight wildlife flight avian americanwigeon commonwealthlakepark ducksswansandgeese
license: 0
latitude: 45.513508
longitude: -122.84105
accuracy: 16
views: 80
interestingness: 89 out of 196

photo: 6467200355 afb8163ab3 7028
owner: 68792473@N04
title: GIOVANI e VECCHI - Youngs and elders
originalsecret: null
originalformat: null
o_height: null
o_width: null
datetaken: 1972-05-01 00:00:00
dateupload: 1323196976
tags: roma 35mm moda bn seventies fp4 anni70 pellicola tradeunion blackwhitephotos
license: 0
latitude: 41.901765
longitude: 12.509994
accuracy: 11
views: 27
interestingness: 90 out of 196

photo: 6435296305 964d5ba1e4 7034
owner: 53825985@N02
title: Follow the Light
originalsecret: 0f56218933
originalformat: jpg
o_height: 1709
o_width: 2365
datetaken: 2011-12-01 08:22:51
dateupload: 1322727771
tags: besubsequentto chase comeafter comefrom comenext displace ensue goafter gonext postdate proceedfrom pursue replace result springfrom succeed supersede supervene supplant ablaze aglow bright brilliant burnished clear cloudless flashing fluorescent glossy glowing lambent lucent luminous lustrous phosphorescent polished radiant refulgent resplendent rich scintillant shining shiny sunny unclouded unobscured vivid welllighted welllit forest hardwood pulp sapling seedling shrub softwood stock timber topiary wood woods abigfave
license: 3
latitude: 53.271064
longitude: -1.051168
accuracy: 13
views: 95
interestingness: 91 out of 196

photo: 6437913223 875e078632 7170
owner: 53323105@N02
title: Nothin' But Blue Skies Do I See
originalsecret: 786dcc23b8
originalformat: jpg
o_height: 3564
o_width: 2376
datetaken: 2011-12-01 13:38:21
dateupload: 1322770897
tags: blue sky music montana clear havre creativecommons blueskies prairie willienelson 2011 hillcounty hiline decemberdiary
license: 1
latitude: 48.533457
longitude: -109.667315
accuracy: 14
views: 45
interestingness: 92 out of 196

photo: 6447853963 e23bef8953 7009
owner: 15327087@N00
title: Twin Tufa Sunrise - Mono Lake
originalsecret: null
originalformat: null
o_height: null
o_width: null
datetaken: 2011-11-15 06:43:50
dateupload: 1322936403
tags: monolake california sierra easternsierra sierranevada tufa southtufa south skody stkody kody stevekody monocounty blue orange green clear sunrise stillwater still water morning cold frozen landscape outdoors travel wideangle superwideangle canon7d 7d 1022 leefilters lee gnd gradual tripod feisol longexposure goldenhour efs1022mmusm
license: 0
latitude: 37.943738
longitude: -119.027453
accuracy: 16
views: 76
interestingness: 93 out of 196

photo: 6447320275 da88cd178e 7171
owner: 7226518@N04
title: And the fog rolled in.......
originalsecret: null
originalformat: null
o_height: null
o_width: null
datetaken: 2011-11-20 16:07:37
dateupload: 1322930074
tags: mist fog harrold littleodell
license: 0
latitude: 52.206239
longitude: -0.604419
accuracy: 11
views: 44
interestingness: 94 out of 196

photo: 6436192177 3138129e7f 7017
owner: 32193001@N03
title: Stormy Morning
originalsecret: null
originalformat: null
o_height: null
o_width: null
datetaken: 2011-11-27 07:43:57
dateupload: 1322746987
tags: storm mupesunrise
license: 0
latitude: 50.616659
longitude: -2.221212
accuracy: 13
views: 146
interestingness: 95 out of 196

photo: 6444368705 e7191d94ff 7016
owner: 54043065@N03
title: Clearing the Pond
originalsecret: de8abca5eb
originalformat: jpg
o_height: 683
o_width: 1024
datetaken: 2011-12-02 14:47:22
dateupload: 1322876249
tags: nature birds sunsets eagles raptors refuge baldeagles coots ridgefield jeffwaugh prettybirds ridgefieldwildliferefuge canon500mm jeffwaughphotography
license: 0
latitude: 45.814802
longitude: -122.756767
accuracy: 11
views: 151
interestingness: 96 out of 196

photo: 6443642045 8e61837a25 7008
owner: 38749446@N05
title: Ringed Trout
originalsecret: f93685658c
originalformat: jpg
o_height: 2064
o_width: 3092
datetaken: 2009-10-13 14:25:59
dateupload: 1322863979
tags: trout ringed judykennett knightonpowys
license: 0
latitude: 52.348763
longitude: -3.050079
accuracy: 10
views: 64
interestingness: 97 out of 196

photo: 6441473561 582d6d0261 7006
owner: 32402561@N06
title: White on Blue
originalsecret: null
originalformat: null
o_height: null
o_width: null
datetaken: 2011-09-08 20:54:22
dateupload: 1322833664
tags: california blue autumn summer sky white lines contrast 50mm nikon shadows f14 symmetry clear parallel railings d90 niftyfifty
license: 0
latitude: 38.077777
longitude: -122.127471
accuracy: 15
views: 46
interestingness: 98 out of 196

photo: 6474387543 c4f1b2449a 7171
owner: 60722940@N02
title: ?????????
originalsecret: null
originalformat: null
o_height: null
o_width: null
datetaken: 2011-12-05 08:50:04
dateupload: 1323305866
tags: travel forest photography pond taiwan fairy ?? ?? ?? ?? ?? ?? ??? yilancounty nikond700 ????????? sevenroads ??d700 ????distagont352zf carlzeissdistagont352zf ???? clearlakenationalforestrecreationarea
license: 0
latitude: 24.607761
longitude: 121.504604
accuracy: 15
views: 55
interestingness: 99 out of 196

photo: 6445682083 bf7e2b1d85 7154
owner: 51191642@N05
title: House of Tea
originalsecret: null
originalformat: null
o_height: null
o_width: null
datetaken: 2011-08-21 00:31:29
dateupload: 1322901890
tags: blue sky reflection water architecture germany asian asia culture teahouse luisenpark mannheimluisenpark teahousechineseteahousefengshuiwaterreflectionsbridgescultureblueskyserenityidyllicpristinephotonmixnikond5000
license: 0
latitude: 49.486511
longitude: 8.466779
accuracy: 11
views: 72
interestingness: 100 out of 196

photo: 6434740783 4d4efa5c80 7147
owner: 32877871@N05
title: Sunbeam Creek - Vertical
originalsecret: 18429d74f5
originalformat: jpg
o_height: 2000
o_width: 1328
datetaken: 2011-07-26 19:20:06
dateupload: 1322801172
tags: 
license: 0
latitude: 46.765702
longitude: -121.717824
accuracy: 16
views: 40
interestingness: 101 out of 196

photo: 6445348897 c7ea5f4e5a 7031
owner: 13818837@N05
title: Rocky Sunset
originalsecret: a87e7148f8
originalformat: jpg
o_height: 2920
o_width: 4409
datetaken: 2011-11-26 17:11:39
dateupload: 1322894082
tags: utah nikon desert ponyexpress lightroom simpsonsprings d7000 nikond7000
license: 0
latitude: 40.04015
longitude: -112.782329
accuracy: 16
views: 59
interestingness: 102 out of 196

photo: 6443288099 3530e3276e 7175
owner: 34608298@N05
title: Project 365, Day 316
originalsecret: null
originalformat: null
o_height: null
o_width: null
datetaken: 2011-12-02 10:49:22
dateupload: 1322858975
tags: snow fence square golden colorado straightoutofthecamera project365 shuttersisters buckandrailfence
license: 0
latitude: 39.754283
longitude: -105.223188
accuracy: 13
views: 37
interestingness: 103 out of 196

photo: 6451220795 7804995b6d 7035
owner: 7183402@N03
title: Shadow
originalsecret: null
originalformat: null
o_height: null
o_width: null
datetaken: 2011-11-27 14:19:04
dateupload: 1322983796
tags: family water walk postcard sunday slovenia bohinj bohinjlake aviana2
license: 0
latitude: 46.282487
longitude: 13.881568
accuracy: 13
views: 97
interestingness: 104 out of 196

photo: 6459717111 649789f016 7145
owner: 45753292@N03
title: Life is filled with treasures, some-days the map is clear, other days you might really have to dig
originalsecret: null
originalformat: null
o_height: null
o_width: null
datetaken: 2011-01-03 18:00:50
dateupload: 1323094323
tags: 
license: 0
latitude: 37.100166
longitude: 25.374255
accuracy: 14
views: 36
interestingness: 105 out of 196

photo: 6468440553 e6c94ba54d 7166
owner: 31324293@N03
title: Liverpool Waterfront
originalsecret: d0197823e0
originalformat: jpg
o_height: 1863
o_width: 2805
datetaken: 2011-09-26 12:46:33
dateupload: 1323212137
tags: uk england britain albertdock merseyside 2011 openculture liverpoolwaterfront liverpoool liverpoolskyline bouchsnaps
license: 0
latitude: 53.408303
longitude: -2.991371
accuracy: 11
views: 45
interestingness: 106 out of 196

photo: 6456122253 e5d8604d52 7004
owner: 41683013@N00
title: Portrait of an Asshole - Live at Squamish 2011
originalsecret: c98afa92bf
originalformat: jpg
o_height: 1990
o_width: 2000
datetaken: 2011-12-04 15:55:22
dateupload: 1323042950
tags: 6x6 film sunglasses mediumformat square fuji slidefilm 120film velvia squareformat assholes squamish rvp fujivelvia50 fujivelvia musicfestivals rvp50 liveatsquamish
license: 1
latitude: 49.720199
longitude: -123.142769
accuracy: 16
views: 457
interestingness: 107 out of 196

photo: 6453032255 a175416fd4 7174
owner: 53151484@N00
title: Akureyri - winterday
originalsecret: c4b6f46475
originalformat: jpg
o_height: 650
o_width: 1000
datetaken: 2011-11-26 14:32:07
dateupload: 1323011978
tags: winter reflection church nature landscape town iceland straws akureyri pollurinn akureyrichurch ?flickraward? kaldbakkur
license: 0
latitude: 65.645677
longitude: -18.078346
accuracy: 11
views: 58
interestingness: 108 out of 196

photo: 6444836031 302cfa495d 7031
owner: 11472432@N00
title: My Life Through a Lens | 32/365 - "Moonlight Shadow"
originalsecret: 8d577cb91b
originalformat: jpg
o_height: 2400
o_width: 4000
datetaken: 2011-12-02 22:16:22
dateupload: 1322884386
tags: 
license: 0
latitude: 43.647502
longitude: -79.74102
accuracy: 16
views: 69
interestingness: 109 out of 196

photo: 6462364145 a34f4f1f5d 7152
owner: 44948268@N02
title: My evening office
originalsecret: 52e0379ee8
originalformat: jpg
o_height: 3021
o_width: 4532
datetaken: 2011-12-05 20:39:51
dateupload: 1323124003
tags: night lights airport skies aircraft parking hangar landing bonus seminole circuit takeoff runway hold cessna ils startrails cranfield ifr taxiway c150 touchandgo pa44 365days aircrafttrails bonusaviation billinsairservices bil64 bil641 bpt74
license: 0
latitude: 52.070616
longitude: -0.627336
accuracy: 13
views: 43
interestingness: 110 out of 196

photo: 6465147285 1f1975d3d9 7002
owner: 8771119@N02
title: IMG_7111
originalsecret: f7dd230b81
originalformat: jpg
o_height: 3372
o_width: 3524
datetaken: 2011-12-06 16:20:04
dateupload: 1323167338
tags: canoneos350d zeelandia ?? ?? ?? shiwasu tamron90mmf28spdimacro11 ??? ???? ???? ???? 20111206 ??????
license: 0
latitude: 23.000382
longitude: 120.164122
accuracy: 16
views: 91
interestingness: 111 out of 196

photo: 6459122101 938e96ea54 7012
owner: 31830572@N07
title: Cathedral of Santa Eul?lia
originalsecret: de824e5bbc
originalformat: jpg
o_height: 1024
o_width: 680
datetaken: 2011-09-27 18:26:57
dateupload: 1323085347
tags: barcelona old city autumn building church architecture spain construction europe cathedral capital gothic catalonia historic 14thcentury gothiccathedral tokina1224f4 barcelonacathedral cathedralofsantaeul?lia nikond300 cathedraloftheholycrossandsainteulalia
license: 0
latitude: 41.383087
longitude: 2.175958
accuracy: 15
views: 38
interestingness: 112 out of 196

photo: 6452967363 f272d30685 7161
owner: 28879181@N06
title: Sky Blue
originalsecret: ebf23957a8
originalformat: jpg
o_height: 1712
o_width: 2288
datetaken: 2011-09-23 16:13:07
dateupload: 1323011251
tags: flowers blue flower macro tree nature beautiful field silhouette composition whiteflower daylight day skies afternoon dof natural bright gorgeous meadow blues bluesky depthoffield clear liveoak bloom flowering daytime blueskies blooms depth clearsky treebranch skyblue blooming plethora blueish afternoonlight whiteflowers bluish clearday flowered bloomed clearskies rainlily deepsky fieldofflowers welllit rainlilies floweringmeadow treebranchsilhouette deepskies whiterainlily whiterainlilies plethoraofflowers
license: 1
latitude: 29.889899
longitude: -97.94231
accuracy: 16
views: 77
interestingness: 113 out of 196

photo: 6439783315 dc1e9db746 7016
owner: 22829128@N08
title: Fence with a View
originalsecret: null
originalformat: null
o_height: null
o_width: null
datetaken: 2010-09-16 11:32:47
dateupload: 1322884800
tags: park blue sky snow mountains abandoned fence day grand row clear national fallen 100views glaciers weathered homestead mormon wyoming posts tetons moulton hff 4653
license: 0
latitude: 43.660513
longitude: -110.664682
accuracy: 15
views: 102
interestingness: 114 out of 196

photo: 3449925918 02fca7c873 3631
owner: 31385447@N07
title: Magenta Sky
originalsecret: 0af9129913
originalformat: jpg
o_height: 1704
o_width: 2272
datetaken: 2009-04-17 05:22:32
dateupload: 1322995892
tags: california sky moon mountains nature night canon landscape nationalpark desert dusk magenta ps minimal powershot clear pointandshoot g2 deathvalley minimalist cormend
license: 0
latitude: 36.473202
longitude: -116.849212
accuracy: 10
views: 109
interestingness: 115 out of 196

photo: 6452556671 c2a64909c0 7002
owner: 17357663@N00
title: On a Hot Summer Night ...
originalsecret: null
originalformat: null
o_height: null
o_width: null
datetaken: 2011-12-03 18:07:18
dateupload: 1323006339
tags: auto sky moon eye closeup night lens stars ed prime eclipse nikon focus tripod tube gear super f10 astro equipment mount telescope projection german astrophotography short adapter orion tele astronomy setup guide piece f71 ultra lunar eq ep tracking gem equatorial reflector preparations celestron ota 120mm eyepiece hyperion eon refractor 2011 f75 baader apochromatic supertele primefocus 600mm ssag 200400mm 900mm 200400vr autoguider cgem 2350mm d7k 102ed d7000 cgem925 925edgehd 925f10eq 925hd 120eon eon120
license: 0
latitude: 37.443449
longitude: -122.073855
accuracy: 13
views: 65
interestingness: 116 out of 196

photo: 6445784553 0a95404672 7171
owner: 7183402@N03
title: Bohinj Lake, Triglav National Park, Slovenia
originalsecret: null
originalformat: null
o_height: null
o_width: null
datetaken: 2011-11-27 12:23:53
dateupload: 1322904246
tags: house mist lake reflection water fog postcard shore bohinj bohinjskojezero bohinjlake sloneia
license: 0
latitude: 46.281389
longitude: 13.849554
accuracy: 13
views: 94
interestingness: 117 out of 196

photo: 6455236653 0e77433871 7151
owner: 7901920@N07
title: Evening at Trancoso
originalsecret: null
originalformat: null
o_height: null
o_width: null
datetaken: 2011-07-22 16:49:35
dateupload: 1323034101
tags: blue winter sea brazil sky praia beach azul mar holidays day playa clear bahia vacaciones clubmed trancoso feiras cilelo july2011
license: 0
latitude: -16.888659
longitude: -39.199218
accuracy: 5
views: 54
interestingness: 118 out of 196

photo: 6472402553 6dfbd0e7d3 7141
owner: 61020729@N04
title: Soviet War Memorial in Tiergarten, Berlin, Germany
originalsecret: null
originalformat: null
o_height: null
o_width: null
datetaken: 2010-03-08 16:45:38
dateupload: 1323277830
tags: park berlin monument germany memorial day cloudy worldwarii alemania warmemorial tyskland allemagne tiergarten berlim germania alemanha duitsland worldwartwo warmonument strassedes17juni berlijn berliini westberlin berlino sovietwarmemorial ?? berl?n urbanpark ??? ?? sovietmemorial ?? ????? ?????? alemanya berliin berlyn almanya niemcy bolin barl?n barli? beirl?n berlien berl?ne berlynas berurin verol?no ??? ???? ?????? alema?a ??? ???????? ?????? sovietwarmemorialtiergarten ???????? strasedes17juni grosertiergarten ????????? 17junestreet levkerbel mikhailgorvits vladimirtsigal ?????? bereullin per?llin ????? ?ep?a??? sovietwarmemorialintiergarten britishsectorofberlin formerwestberlin
license: 0
latitude: 52.516145
longitude: 13.372024
accuracy: 16
views: 91
interestingness: 119 out of 196

photo: 6464863679 8857caf535 7163
owner: 10989519@N06
title: Fietsen langs de Mark - Biking in autumn
originalsecret: 548352b3e6
originalformat: jpg
o_height: 3255
o_width: 4500
datetaken: 2011-11-28 15:00:32
dateupload: 1323161198
tags: bridge autumn trees winter orange man holland color reflection tree male fall nature water senior colors sunshine bike bicycle yellow rural river season landscape outdoors freedom cycling countryside movement colorful quiet cyclist view natural time outdoor path mark horizon country rustic seasonal herfst free peaceful sunny surface calm clear cycle reflective romantic environment biker leisure serene recreation activity waterfowl picturesque idyllic autumnal atmospheric fietsen active foreground kleurrijk noordbrabant recreational fietser vitality najaar ulvenhout markdal schilderachtig
license: 0
latitude: 51.550177
longitude: 4.788236
accuracy: 13
views: 63
interestingness: 120 out of 196

photo: 6463485935 92631d6c7a 7170
owner: 53323105@N02
title: Lately I'm beginning to find that when I drive myself, my light is found
originalsecret: 935c516e92
originalformat: jpg
o_height: 2059
o_width: 2800
datetaken: 2011-12-05 19:34:38
dateupload: 1323138927
tags: road music car drive driving creativecommons steer incubus 2011 decemberdiary
license: 1
latitude: 48.398213
longitude: -109.699527
accuracy: 14
views: 35
interestingness: 121 out of 196

photo: 6457810257 7629c6eeb6 7156
owner: 61516491@N04
title: Ocean Splash
originalsecret: null
originalformat: null
o_height: null
o_width: null
datetaken: 2011-09-02 11:42:39
dateupload: 1323061986
tags: america atlanticocean beach clearsky darecounty island killdevilhills kittyhawk landscape nature nautical nc northamerica northcarolina obx ocean outdoor outdoors outerbanks perspective pier sand seashore seascape seaside shore sky splash unitedstates usa water watersedge waves wooden
license: 0
latitude: 35.998333
longitude: -75.646
accuracy: 16
views: 47
interestingness: 122 out of 196

photo: 6442016789 399a8e9f64 7142
owner: 64666585@N03
title: Mendota
originalsecret: df48cb232c
originalformat: jpg
o_height: 4494
o_width: 7198
datetaken: 2011-12-02 09:58:06
dateupload: 1322841630
tags: 
license: 0
latitude: 41.553232
longitude: -89.117488
accuracy: 14
views: 47
interestingness: 123 out of 196

photo: 6465584105 a205a87090 7035
owner: 60208344@N03
title: Tr?s vieille dame a?rodrome Mont?limar
originalsecret: null
originalformat: null
o_height: null
o_width: null
datetaken: 2011-12-06 13:51:31
dateupload: 1323175967
tags: me nord 1012 taifun mont?limar bf108
license: 0
latitude: 44.579326
longitude: 4.737575
accuracy: 15
views: 78
interestingness: 124 out of 196

photo: 6458596545 acc62f0cb5 7008
owner: 56467092@N05
title: Corona Del Mar
originalsecret: null
originalformat: null
o_height: null
o_width: null
datetaken: 2011-12-04 05:03:15
dateupload: 1323075310
tags: ocean california sunset beach night del clouds sunrise landscape gloomy random pics scenic newportbeach longbeach corona newport oc huntingtonbeach backbay coronadelmar lagunabeach cdm
license: 0
latitude: 33.592225
longitude: -117.877314
accuracy: 15
views: 16
interestingness: 125 out of 196

photo: 6439791499 4aa90d9367 7149
owner: 11472432@N00
title: My Life Through a Lens | 31/365 - "Here Comes the Sun"
originalsecret: 71dcf03df4
originalformat: jpg
o_height: 3000
o_width: 4000
datetaken: 2011-12-01 07:50:54
dateupload: 1322798632
tags: project365 31365
license: 0
latitude: 43.624209
longitude: -79.700124
accuracy: 16
views: 56
interestingness: 126 out of 196

photo: 6464772413 3581c49146 7155
owner: 39656565@N06
title: Swimming in Paradise #2
originalsecret: null
originalformat: null
o_height: null
o_width: null
datetaken: 2011-11-17 11:48:39
dateupload: 1323159264
tags: morning sea water swimming thailand island phiphi clear krabi losama lohsamah
license: 0
latitude: 7.674118
longitude: 98.766231
accuracy: 13
views: 27
interestingness: 127 out of 196

photo: 6453662063 e9cfc2806f 7156
owner: 44294427@N04
title: Sunset Birds
originalsecret: null
originalformat: null
o_height: null
o_width: null
datetaken: 2011-10-14 18:45:43
dateupload: 1323018531
tags: sunset sea usa sun birds america canon flordia 60d pineislands
license: 0
latitude: 28.574723
longitude: -82.655596
accuracy: 14
views: 45
interestingness: 128 out of 196

photo: 6450991485 faa444abcb 7172
owner: 29655775@N05
title: 3.12.11 - Big Bear
originalsecret: null
originalformat: null
o_height: null
o_width: null
datetaken: 2011-12-03 10:46:11
dateupload: 1322979674
tags: california camera usa aviation aerial bigbearmountain project365 iphone4 337365 iphoneography 3652011
license: 0
latitude: 34.166301
longitude: -117.100743
accuracy: 16
views: 60
interestingness: 129 out of 196

photo: 6443629925 1bdac53905 7027
owner: 11185080@N03
title: #strike #n30 UNISON Pensions Protest Rally : Flag Market : Preston :
originalsecret: null
originalformat: null
o_height: null
o_width: null
datetaken: 2011-11-30 03:20:44
dateupload: 1322863795
tags: uk england people english digital photoshop nikon zoom flash lancashire adobe preston british nikkor lenses nikond1x ???? d1x alienskinexposure 70210mmf4af metz54mz3 nikonzoom70210mmf4series ??????????????????? nikkor70210mmf4afzoom solidarityandworkers
license: 0
latitude: 53.759114
longitude: -2.698398
accuracy: 16
views: 91
interestingness: 130 out of 196

photo: 6434711743 28a76f00bf 7151
owner: 9742303@N02
title: A Happy Ending...
originalsecret: 08a993cedd
originalformat: jpg
o_height: 2110
o_width: 2770
datetaken: 2011-11-30 01:56:41
dateupload: 1322715589
tags: macro book theend picnik odc1 peterchurchmouse margoaustin
license: 0
latitude: 45.531635
longitude: -122.647762
accuracy: 15
views: 56
interestingness: 131 out of 196

photo: 6433404635 94f9531fc0 7170
owner: 79986881@N00
title: Denmark - Copenhagen - Nykredit Krystallen Headquarters 03
originalsecret: null
originalformat: null
o_height: null
o_width: null
datetaken: 2011-09-11 16:10:37
dateupload: 1322747857
tags: plaza travel copyright building tourism fountain architecture copenhagen denmark nikon europe waterfront eu officebuilding headquarters dk hq waterfeature scandinavia danmark modernarchitecture europeanunion offices allrightsreserved k?benhavn architecturalphotography contemporaryarchitecture travelphotography europeseunie uni?neuropea nykredit copenhagenharbour instantfave thecrystal unioneurop?enne schmidthammerlassen omot travelphotographer flickrelite dgphotos darrellgodliman wwwdgphotoscouk architecturalphotographer d300s ?dgodliman schmidthammerlassenarchitects nikond300s underkrystallen nykreditcrystallen crystallen underthecrystal slalandscapearchitects denmarkcopenhagennykreditkrystallenheadquarters03dsc1987
license: 0
latitude: 55.669906
longitude: 12.573959
accuracy: 16
views: 86
interestingness: 132 out of 196

photo: 6437804535 5e2a62964c 7022
owner: 28202653@N02
title: Troodos Viewpoint
originalsecret: 596c466a6e
originalformat: jpg
o_height: 525
o_width: 775
datetaken: 2011-11-27 15:16:36
dateupload: 1322769431
tags: autumn sunset mountains cyprus oldroad troodos paphosdistrict
license: 0
latitude: 34.862271
longitude: 32.856674
accuracy: 10
views: 123
interestingness: 133 out of 196

photo: 6474741475 ae6c23f1db 7024
owner: 51037504@N04
title: Deep Blue Night
originalsecret: null
originalformat: null
o_height: null
o_width: null
datetaken: 2011-12-03 18:49:51
dateupload: 1323311754
tags: mountain lake snow night stars trillium frozen mt mount hood moonlight
license: 0
latitude: 45.266792
longitude: -121.740885
accuracy: 15
views: 52
interestingness: 134 out of 196

photo: 6464690837 75d84e8cd9 7164
owner: 23448498@N02
title: Blue In Green
originalsecret: 8030ea388f
originalformat: jpg
o_height: 2441
o_width: 4289
datetaken: 2011-12-02 16:54:41
dateupload: 1323157682
tags: blue winter light shadow plants macro green ice nature beauty reflections nikon glow branches milesdavis blueingreen davidsmith calgaryalbertacanada
license: 0
latitude: 50.948234
longitude: -114.009225
accuracy: 14
views: 46
interestingness: 135 out of 196

photo: 6463990435 fc633294de 7020
owner: 66208082@N06
title: Sunset over Central
originalsecret: 6b24bbddd3
originalformat: jpg
o_height: 3249
o_width: 4809
datetaken: 2011-12-06 12:24:21
dateupload: 1323145512
tags: city sunset urban water boat nikon ship cityscape skyscrapers hdr d7000 nikond7000
license: 0
latitude: 22.294734
longitude: 114.168505
accuracy: 14
views: 95
interestingness: 136 out of 196

photo: 6460192795 0dd522be8e 7145
owner: 44978333@N06
title: Light + Shade
originalsecret: null
originalformat: null
o_height: null
o_width: null
datetaken: 2011-12-02 11:04:05
dateupload: 1323099924
tags: nikon naturallight chicagoist banias d90 bechorizo
license: 0
latitude: 41.884151
longitude: -87.632408
accuracy: 11
views: 69
interestingness: 137 out of 196

photo: 6446752083 6e69a92bf8 7144
owner: 29563741@N08
title: 54 John
originalsecret: null
originalformat: null
o_height: null
o_width: null
datetaken: 2011-12-01 12:19:07
dateupload: 1322922501
tags: 
license: 0
latitude: 27.948028
longitude: -82.458325
accuracy: 16
views: 72
interestingness: 138 out of 196

photo: 6444518367 f5088a777b 7173
owner: 41133336@N00
title: December One, Twenty-eleven
originalsecret: ed6f7687bf
originalformat: jpg
o_height: 2048
o_width: 3072
datetaken: 2011-12-01 20:11:34
dateupload: 1322878923
tags: sky night push r14 getpushed
license: 3
latitude: 43.382969
longitude: -72.373237
accuracy: 13
views: 61
interestingness: 139 out of 196

photo: 6469923241 9eff4ebae5 7167
owner: 55514420@N00
title: Bay Bridge San Francisco
originalsecret: 1499e531d9
originalformat: jpg
o_height: 497
o_width: 850
datetaken: 2011-12-06 20:56:06
dateupload: 1323234215
tags: sanfrancisco california bridge usa reflection water bay san francisco long exposure study continue
license: 0
latitude: 37.79438
longitude: -122.389862
accuracy: 16
views: 57
interestingness: 140 out of 196

photo: 6463861589 0f76dd5430 7164
owner: 50446746@N02
title: Through the Looking Glass
originalsecret: f2ab40a568
originalformat: jpg
o_height: 3456
o_width: 5184
datetaken: 2011-11-26 08:03:46
dateupload: 1323143764
tags: 
license: 0
latitude: 39.258974
longitude: -120.901794
accuracy: 11
views: 52
interestingness: 141 out of 196

photo: 6449770253 2b9bf43faf 7035
owner: 64666585@N03
title: South End Of Sciller Pk. Yard
originalsecret: 0cda484fdf
originalformat: jpg
o_height: 2787
o_width: 4568
datetaken: 2011-12-03 19:14:28
dateupload: 1322961313
tags: 
license: 0
latitude: 41.956075
longitude: -87.866721
accuracy: 14
views: 17
interestingness: 142 out of 196

photo: 6440637445 9bcbab155c 7030
owner: 49166677@N05
title: .
originalsecret: null
originalformat: null
o_height: null
o_width: null
datetaken: 2011-11-28 18:51:20
dateupload: 1322815826
tags: flowers light summer sky weed nikon fingers briannajayde
license: 0
latitude: -34.679099
longitude: 150.849151
accuracy: 11
views: 63
interestingness: 143 out of 196

photo: 6457421629 b39bf8c8ce 7006
owner: 29757133@N03
title: Sunrise Anglers
originalsecret: null
originalformat: null
o_height: null
o_width: null
datetaken: 2011-10-06 07:20:05
dateupload: 1323057207
tags: autumn chicago sunrise boats fishing day lakemichigan clear
license: 0
latitude: 41.909559
longitude: -87.621803
accuracy: 11
views: 52
interestingness: 144 out of 196

photo: 6440723415 30a2160ff9 7164
owner: 47966612@N04
title: Robin...
originalsecret: null
originalformat: null
o_height: null
o_width: null
datetaken: 2011-11-30 14:02:54
dateupload: 1322818027
tags: 
license: 0
latitude: 57.643815
longitude: -3.336743
accuracy: 16
views: 51
interestingness: 145 out of 196

photo: 6435419701 779cbd666a 7006
owner: 28182844@N07
title: Skyscrapers
originalsecret: null
originalformat: null
o_height: null
o_width: null
datetaken: 2011-11-15 14:19:55
dateupload: 1322730828
tags: building travelling history broken colors beautiful beauty rock canon landscape golden amazing colorful asia artist tour artistic random landmark visit tourist best historic traveller clear impact land historical visual 1224mm wandering amazed delightful dazzling astonishing behappy kaulalumpur canon500d
license: 0
latitude: 2.718267
longitude: 101.818199
accuracy: 11
views: 35
interestingness: 146 out of 196

photo: 6471817329 dd3de5f8ae 7164
owner: 51035555243@N01
title: It's Clear To Me Now
originalsecret: 0c95021b8f
originalformat: jpg
o_height: 3744
o_width: 5616
datetaken: 2009-09-04 18:58:18
dateupload: 1323270431
tags: california usa unitedstates statefair unitedstatesofamerica fair sacramento sacramentocounty waveswinger californiastatefair chairoplanes swingcarousel californiaexpositionstatefair
license: 2
latitude: 38.592769
longitude: -121.436312
accuracy: 16
views: 108
interestingness: 147 out of 196

photo: 6262127401 50fb4d75dd 6045
owner: 22829128@N08
title: Canals and Commerce and Churches
originalsecret: null
originalformat: null
o_height: null
o_width: null
datetaken: 2011-09-03 15:53:08
dateupload: 1322958120
tags: santa cruise venice italy sunlight church st del restaurant canal day ship dominican afternoon maria mary clear chiesa deck stop jade rosario rosary 12th venezia vaporetto dorsoduro ncl zattere guidecca sailout 2842 gesuati sestiere i
license: 0
latitude: 45.429298
longitude: 12.32725
accuracy: 16
views: 68
interestingness: 148 out of 196

photo: 6474737529 ecb6372c00 7017
owner: 26495293@N05
title: PURITY OF INTENT
originalsecret: 81481f496c
originalformat: jpg
o_height: 2015
o_width: 3054
datetaken: 2011-11-30 17:50:41
dateupload: 1323311689
tags: november autumn sun sunlight plant newmexico santafe slr fall mamiya film sunshine kodak bluesky 35mmfilm brightcolors clearday ektar nativeplant clearbluesky spanishbroom purelight nc1000s nc1000 ektar100 santafelight mamiya50mmf17
license: 0
latitude: 35.689491
longitude: -105.93334
accuracy: 16
views: 35
interestingness: 149 out of 196

photo: 6474411375 ffa6d2f0d3 7144
owner: 52200308@N02
title: Sunset at the George Washington Bridge
originalsecret: beda3840dc
originalformat: jpg
o_height: 1000
o_width: 1500
datetaken: 2011-07-30 20:11:18
dateupload: 1323306257
tags: newyorkcity bridge sunset architecture canon newjersey cityscape bankofamerica hudsonriver empirestatebuilding chryslerbuilding 1022mm hdr georgewashingtonbridge canonefs1022mm canon1022mm newyorkcityskyline oneworldwideplaza canoneos7d canon7d
license: 0
latitude: 40.858486
longitude: -73.959445
accuracy: 14
views: 66
interestingness: 150 out of 196

photo: 6437268609 deb8ac97b1 7146
owner: 48882304@N04
title: IMG_3071_2_3_Normandy, circa 1200?
originalsecret: 434602c3fa
originalformat: jpg
o_height: 4555
o_width: 3082
datetaken: 2011-11-25 11:55:26
dateupload: 1322762039
tags: park mountains tower canon observation island washington state watch mount constitution moran hdr orcas watchtower 3xp caucases 50d
license: 0
latitude: 48.678295
longitude: -122.831611
accuracy: 13
views: 27
interestingness: 151 out of 196

photo: 6474735197 894103562f 7032
owner: 26495293@N05
title: SHADOW DRAWING
originalsecret: 24920ca77f
originalformat: jpg
o_height: 2024
o_width: 3069
datetaken: 2011-11-30 20:16:09
dateupload: 1323311647
tags: november autumn shadow newmexico santafe slr fall mamiya film shadows kodak branches bluesky adobe 35mmfilm brightcolors clearday ektar treeshadows adobewall nc1000s nc1000 ektar100 whiteadobe burningshadows mamiya50mmf17
license: 0
latitude: 35.68794
longitude: -105.939402
accuracy: 16
views: 29
interestingness: 152 out of 196

photo: 6467027409 71521e3621 7170
owner: 9310863@N04
title: Sapphire Pool
originalsecret: null
originalformat: null
o_height: null
o_width: null
datetaken: 2011-07-27 00:37:38
dateupload: 1323195746
tags: blue usa hot water pool clear yellowstone wyoming geothermal deepblue biscuitbasin saphhirepool
license: 0
latitude: 44.485361
longitude: -110.852179
accuracy: 13
views: 34
interestingness: 153 out of 196

photo: 6462648497 0747ac69a3 7141
owner: 53151484@N00
title: Akureyri town...winter
originalsecret: 5402169fb9
originalformat: jpg
o_height: 640
o_width: 1000
datetaken: 2011-11-26 13:50:29
dateupload: 1323127780
tags: winter snow cold nature landscape town clear akureyri hl??arfjall pollurinn oddeyri ?flickraward?
license: 0
latitude: 65.692426
longitude: -18.054313
accuracy: 11
views: 48
interestingness: 154 out of 196

photo: 6457433521 92fb6f1c88 7015
owner: 48413259@N05
title: clearing skies
originalsecret: 225cf5d1ed
originalformat: jpg
o_height: 3392
o_width: 5197
datetaken: 2011-12-05 14:55:49
dateupload: 1323057349
tags: ocean sea beach water pier boat sand jetty catherinehillbay
license: 0
latitude: -33.169312
longitude: 151.630725
accuracy: 11
views: 51
interestingness: 155 out of 196

photo: 6467213581 c2b597005a 7024
owner: 64955875@N02
title: Trees and crevasses
originalsecret: 144785a6c5
originalformat: jpg
o_height: 2050
o_width: 3116
datetaken: 2011-12-04 09:03:38
dateupload: 1323197132
tags: trees snow mountains glaciers washingtonstate hdr shuksan cascadia mtshuksan crevasses 3xp photomatix lowercurtisglacier pentaxsmcda50135128 pentaxk5
license: 0
latitude: 48.815228
longitude: -121.664428
accuracy: 10
views: 53
interestingness: 156 out of 196

photo: 6461102215 d5536441b9 7156
owner: 76583692@N00
title: Autumn Decay
originalsecret: e6a55bf04d
originalformat: jpg
o_height: 2592
o_width: 3888
datetaken: 2011-10-30 16:39:53
dateupload: 1323109987
tags: park old blue autumn sunset red sky brown plant building tree fall abandoned public beautiful leaves stone wall architecture standing vintage town october scenery colorful exterior vibrant empty ruin ukraine structure foliage clear pavilion kiev kyiv obsolete timesofyear
license: 1
latitude: 50.460418
longitude: 30.539474
accuracy: 16
views: 159
interestingness: 157 out of 196

photo: 6459122995 a6ca171116 7142
owner: 31830572@N07
title: Cathedral of Santa Eul?lia
originalsecret: 25ba33db03
originalformat: jpg
o_height: 1024
o_width: 737
datetaken: 2011-09-27 18:23:41
dateupload: 1323085364
tags: barcelona old city autumn building church architecture spain construction europe cathedral capital gothic catalonia historic 14thcentury gothiccathedral tokina1224f4 barcelonacathedral cathedralofsantaeul?lia nikond300 cathedraloftheholycrossandsainteulalia
license: 0
latitude: 41.383087
longitude: 2.175958
accuracy: 15
views: 43
interestingness: 158 out of 196

photo: 6452467123 a0e93a8a1e 7152
owner: 15823425@N00
title: Quiet Strength
originalsecret: e6aa5d13fc
originalformat: jpg
o_height: 800
o_width: 533
datetaken: 2010-11-11 09:04:22
dateupload: 1323005175
tags: travel sunlight plant mountains west tree green nature vertical pine composition landscape outdoors one high montana solitude loneliness mt unitedstates artistic hiking altitude branches air hill bluesky nobody hills growth evergreen alpine valley single simplicity western fir trunk lone remote tall growing copyspace wilderness middle hillside spiritual idyllic ponderosa centered mothernature slope isolated hilltop scenics clearsky freshness coniferous stockphoto sloping crevice conifer grassy tranquilscene warrick stockphotography hillcounty colorimage beautyinnature nonurbanscene lowangleview bearpawmountains horizonoverland toddklassy montanaphotographer
license: 0
latitude: 48.115232
longitude: -109.616764
accuracy: 16
views: 90
interestingness: 159 out of 196

photo: 6465238567 4493c1468e 7030
owner: 8602383@N06
title: Clear View Of The Sunset
originalsecret: null
originalformat: null
o_height: null
o_width: null
datetaken: 2010-08-14 17:07:04
dateupload: 1323169202
tags: sunset temple australia buddhism nsw hdr highdynamicrange wollongong nantien avellana newsouthwhales philipavellana
license: 0
latitude: -34.42488
longitude: 150.893035
accuracy: 11
views: 26
interestingness: 160 out of 196

photo: 6447983313 18a7520ce1 7175
owner: 57953583@N02
title: Ladybower Storm
originalsecret: 061e6c627c
originalformat: jpg
o_height: 4000
o_width: 6000
datetaken: 2011-12-03 15:26:06
dateupload: 1322937980
tags: sunset derbyshire peakdistrict reservoir ladybowerreservoir ladybower dancook sonyslta77 minoltasonyaf20mmf28
license: 4
latitude: 53.375586
longitude: -1.70988
accuracy: 16
views: 58
interestingness: 161 out of 196

photo: 6473125293 2edd10fa39 7005
owner: 14170163@N05
title: Moon Gazing
originalsecret: null
originalformat: null
o_height: null
o_width: null
datetaken: 2011-12-07 19:08:55
dateupload: 1323287263
tags: selfportrait wideangle telescope astronomy year2 composit stargazing selfie day160 sigma1020mm moongazing project365 day521 07122011
license: 0
latitude: 51.015806
longitude: -3.834457
accuracy: 11
views: 49
interestingness: 162 out of 196

photo: 6470937621 6e19c48224 7163
owner: 7501667@N02
title: Hearth-flame, flashing clear skies
originalsecret: da290987fa
originalformat: jpg
o_height: 1936
o_width: 1936
datetaken: 2011-11-29 21:20:07
dateupload: 1323255360
tags: camera city uk london apple window mobile clouds train handy portable view scanner telephone tube romantic drama dlr fakelomo iphone robinrimbaud lomora
license: 0
latitude: 51.504051
longitude: 0.048
accuracy: 16
views: 51
interestingness: 163 out of 196

photo: 6434814645 f7653ec87c 7165
owner: 8833997@N08
title: Maple Syrup
originalsecret: null
originalformat: null
o_height: null
o_width: null
datetaken: 2011-10-14 11:30:55
dateupload: 1322717460
tags: mountain color green fall vermont railway trains chester vt railroads 308 vtr emd gp402 cummingshardware
license: 0
latitude: 43.267596
longitude: -72.589502
accuracy: 14
views: 70
interestingness: 164 out of 196

photo: 6464595443 8798c2b63c 7169
owner: 13241677@N08
title: Black Kitty are good luck =^..^=
originalsecret: null
originalformat: null
o_height: null
o_width: null
datetaken: 2011-11-01 14:52:29
dateupload: 1323155729
tags: cat kitty picnik blackkittycat 201111231?reneigeautomne
license: 0
latitude: 45.518872
longitude: -73.555612
accuracy: 14
views: 31
interestingness: 165 out of 196

photo: 6456737885 a614042a43 7165
owner: 65355162@N00
title: Windflower Point
originalsecret: 0f1e4d8d5b
originalformat: jpg
o_height: 3013
o_width: 4520
datetaken: 2011-12-04 14:50:05
dateupload: 1323049744
tags: california field northerncalifornia cali airplane point fly flying aviation flight aerial clearlake norcal livermore polarizer cessna circular lakeport 172 ahart windflower generalaviation lampson 172sp
license: 0
latitude: 39.004378
longitude: -122.738227
accuracy: 11
views: 51
interestingness: 166 out of 196

photo: 6442772965 26bb6da6ed 7009
owner: 7301629@N04
title: thinking of winter
originalsecret: 6971fea388
originalformat: jpg
o_height: 1376
o_width: 2024
datetaken: 2010-12-18 11:48:34
dateupload: 1322851802
tags: trees winter white snow eyeflyer thinkingofwinter
license: 0
latitude: 47.141511
longitude: 7.55413
accuracy: 11
views: 37
interestingness: 167 out of 196

photo: 6450613565 eb721189d0 7173
owner: 33827564@N06
title: The Hiker 48/52
originalsecret: 10f1e7e5d8
originalformat: jpg
o_height: 2848
o_width: 2848
datetaken: 2011-12-03 16:25:28
dateupload: 1322973555
tags: blue light japanese coast blog eyes warm action trails dramatic clear akita champi 52weeksfordogs
license: 0
latitude: 37.612123
longitude: -122.49052
accuracy: 13
views: 70
interestingness: 168 out of 196

photo: 6466677357 326a2fd2f6 7032
owner: 14294068@N08
title: Moon...5th December 2011
originalsecret: null
originalformat: null
o_height: null
o_width: null
datetaken: 2011-12-05 17:29:34
dateupload: 1323192447
tags: sky moon night december space nightsky universe lunar 2011 sinusiridum bayofrainbows moonshot51211
license: 0
latitude: 53.487432
longitude: -0.814061
accuracy: 13
views: 38
interestingness: 169 out of 196

photo: 6462070549 56c1cb45a1 7033
owner: 52491656@N04
title: Nightlights at Ipanema
originalsecret: null
originalformat: null
o_height: null
o_width: null
datetaken: 2011-11-09 22:39:33
dateupload: 1323120617
tags: november brazil beach brasil night lights clear ipanema 2011
license: 0
latitude: -22.97673
longitude: -43.195079
accuracy: 11
views: 35
interestingness: 170 out of 196

photo: 6461489685 a27f933a9b 7154
owner: 13725029@N07
title: Watching
originalsecret: 8394d0c8e4
originalformat: jpg
o_height: 2933
o_width: 4306
datetaken: 2011-12-04 00:09:04
dateupload: 1323114222
tags: black night stars scotland nikon memorial dundee angus watch d90
license: 0
latitude: 56.499957
longitude: -2.945752
accuracy: 13
views: 62
interestingness: 171 out of 196

photo: 6448960905 90963e6bdc 7143
owner: 33960795@N02
title: Giant Mirror
originalsecret: null
originalformat: null
o_height: null
o_width: null
datetaken: 2011-12-02 21:57:35
dateupload: 1322950315
tags: selfportrait losangeles downtown jonathanclub nikond90 nikon2470mm
license: 0
latitude: 34.051391
longitude: -118.257987
accuracy: 16
views: 99
interestingness: 172 out of 196

photo: 6440560217 2d9c1becb3 7030
owner: 7560130@N06
title: Blushing IMG_6933b
originalsecret: null
originalformat: null
o_height: null
o_width: null
datetaken: 2011-11-22 13:43:20
dateupload: 1322813921
tags: canon eos zoom goldfinch cardueliscarduelis carduelis 100400 northofscotland 5dmkii
license: 0
latitude: 58.139534
longitude: -5.241411
accuracy: 15
views: 60
interestingness: 173 out of 196

photo: 6436687869 a7644ba95e 7144
owner: 48921129@N02
title: The door on the tower of Woolton Reservoir.
originalsecret: null
originalformat: null
o_height: null
o_width: null
datetaken: 2011-11-23 12:46:34
dateupload: 1322754382
tags: england wales liverpool watertower snowdonia liverbird greendoor flooded merseyside woolton watersupply llanwddyn sandstonetower wooltonreservoir wooltonconservationarea
license: 0
latitude: 53.37977
longitude: -2.8758
accuracy: 13
views: 18
interestingness: 174 out of 196

photo: 6478541403 4bfb84562f 7014
owner: 35281926@N02
title: Fenney Spring Windmill
originalsecret: null
originalformat: null
o_height: null
o_width: null
datetaken: 2011-12-08 12:30:12
dateupload: 1323377554
tags: light england blackandwhite art windmill beautiful beauty composition spring amazing interesting focus perfect creative sharp clear stunning arrangement optics infocus fenny leicstershire fennyspringwindmill
license: 0
latitude: 52.770938
longitude: -1.28898
accuracy: 11
views: 17
interestingness: 175 out of 196

photo: 6474736349 f633fb56d4 7019
owner: 26495293@N05
title: ADOBE GEOMETRY
originalsecret: 9ffcac7a52
originalformat: jpg
o_height: 2048
o_width: 3088
datetaken: 2011-11-30 17:49:22
dateupload: 1323311668
tags: november autumn newmexico santafe slr fall mamiya film window architecture iron kodak wroughtiron bluesky adobe 35mmfilm brightcolors clearday ektar adobewall nc1000s nc1000 curvedwalls ektar100 mamiya50mmf17 roundadobe
license: 0
latitude: 35.685805
longitude: -105.930143
accuracy: 16
views: 35
interestingness: 176 out of 196

photo: 6463922251 71af6dab68 7175
owner: 47200218@N02
title: Mount Shasta and Sun Rays
originalsecret: 84bb5a32a7
originalformat: jpg
o_height: 680
o_width: 1024
datetaken: 2011-12-04 11:31:14
dateupload: 1323144562
tags: nikon nikkor mountshasta d300 nikonians davidschultzphotographycom mountbakercameraclub
license: 0
latitude: 41.588871
longitude: -122.504081
accuracy: 11
views: 22
interestingness: 177 out of 196

photo: 6456848363 da7af9ed4e 7014
owner: 25157502@N03
title: Beautiful Evening
originalsecret: e944f011ae
originalformat: jpg
o_height: 3504
o_width: 2336
datetaken: 2011-12-05 07:07:04
dateupload: 1323050970
tags: trees night jeep palm
license: 4
latitude: 27.492759
longitude: -82.621386
accuracy: 14
views: 19
interestingness: 178 out of 196

photo: 6473774573 89dd051dc5 7154
owner: 31977279@N04
title: Gas Natural Office Building Barcelona
originalsecret: b459dfd939
originalformat: jpg
o_height: 1568
o_width: 1178
datetaken: 2011-12-06 17:16:43
dateupload: 1323296172
tags: barcelona sunset building reflections atardecer arquitectura edificio catalonia catalunya catalu?a reflejos edifici edifice catalogna reflexes enricmiralles catalogne capvespre gasnatural katalonia embt benedettatagliabue mirallestagliabue iphone4 pemisera iphoneography iphoneografiacat gasnaturalofficebuilding iphneographie
license: 0
latitude: 41.383039
longitude: 2.190409
accuracy: 16
views: 20
interestingness: 179 out of 196

photo: 6454239669 9841cac7da 7175
owner: 32877871@N05
title: Upper Sunbeam Falls
originalsecret: 1e322f654a
originalformat: jpg
o_height: 2000
o_width: 1328
datetaken: 2011-07-26 19:27:10
dateupload: 1323066960
tags: mt rainier national park paradise wa washington reflection lakes sunbeam creek louise lake road stevens canyon west waterfall upper falls july 26 2011 nikon d90 lens long exposure coop photography nikkor 18105mm vr
license: 0
latitude: 46.765728
longitude: -121.717888
accuracy: 16
views: 34
interestingness: 180 out of 196

photo: 6451088249 af464f12ca 7031
owner: 41165886@N07
title: Whistler Peak
originalsecret: null
originalformat: null
o_height: null
o_width: null
datetaken: 2011-12-04 06:29:38
dateupload: 1322981389
tags: blue sky mountain snow canada black ice clouds canon whistler photography coast chair dragon top peak clear flare inukshuk blackcomb tusk
license: 0
latitude: 50.119571
longitude: -122.954078
accuracy: 11
views: 16
interestingness: 181 out of 196

photo: 6441387781 4f33d93d15 7011
owner: 63165436@N08
title: On the fence
originalsecret: 722c4738ac
originalformat: jpg
o_height: 1779
o_width: 2175
datetaken: 2011-11-11 07:04:45
dateupload: 1322832186
tags: paris france cold bird fence garden small windy tuileries friday hff onthefence blinkagain fencedfridaytoo
license: 0
latitude: 48.853872
longitude: 2.340087
accuracy: 8
views: 43
interestingness: 182 out of 196

photo: 6465089231 5864a141a7 7175
owner: 37593216@N06
title: A Profile of Andy
originalsecret: null
originalformat: null
o_height: null
o_width: null
datetaken: 2011-12-01 22:19:22
dateupload: 1323166096
tags: ireland portrait andy hat profile models backlit lowkey chiaroscuro ballybrack offshoot studiolights codublin splittoning johncoveney andysmurf
license: 0
latitude: 53.254321
longitude: -6.130692
accuracy: 15
views: 104
interestingness: 183 out of 196

photo: 6456703637 2ed0552c29 7154
owner: 45864885@N03
title: CITX 3056
originalsecret: 428efb043d
originalformat: jpg
o_height: 680
o_width: 1024
datetaken: 2011-12-04 14:30:50
dateupload: 1323049356
tags: 
license: 0
latitude: 44.240771
longitude: -96.29774
accuracy: 11
views: 62
interestingness: 184 out of 196

photo: 6439416567 1322ccf965 7010
owner: 27918948@N00
title: Berry-Stained
originalsecret: null
originalformat: null
o_height: null
o_width: null
datetaken: 2011-11-29 09:47:46
dateupload: 1323110823
tags: bird birds animal animals birdfeeder aves mybackyard housefinch animalia fringillidae carpodacusmexicanus carpodacus passeriformes chordata passeri carduelinae img3738 passerida sx30
license: 0
latitude: 38.784439
longitude: -77.072755
accuracy: 16
views: 62
interestingness: 185 out of 196

photo: 6433881879 243a8996c4 7024
owner: 34578976@N00
title: Loon Lake B-23 Isometric
originalsecret: 9f09128d99
originalformat: jpg
o_height: 2934
o_width: 3168
datetaken: 2011-11-30 19:11:18
dateupload: 1322703287
tags: lake 3d model bomber pap loon b23 meshlab hypr3d
license: 0
latitude: 45.15877
longitude: -115.841238
accuracy: 14
views: 93
interestingness: 186 out of 196

photo: 6457470049 a76dc34212 7162
owner: 29450944@N06
title: Shooting The Bridges
originalsecret: c48bf9ec07
originalformat: jpg
o_height: 1896
o_width: 3371
datetaken: 2011-12-04 20:07:04
dateupload: 1323057773
tags: 
license: 0
latitude: 38.034909
longitude: -122.119731
accuracy: 12
views: 31
interestingness: 187 out of 196

photo: 6437474869 cdc863e2e8 7033
owner: 91357526@N00
title: Kauffman Center in the morning, 30 Nov 2011
originalsecret: null
originalformat: null
o_height: null
o_width: null
datetaken: 2011-11-30 08:17:09
dateupload: 1322764862
tags: morning november autumn light color colour building architecture kansascity kc kcmo downtownkansascity kansascitymo 2011 kansascitymissouri downtownkc kansascityarchitecture kauffmancenterfortheperformingarts kcarchitecture
license: 0
latitude: 39.094335
longitude: -94.587446
accuracy: 16
views: 27
interestingness: 188 out of 196

photo: 6436720987 f4ca197a08 7001
owner: 10370794@N08
title: Sunset in December
originalsecret: null
originalformat: null
o_height: null
o_width: null
datetaken: 2011-12-01 16:04:02
dateupload: 1322754818
tags: road wood sunset sky sun tree field forest canon amber high movement warm glow aberdeenshire dynamic farm rosie royal sigma pole clear rise range telegraph f28 hdr westhill banchory deeside nicol crathes ambiant 1770mm 60d drumoak garlogie nicolrosie scotly
license: 0
latitude: 57.096116
longitude: -2.412185
accuracy: 11
views: 59
interestingness: 189 out of 196

photo: 6453347563 4775909a11 7142
owner: 16140299@N06
title: Winter Skies over the Trent
originalsecret: 88ae9107b0
originalformat: jpg
o_height: 838
o_width: 1250
datetaken: 2011-12-01 00:00:00
dateupload: 1323015305
tags: old uk england urban history film 35mm river geotagged town kodak jena lincolnshire trent analogue gainsborough exakta kine carlzeiss gold200 igahee dn21
license: 0
latitude: 53.390814
longitude: -0.77696
accuracy: 16
views: 46
interestingness: 190 out of 196

photo: 6475315683 f07769f0dd 7173
owner: 32877871@N05
title: Northern Lights
originalsecret: 399ef12b45
originalformat: jpg
o_height: 1460
o_width: 2000
datetaken: 2011-08-05 22:12:34
dateupload: 1323325387
tags: city sun mountain night lens photography lights washington nikon long exposure 5 cities august aurora flare wa coop nikkor tri northern rattlesnake vr borealis richland benton 2011 d90 18105mm
license: 0
latitude: 46.32223
longitude: -119.480931
accuracy: 14
views: 20
interestingness: 191 out of 196

photo: 6435977385 6150d01d82 7143
owner: 70079853@N05
title: Bare Island Sunset HDR
originalsecret: 2491d50f38
originalformat: jpg
o_height: 3456
o_width: 5184
datetaken: 2011-12-01 18:32:30
dateupload: 1322743166
tags: ocean bridge sunset summer canon rocks outdoor sydney cliffs hdr clearsky blueskys laperouse portbotany bareisland canon550d
license: 0
latitude: -33.991235
longitude: 151.231838
accuracy: 16
views: 29
interestingness: 192 out of 196

photo: 6474912193 8eed28888b 7002
owner: 42374069@N06
title: Norther Harriers flirting
originalsecret: null
originalformat: null
o_height: null
o_width: null
datetaken: 2011-12-02 13:34:24
dateupload: 1323314503
tags: usa bird fall composite texas tx wildlife pair link mating midair sequence northern harrier freefall talons nwr courtship brazoria
license: 0
latitude: 29.030816
longitude: -95.301658
accuracy: 9
views: 23
interestingness: 193 out of 196

photo: 6434431291 32b00f447b 7005
owner: 24084206@N08
title: Doin' things the J way
originalsecret: f86e0d7209
originalformat: jpg
o_height: 1804
o_width: 2400
datetaken: 2007-01-01 12:52:08
dateupload: 1322711374
tags: hill crest eje 673 sd382
license: 0
latitude: 41.563882
longitude: -88.102304
accuracy: 16
views: 49
interestingness: 194 out of 196

photo: 6458691209 22fc9bcc06 7010
owner: 45783855@N00
title: clouds at sunrise- Wolken bei Sonnenaufgang
originalsecret: 0ceecc2d91
originalformat: jpg
o_height: 310
o_width: 920
datetaken: 2011-12-05 10:25:51
dateupload: 1323077151
tags: clouds sunrise spain wolken catalunya sonnenaufgang tortosa marlies weatherphotography
license: 0
latitude: 40.797697
longitude: 0.456619
accuracy: 13
views: 22
interestingness: 195 out of 196

photo: 6456721331 dcbd7db155 7174
owner: 28565940@N02
title: Early morning flight
originalsecret: 5e99a2f371
originalformat: jpg
o_height: 937
o_width: 1300
datetaken: 2011-12-04 07:36:16
dateupload: 1323049556
tags: trees sky sunrise colorful silhouettes vultures kettleofvultures
license: 0
latitude: 35.625628
longitude: -88.03997
accuracy: 11
views: 22
interestingness: 196 out of 196

photo: 6456361801 13c0638f24 7008
owner: 37744684@N06
title: December Morning
originalsecret: null
originalformat: null
o_height: null
o_width: null
datetaken: 2011-12-04 09:44:19
dateupload: 1323045537
tags: morning winter water field misty sunrise golden drops haze edinburgh december estate sony dew dreamy melt goldenhour cammo a350
license: 0
latitude: 55.955831
longitude: -3.31815
accuracy: 13
views: 32
interestingness: 197 out of 196

photo: 6447822619 44e2b208a6 7170
owner: 57953583@N02
title: Ladybower Storm
originalsecret: null
originalformat: null
o_height: null
o_width: null
datetaken: 2011-12-03 15:16:33
dateupload: 1322936024
tags: sunset derbyshire peakdistrict reservoir ladybowerreservoir ladybower dancook dt1680mmf3545za sonyslta77
license: 0
latitude: 53.375869
longitude: -1.709899
accuracy: 16
views: 62
interestingness: 198 out of 196

photo: 6464138923 273d99590e 7161
owner: 98976124@N00
title: My favorite phones
originalsecret: db820cb44e
originalformat: jpg
o_height: 1280
o_width: 1920
datetaken: 2011-12-06 10:32:42
dateupload: 1323147762
tags: canon headphones audio grado audiophile rokinon3514
license: 0
latitude: 42.262989
longitude: -71.802352
accuracy: 11
views: 52
interestingness: 199 out of 196

photo: 6456327249 dbd2700921 7172
owner: 38379701@N02
title: Rolling (Week 50)
originalsecret: null
originalformat: null
o_height: null
o_width: null
datetaken: 2011-12-04 13:06:07
dateupload: 1323045138
tags: winter snow mtseymour snowshoeing
license: 0
latitude: 49.374968
longitude: -122.929522
accuracy: 14
views: 49
interestingness: 200 out of 196

photo: 6477105849 38db2eedb3 7170
owner: 7396920@N05
title: Suddenly, the fog lifted (Etna, 20 March 1992)
originalsecret: e0597773e9
originalformat: jpg
o_height: 2235
o_width: 3328
datetaken: 2011-12-08 16:19:29
dateupload: 1323357569
tags: italy mist volcano evening sicily 1992 etna eruption lavaflows valledelbove zafferana montezoccolaro 19911993
license: 0
latitude: 37.714393
longitude: 15.056473
accuracy: 16
views: 91
interestingness: 201 out of 196

photo: 6475541665 9d9b3887d3 7174
owner: 41165886@N07
title: Whistler Peak
originalsecret: null
originalformat: null
o_height: null
o_width: null
datetaken: 2011-12-07 09:57:11
