
mintime: 1322697600 maxtime: 1324512427.5
numimgs: 226
total pages: 1
visiting only 1 pages ( up to 250 images)
photo: 6442714799 38d91ebe1a 7153
owner: 44726546@N05
title: Juvenile Peregrine Falcon (Falco peregrinus)
originalsecret: null
originalformat: null
o_height: null
o_width: null
datetaken: 2011-12-02 08:39:09
dateupload: 1322850993
tags: bird nature birds canon outdoors rebel illinois wildlife falcon canonrebel peregrine peregrinefalcon falcoperegrinus t2i mygearandme canont2i
license: 0
latitude: 42.151918
longitude: -88.645992
accuracy: 13
views: 788
interestingness: 1 out of 226

photo: 6433909391 263226790d 7033
owner: 37342835@N04
title: Why would you mess with nature?
originalsecret: null
originalformat: null
o_height: null
o_width: null
datetaken: 2011-11-28 16:35:26
dateupload: 1322703694
tags: world travel light newzealand cloud sunlight reflection beach nature water weather clouds turn dark landscape dramatic stormy nelson reflect nz british welsh drama epic cookstrait svenska weatehr innlet psdtuts timboss81 timboss81guardianportfolio timbowphotography
license: 0
latitude: -41.279096
longitude: 173.233666
accuracy: 14
views: 111
interestingness: 2 out of 226

photo: 6442714793 04ab52aa74 7005
owner: 44726546@N05
title: Juvenile Peregrine Falcon (Falco peregrinus)
originalsecret: null
originalformat: null
o_height: null
o_width: null
datetaken: 2011-12-02 08:40:09
dateupload: 1322850993
tags: bird nature birds canon outdoors rebel illinois wildlife falcon canonrebel peregrine peregrinefalcon falcoperegrinus t2i canont2i
license: 0
latitude: 42.151982
longitude: -88.645906
accuracy: 13
views: 322
interestingness: 3 out of 226

photo: 6465575799 0a2bcd4fbb 7168
owner: 46923976@N02
title: ~~Ashura ~~???.[EXPLORED # 376 ]
originalsecret: null
originalformat: null
o_height: null
o_width: null
datetaken: 2011-12-06 13:44:53
dateupload: 1323175813
tags: life pink blue red portrait white black green nature yellow canon eos colorful purple faces sony gray magenta surreal ash dhaka vaio rgb bangladesh shiya ashur dlsr vaiolet 60d maharram ?gettyimages? 595036 ?blackwhite? gettyimagesbangladeshq3? ?framebangladesh? ?incrediblebengal?
license: 0
latitude: 23.709295
longitude: 90.415191
accuracy: 11
views: 191
interestingness: 4 out of 226

photo: 6441499073 3b4a1ed301 7020
owner: 49927055@N08
title: winter is here
originalsecret: 8e98c9ca52
originalformat: jpg
o_height: 1900
o_width: 1900
datetaken: 2011-12-02 15:04:18
dateupload: 1322834081
tags: china street winter man cold bike bicycle sepia fence square photography child shanghai mimo 365 bundled odc khair
license: 0
latitude: 31.240985
longitude: 121.497974
accuracy: 11
views: 106
interestingness: 5 out of 226

photo: 6476198521 8447d5b048 7002
owner: 46923976@N02
title: Moharram _Twilight  [EXPLORED #34]
originalsecret: null
originalformat: null
o_height: null
o_width: null
datetaken: 2011-12-06 13:45:10
dateupload: 1323341239
tags: life pink blue red portrait white black green nature yellow canon eos colorful purple faces sony gray magenta surreal ash ashura dhaka vaio rgb karbala bangladesh dlsr moharram vaiolet 60d ?gettyimages? 595036 ?blackwhite? gettyimagesbangladeshq3? ?framebangladesh? ?incrediblebengal? hasanhosssain
license: 0
latitude: 23.710395
longitude: 90.40306
accuracy: 11
views: 168
interestingness: 6 out of 226

photo: 6470628529 df00c6cf9e 7023
owner: 46923976@N02
title: Maharram_Bangladesh
originalsecret: null
originalformat: null
o_height: null
o_width: null
datetaken: 2011-12-06 14:16:22
dateupload: 1323248629
tags: life pink blue red portrait white black green nature yellow canon eos colorful purple faces sony gray magenta surreal ash dhaka vaio rgb karbala bangladesh shiya dlsr vaiolet 60d imamhasan ?gettyimages? ?blackwhite? gettyimagesbangladeshq3? ?framebangladesh? ?incrediblebengal? ashuramoharram imamhossain595036
license: 0
latitude: 23.708352
longitude: 90.398998
accuracy: 11
views: 191
interestingness: 7 out of 226

photo: 6442981891 cfbcf47ee0 7141
owner: 28317360@N03
title: 
originalsecret: 579e6c6882
originalformat: jpg
o_height: 1758
o_width: 2177
datetaken: 2010-10-13 21:59:23
dateupload: 1322854643
tags: life uk wild england manchester nikon britain sale young fox trafford plot19
license: 0
latitude: 53.432242
longitude: -2.322235
accuracy: 11
views: 135
interestingness: 8 out of 226

photo: 6450821049 3f7df58d9c 7173
owner: 41346951@N05
title: The Cook...
originalsecret: 7628108226
originalformat: jpg
o_height: 4000
o_width: 3000
datetaken: 2011-12-03 12:30:03
dateupload: 1322976720
tags: 
license: 4
latitude: 47.498519
longitude: 8.73299
accuracy: 11
views: 363
interestingness: 9 out of 226

photo: 6442714795 9ae7b3cf5d 7002
owner: 44726546@N05
title: Juvenile Peregrine Falcon (Falco peregrinus)
originalsecret: null
originalformat: null
o_height: null
o_width: null
datetaken: 2011-12-02 08:57:52
dateupload: 1322850993
tags: bird nature birds canon outdoors rebel illinois wildlife falcon canonrebel peregrine peregrinefalcon falcoperegrinus t2i canont2i
license: 0
latitude: 42.151887
longitude: -88.646249
accuracy: 13
views: 338
interestingness: 10 out of 226

photo: 6442714789 4eb71dffb8 7162
owner: 44726546@N05
title: Juvenile Peregrine Falcon (Falco peregrinus)
originalsecret: null
originalformat: null
o_height: null
o_width: null
datetaken: 2011-12-02 08:55:52
dateupload: 1322850993
tags: bird nature birds canon outdoors rebel illinois wildlife falcon canonrebel peregrine peregrinefalcon falcoperegrinus t2i canont2i
license: 0
latitude: 42.15195
longitude: -88.646078
accuracy: 13
views: 317
interestingness: 11 out of 226

photo: 6437993127 f2ed4e90fb 7164
owner: 51150455@N05
title: Baking my Christmas
originalsecret: null
originalformat: null
o_height: null
o_width: null
datetaken: 2011-12-01 18:22:37
dateupload: 1322771930
tags: christmas winter red italy stilllife white macro tree home cooking kitchen cake canon tin baking italian holidays advent calendar cook sweets ribbon pan adventcalendar countdown onwhite softbox redandwhite christmascake kitchenware checked wintry 100mm28 bakingpan redtin bakingtin christmasribbon redpan enamelpan 24daystochristmas leshirondellesphotography treeshapedpan checkedredandwhiteribbon adventcalendarproject
license: 0
latitude: 45.312019
longitude: 9.496979
accuracy: 11
views: 118
interestingness: 12 out of 226

photo: 6434764717 f262458b0a 7163
owner: 15451984@N00
title: End of an Era - The Village Coffee Shop Closes today, after 35 years in Business. Photo of Milton, the Chef.
originalsecret: null
originalformat: null
o_height: null
o_width: null
datetaken: 2011-11-30 18:28:18
dateupload: 1322716527
tags: leica portrait man kitchen digital lumix restaurant cafe closed cook lastday panasonic chef hollywood milton hollywoodhills beachwood lx3 villagecoffeeshop p1100672
license: 0
latitude: 34.096652
longitude: -118.321159
accuracy: 15
views: 138
interestingness: 13 out of 226

photo: 6479605647 e28a1de639 7175
owner: 60527064@N00
title: Steamy cooking at Nishiki Ichiba
originalsecret: 45d657b0cf
originalformat: jpg
o_height: 854
o_width: 1280
datetaken: 2011-11-21 16:23:27
dateupload: 1323394941
tags: city people urban woman cooking japan shopping person japanese kyoto market steam ?? kansai steamy nishikimarket ??? ??? nishikiichiba ???? olympusep1 panasoniclumix20mmf17
license: 0
latitude: 35.006096
longitude: 135.764923
accuracy: 12
views: 80
interestingness: 14 out of 226

photo: 6444463881 e97c3be5b6 7035
owner: 29450944@N06
title: Tugboatmen Are A Crazy Lot!
originalsecret: 37fb374131
originalformat: jpg
o_height: 598
o_width: 960
datetaken: 2011-12-02 18:07:30
dateupload: 1322877953
tags: 
license: 0
latitude: 61.216552
longitude: -150.002517
accuracy: 10
views: 100
interestingness: 15 out of 226

photo: 6470628507 df00c6cf9e 7143
owner: 46923976@N02
title: Scarifies_A Teaching form ASHURA.[EXPLORED #144]
originalsecret: null
originalformat: null
o_height: null
o_width: null
datetaken: 2011-12-06 13:38:54
dateupload: 1323248629
tags: life pink blue red portrait white black green nature yellow canon eos colorful purple faces sony gray magenta surreal ash dhaka vaio rgb karbala bangladesh shiya dlsr vaiolet 60d imamhasan ?gettyimages? ?blackwhite? gettyimagesbangladeshq3? ?framebangladesh? ?incrediblebengal? ashuramoharram imamhossain595036
license: 0
latitude: 23.712805
longitude: 90.402145
accuracy: 11
views: 116
interestingness: 16 out of 226

photo: 6463641933 b06b0df627 7157
owner: 59101025@N08
title: 
originalsecret: null
originalformat: null
o_height: null
o_width: null
datetaken: 2011-12-05 19:41:32
dateupload: 1323140888
tags: 35mm justinrichards andrewcook arockettothemoon erichalvorsen timetraveltour bwnicksantino
license: 0
latitude: 37.860421
longitude: -122.480649
accuracy: 15
views: 275
interestingness: 17 out of 226

photo: 6466840711 d251628e10 7008
owner: 27248374@N04
title: Scenic Cook Inlet
originalsecret: 919e5f67bd
originalformat: jpg
o_height: 2592
o_width: 3872
datetaken: 2011-12-05 12:35:39
dateupload: 1323192640
tags: alaska anchorage outstandingromanianphotographers
license: 0
latitude: 61.203821
longitude: -150.016508
accuracy: 14
views: 78
interestingness: 18 out of 226

photo: 6477034371 e7eaaa20f5 7009
owner: 55646157@N08
title: The Freshmaker
originalsecret: null
originalformat: null
o_height: null
o_width: null
datetaken: 2011-12-08 13:13:28
dateupload: 1323356506
tags: food green cooking water fruit cuisine switzerland drink juice acid bubbles slice mineral pulp lime sour sparkling vitaminc freshmaker rubigen 2011 valser cantonbern limelite danielwildiphotography
license: 0
latitude: 46.89838
longitude: 7.544119
accuracy: 11
views: 138
interestingness: 19 out of 226

photo: 6470628523 3657d86d7d 7035
owner: 46923976@N02
title: Celebrating Ashura_DHAKA [EXPLORD  #409]
originalsecret: null
originalformat: null
o_height: null
o_width: null
datetaken: 2011-12-06 13:43:52
dateupload: 1323248629
tags: life pink blue red portrait white black green nature yellow canon eos colorful purple faces sony gray magenta surreal ash dhaka vaio rgb karbala bangladesh shiya dlsr vaiolet 60d imamhasan ?gettyimages? ?blackwhite? gettyimagesbangladeshq3? ?framebangladesh? ?incrediblebengal? ashuramoharram imamhossain595036
license: 0
latitude: 23.709924
longitude: 90.401859
accuracy: 11
views: 54
interestingness: 20 out of 226

photo: 6268156836 e62dc35dd4 6114
owner: 9103928@N06
title: Cozinhando  sagu _ cooking sagu.
originalsecret: null
originalformat: null
o_height: null
o_width: null
datetaken: 2011-10-21 18:48:42
dateupload: 1323194657
tags: from brazil food brasil do wine spoon alimento southern pot stove da dishes typical prato vinho sul fog?o regi?o colher panela tipico
license: 0
latitude: -27.591827
longitude: -48.572616
accuracy: 11
views: 72
interestingness: 21 out of 226

photo: 6439463567 54679420e5 7034
owner: 28201220@N07
title: Aadil Restaurant, Pahalgam
originalsecret: null
originalformat: null
o_height: null
o_width: null
datetaken: 2011-06-29 05:13:02
dateupload: 1322793491
tags: food cooking restaurant cafe eating kashmir hdr kashmiri shopfronts teacoffee pahalgam earthasia unseen~asia
license: 0
latitude: 34.051806
longitude: 75.304412
accuracy: 10
views: 141
interestingness: 22 out of 226

photo: 6451246309 3727a31626 7022
owner: 25208635@N02
title: It's a big world out there...
originalsecret: f99e0e8507
originalformat: jpg
o_height: 973
o_width: 1500
datetaken: 2011-12-03 09:26:40
dateupload: 1322984251
tags: basketball kids court children fun kid child play pov grow learn hdr basketballcourt odc ourdailychallenge
license: 0
latitude: 53.546218
longitude: -113.490371
accuracy: 11
views: 81
interestingness: 23 out of 226

photo: 6447325591 3216bd99b5 7148
owner: 43346777@N06
title: Mecury Bay- 16 January 2011
originalsecret: null
originalformat: null
o_height: null
o_width: null
datetaken: 2011-01-16 20:35:57
dateupload: 1322930141
tags: blue sea sky clouds nz
license: 0
latitude: -36.837866
longitude: 175.743827
accuracy: 10
views: 32
interestingness: 24 out of 226

photo: 6463344763 27b88dcb2e 7022
owner: 43188207@N05
title: Fall Elm
originalsecret: b9f61c72ae
originalformat: jpg
o_height: 600
o_width: 1200
datetaken: 2011-10-27 16:31:20
dateupload: 1323137140
tags: california park county ca sunset tree us meadow national valley yosemite backlit elm mariposa cooks
license: 0
latitude: 37.739108
longitude: -119.605139
accuracy: 16
views: 43
interestingness: 25 out of 226

photo: 6448555241 fd201ea651 7162
owner: 44516792@N03
title: OWNIES
originalsecret: 71f96a63e6
originalformat: jpg
o_height: 2504
o_width: 3340
datetaken: 2011-12-03 20:48:07
dateupload: 1322945287
tags: mygearandme
license: 0
latitude: 54.716291
longitude: -5.804557
accuracy: 11
views: 52
interestingness: 26 out of 226

photo: 6475047325 2166c3e571 7032
owner: 27248374@N04
title: Like A Mirage Horizon Tacoma Cargo Appears On The Cook Inlet Waters
originalsecret: a3261d0309
originalformat: jpg
o_height: 2017
o_width: 3233
datetaken: 2011-12-05 12:18:34
dateupload: 1323316793
tags: alaska anchorage outstandingromanianphotographers
license: 0
latitude: 61.203986
longitude: -150.014748
accuracy: 14
views: 64
interestingness: 27 out of 226

photo: 6472105765 e0f5d68b33 7162
owner: 96972102@N00
title: stream in the valley
originalsecret: null
originalformat: null
o_height: null
o_width: null
datetaken: 2011-09-21 13:16:40
dateupload: 1323274073
tags: trees green nature forest river stream poland valley tatry tatra dolinako?cieiska
license: 0
latitude: 49.264051
longitude: 19.868087
accuracy: 16
views: 80
interestingness: 28 out of 226

photo: 6463641209 2a1c215f44 7169
owner: 59101025@N08
title: Cool dudes
originalsecret: null
originalformat: null
o_height: null
o_width: null
datetaken: 2011-12-05 19:36:18
dateupload: 1323140879
tags: 35mm santino arockettothemoon erichalvorsen cooknick timetraveltour bwandrew
license: 0
latitude: 37.860421
longitude: -122.480649
accuracy: 15
views: 248
interestingness: 29 out of 226

photo: 6463638733 0b3fbbc4a2 7161
owner: 51035555243@N01
title: Special Weapons and Tactics, Plate 2
originalsecret: 72fa51d56d
originalformat: jpg
o_height: 2718
o_width: 2718
datetaken: 2009-05-23 10:07:12
dateupload: 1323140846
tags: usa chicago sunglasses illinois cops unitedstates 10 unitedstatesofamerica police parade cop swat memorialday cookcounty chicagoland windycity cpd memorialdayparade fav10 chicagomemorialdayparade chicagopd chicagopoicedepartment
license: 2
latitude: 41.881822
longitude: -87.624434
accuracy: 16
views: 186
interestingness: 30 out of 226

photo: 6459295975 d8d819c0e4 7157
owner: 65357514@N06
title: Cooking Eggs (Part II)
originalsecret: 12594fc8c3
originalformat: jpg
o_height: 3168
o_width: 4752
datetaken: 2011-10-22 10:57:08
dateupload: 1323088266
tags: white macro cooking yellow jaune canon cuisine eos 50mm egg morocco maroc blanc proxy oeuf cuisiner kenko extensiontubes baguesallonge mygearandme
license: 0
latitude: 34.019319
longitude: -6.835956
accuracy: 11
views: 118
interestingness: 31 out of 226

photo: 6450519981 45bb321457 7003
owner: 21930057@N04
title: Leaving Kabul
originalsecret: null
originalformat: null
o_height: null
o_width: null
datetaken: 2011-12-04 08:13:06
dateupload: 1322971986
tags: houses afghanistan cityscape kabul kabulcityscape
license: 0
latitude: 34.519216
longitude: 69.189834
accuracy: 12
views: 71
interestingness: 32 out of 226

photo: 6477596763 f38c03e745 7010
owner: 50086050@N06
title: Macarons
originalsecret: null
originalformat: null
o_height: null
o_width: null
datetaken: 2011-12-03 13:00:48
dateupload: 1323364382
tags: food cooking colors canon dessert cuisine bokeh couleurs packshot 5d subject sujet nourriture f4 miam macarons macaron 105mm appetizing sucr? flickraward app?tissant 5dmarkii ?flickraward5?
license: 0
latitude: 50.647501
longitude: 3.057889
accuracy: 13
views: 37
interestingness: 33 out of 226

photo: 6452241811 d0f6bce7ac 7146
owner: 51035555243@N01
title: Far, Far Away, Plate 3
originalsecret: fd74a6c510
originalformat: jpg
o_height: 3570
o_width: 5355
datetaken: 2009-05-23 05:41:52
dateupload: 1323002118
tags: bw usa chicago architecture illinois unitedstates unitedstatesofamerica marinatowers cookcounty chicagoland windycity bertrandgoldberg
license: 2
latitude: 41.88768
longitude: -87.629564
accuracy: 16
views: 65
interestingness: 34 out of 226

photo: 6433766485 13142f5091 7173
owner: 51038833@N08
title: Hard student Life
originalsecret: 82dc2588f1
originalformat: jpg
o_height: 4322
o_width: 3030
datetaken: 2011-11-30 19:25:23
dateupload: 1322701591
tags: friends food cooking colors amazing nikon shot fisheye greece thessaloniki 8mm hdr studentlife citycollege hoxha rokinon rilind
license: 6
latitude: 40.639537
longitude: 22.941373
accuracy: 14
views: 201
interestingness: 35 out of 226

photo: 6453914591 8fc54b2802 7034
owner: 54236895@N08
title: Home Cooking
originalsecret: null
originalformat: null
o_height: null
o_width: null
datetaken: 2011-12-04 18:40:33
dateupload: 1323021056
tags: ilfordxp2 leicam6 jupiter8 andrewchristanto
license: 0
latitude: 51.685587
longitude: 5.29689
accuracy: 16
views: 89
interestingness: 36 out of 226

photo: 6443053969 bae6d3d6f8 7165
owner: 16272203@N07
title: bbq
originalsecret: 79998c0bf5
originalformat: jpg
o_height: 938
o_width: 1193
datetaken: 2011-12-02 13:54:13
dateupload: 1322855643
tags: christmas uk england food cooking manchester fire market burger stall bbq tamron streetfood 18270mm manchesterthroughmyeyespotd
license: 0
latitude: 53.480938
longitude: -2.243218
accuracy: 15
views: 97
interestingness: 37 out of 226

photo: 6469418777 82874eef02 7174
owner: 41298448@N08
title: Eleanor is cooking
originalsecret: dae5d573ba
originalformat: jpg
o_height: 1280
o_width: 816
datetaken: 2011-12-07 00:06:26
dateupload: 1323226662
tags: leica portrait bw film kitchen zeiss 50mm singapore kodak tmax cook negative 400 eleanor m2 20c planar wy leicam2 carlzeiss tmaxdeveloper kodak400tmax carlzeissplanart250
license: 0
latitude: 1.35002
longitude: 103.749267
accuracy: 11
views: 64
interestingness: 38 out of 226

photo: 6433552497 1bc78c8d9f 7019
owner: 64482733@N02
title: Elizabeth
originalsecret: null
originalformat: null
o_height: null
o_width: null
datetaken: 2010-11-08 14:35:32
dateupload: 1322698371
tags: life california hot sexy love beautiful 50mm nikon bokeh gorgeous malibu intelligent fianc? d700
license: 0
latitude: 34.035306
longitude: -118.696632
accuracy: 11
views: 80
interestingness: 39 out of 226

photo: 6447983313 18a7520ce1 7175
owner: 57953583@N02
title: Ladybower Storm
originalsecret: 061e6c627c
originalformat: jpg
o_height: 4000
o_width: 6000
datetaken: 2011-12-03 15:26:06
dateupload: 1322937980
tags: sunset derbyshire peakdistrict reservoir ladybowerreservoir ladybower dancook sonyslta77 minoltasonyaf20mmf28
license: 4
latitude: 53.375586
longitude: -1.70988
accuracy: 16
views: 59
interestingness: 40 out of 226

photo: 6448358623 9abcc27406 7174
owner: 33561635@N00
title: White and purple carrots
originalsecret: null
originalformat: null
o_height: null
o_width: null
datetaken: 2011-12-03 12:38:27
dateupload: 1322947534
tags: uk england london cooking display market stall vegetable health carrot carrots freshness healthiness purplecarrots whitecarrots marketproduce welcomeuk
license: 0
latitude: 51.505355
longitude: -0.091601
accuracy: 15
views: 53
interestingness: 41 out of 226

photo: 6434596561 b9652873c0 7021
owner: 58036240@N04
title: Shrimp and tomato with linguine
originalsecret: null
originalformat: null
o_height: null
o_width: null
datetaken: 2011-11-15 21:06:54
dateupload: 1322713795
tags: 
license: 0
latitude: 35.069037
longitude: 136.744251
accuracy: 15
views: 48
interestingness: 42 out of 226

photo: 6478750429 2fc1eaf77b 7027
owner: 16750025@N07
title: day 342. 8th dec 2011.
originalsecret: 15101dbf6e
originalformat: jpg
o_height: 3249
o_width: 2081
datetaken: 2011-12-08 22:25:01
dateupload: 1323380346
tags: 3652011
license: 0
latitude: 53.851181
longitude: -1.814849
accuracy: 11
views: 24
interestingness: 43 out of 226

photo: 6470628525 7b7b5df8c3 7004
owner: 46923976@N02
title: Tajiya Misil,
originalsecret: null
originalformat: null
o_height: null
o_width: null
datetaken: 2011-12-06 13:58:27
dateupload: 1323248629
tags: life pink blue red portrait white black green nature yellow canon eos colorful purple faces sony gray magenta surreal ash dhaka vaio rgb karbala bangladesh shiya dlsr vaiolet 60d imamhasan ?gettyimages? ?blackwhite? gettyimagesbangladeshq3? ?framebangladesh? ?incrediblebengal? ashuramoharram imamhossain595036
license: 0
latitude: 23.70678
longitude: 90.398998
accuracy: 11
views: 52
interestingness: 44 out of 226

photo: 6458248973 acb5df1bf8 7143
owner: 27248374@N04
title: Captain Cook Anchorage Alaska
originalsecret: 0ddbdea04c
originalformat: jpg
o_height: 2592
o_width: 3872
datetaken: 2011-12-03 17:41:23
dateupload: 1323068712
tags: alaska anchorage
license: 0
latitude: 61.217637
longitude: -149.900572
accuracy: 16
views: 47
interestingness: 45 out of 226

photo: 6457639879 f9f4bcfa45 7027
owner: 27248374@N04
title: Christmas Gingerbread Village@Captain Cook Hotel Anchorage Alaska
originalsecret: e017d0267e
originalformat: jpg
o_height: 1726
o_width: 3427
datetaken: 2011-12-03 21:00:46
dateupload: 1323059847
tags: alaska anchorage
license: 0
latitude: 61.217629
longitude: -149.900583
accuracy: 16
views: 30
interestingness: 46 out of 226

photo: 6446915197 e9544e0d5b 7029
owner: 8572476@N06
title: Please sir, may I have more
originalsecret: null
originalformat: null
o_height: null
o_width: null
datetaken: 2011-12-03 16:45:30
dateupload: 1322924836
tags: blackandwhite 1 streetphotography 15 delta orphanage every dallah 100? ?ilford ?canon yangonriver ?leica ?summilux stand? stop? hd? f14? m6? ?semi 50mm? ?pushed ?45 ?pyrocat mins? ?agitation 9000f? ?11200? ?vuescan?
license: 0
latitude: 16.75856
longitude: 96.254646
accuracy: 11
views: 48
interestingness: 47 out of 226

photo: 6473056713 7ecef60b0d 7034
owner: 10424498@N03
title: Whats Cooking - Zebra?
originalsecret: 46da102065
originalformat: jpg
o_height: 2207
o_width: 3288
datetaken: 2011-12-04 17:55:05
dateupload: 1323286377
tags: blackandwhite bw black film 35mm 50mm los nikon d g fuerteventura 15 hc110 f100 nikonf100 f hours analogue f18 molinos 20c f50 losmolinos semistand kodakhc110 nikon50mmf18d polypan film:iso=50 polypanf50 fkodak developer:brand=kodak developer:name=kodakhc110 polystarpolypanf film:brand=polystar film:name=polystarpolypanf50 hc110gsemistand1hours20c filmdev:recipe=7112 whitepolystar hc110filmbrandpolystarfilmnamepolystar 50filmiso50developerbrandkodakdevelopernamekodak
license: 0
latitude: 28.545431
longitude: -14.065089
accuracy: 15
views: 33
interestingness: 48 out of 226

photo: 6470628515 7fdb43f8ef 7166
owner: 46923976@N02
title: Grand Ashura day
originalsecret: null
originalformat: null
o_height: null
o_width: null
datetaken: 2011-12-06 13:41:51
dateupload: 1323248569
tags: life pink blue red portrait white black green nature yellow canon eos colorful purple faces sony gray magenta surreal ash dhaka vaio rgb karbala bangladesh shiya dlsr vaiolet 60d imamhasan ?gettyimages? ?blackwhite? gettyimagesbangladeshq3? ?framebangladesh? ?incrediblebengal? ashuramoharram imamhossain595036
license: 0
latitude: 23.708876
longitude: 90.399856
accuracy: 11
views: 38
interestingness: 49 out of 226

photo: 6460263517 453c5e3203 7170
owner: 27228003@N00
title: a scene from the Noryangjin fish market III
originalsecret: 9c8bae094e
originalformat: jpg
o_height: 800
o_width: 785
datetaken: 2011-11-13 22:18:54
dateupload: 1323100725
tags: bw fish fisherman noiretblanc kodak korea 124g seoul seafood tmax400 fishmarket yashicamat noryangjin yashinon75mm
license: 0
latitude: 37.557121
longitude: 126.977378
accuracy: 11
views: 35
interestingness: 50 out of 226

photo: 6466497891 15d8597e06 7017
owner: 53783410@N03
title: Nr Cooks Wharf
originalsecret: e4148e13b8
originalformat: jpg
o_height: 1350
o_width: 2100
datetaken: 2011-12-05 15:46:26
dateupload: 1323188394
tags: brrrrr pentaxoptio pentaxart favesbyotherflickrmembers cookswharf
license: 0
latitude: 51.826599
longitude: -0.6412
accuracy: 11
views: 16
interestingness: 51 out of 226

photo: 6455417065 f51c554f70 7011
owner: 54754281@N04
title: Moving towards Turkey ....!
originalsecret: bcd7d53aa9
originalformat: jpg
o_height: 1880
o_width: 2816
datetaken: 2011-12-04 16:40:36
dateupload: 1323035868
tags: turkey beef ham pork lamb temperature tala brand gauge dec03 dec3 fullcooked scdec scdec03
license: 0
latitude: 50.726779
longitude: -1.16661
accuracy: 11
views: 41
interestingness: 52 out of 226

photo: 6449729457 1b6f8eb06f 7017
owner: 59942143@N02
title: Sunset over Casco Bay
originalsecret: 7491403032
originalformat: jpg
o_height: 768
o_width: 1024
datetaken: 2010-09-17 18:32:10
dateupload: 1322960716
tags: usa maine cascobay cookslobsterhouse
license: 3
latitude: 43.748265
longitude: -69.990549
accuracy: 14
views: 41
interestingness: 53 out of 226

photo: 6449025041 2d29d9532e 7035
owner: 53783410@N03
title: Nr Cooks Wharf
originalsecret: dfcd278e30
originalformat: jpg
o_height: 1364
o_width: 2100
datetaken: 2011-11-20 15:45:47
dateupload: 1322951078
tags: landscape pentaxoptio justpentax pentaxart favesbyotherflickrmembers cookswharf
license: 0
latitude: 51.826599
longitude: -0.6412
accuracy: 11
views: 30
interestingness: 54 out of 226

photo: 6464662725 27d56f49dc 7035
owner: 35664251@N05
title: Pad Prik King Tua
originalsecret: null
originalformat: null
o_height: null
o_width: null
datetaken: 2008-09-20 11:45:59
dateupload: 1323157115
tags: cooking recipe thailand eating thai recipes stirfry thaifood thaicuisine
license: 0
latitude: 18.804918
longitude: 98.964843
accuracy: 10
views: 51
interestingness: 55 out of 226

photo: 6455322733 21c4eb2218 7160
owner: 60144575@N00
title: the view from our room
originalsecret: da0559ff27
originalformat: jpg
o_height: 4251
o_width: 2795
datetaken: 2011-11-15 09:10:01
dateupload: 1323034933
tags: cloud beach skies tulum mangrove circularpolarizer yakutan
license: 0
latitude: 20.206789
longitude: -87.437782
accuracy: 9
views: 30
interestingness: 56 out of 226

photo: 6445898255 85f305e869 7015
owner: 35664251@N05
title: Sichuan Mango Chicken-Szechuan Mango Huhn
originalsecret: null
originalformat: null
o_height: null
o_width: null
datetaken: 2011-11-27 19:35:59
dateupload: 1322906876
tags: cooking recipe essen eating recipes rezepte kochen rezept chinesecuisine chinesischek?che chinesischkochen sichuanmangochicken szechuanmangohuhn sichuanrecipe szechuanrezept
license: 0
latitude: 18.804918
longitude: 98.964843
accuracy: 10
views: 82
interestingness: 57 out of 226

photo: 6476198503 3aca82179b 7011
owner: 46923976@N02
title: Faith
originalsecret: null
originalformat: null
o_height: null
o_width: null
datetaken: 2011-12-06 14:06:19
dateupload: 1323341239
tags: life pink blue red portrait white black green nature yellow canon eos colorful purple faces sony gray magenta surreal ash dhaka vaio rgb bangladesh dlsr vaiolet 60d ?gettyimages? 595036 ?blackwhite? gettyimagesbangladeshq3? ?framebangladesh? ?incrediblebengal?
license: 0
latitude: 23.711181
longitude: 90.404491
accuracy: 11
views: 24
interestingness: 58 out of 226

photo: 6447822619 44e2b208a6 7170
owner: 57953583@N02
title: Ladybower Storm
originalsecret: null
originalformat: null
o_height: null
o_width: null
datetaken: 2011-12-03 15:16:33
dateupload: 1322936024
tags: sunset derbyshire peakdistrict reservoir ladybowerreservoir ladybower dancook dt1680mmf3545za sonyslta77
license: 0
latitude: 53.375869
longitude: -1.709899
accuracy: 16
views: 62
interestingness: 59 out of 226

photo: 6437519603 d53a94028c 7018
owner: 30197725@N06
title: ?????
originalsecret: null
originalformat: null
o_height: null
o_width: null
datetaken: 2011-12-01 15:13:36
dateupload: 1322765513
tags: cooking japan homemade ramen instant junkfood noodle japanesefood champon chanpon instantnoodle localfood 2011
license: 0
latitude: 35.780685
longitude: 139.739089
accuracy: 8
views: 22
interestingness: 60 out of 226

photo: 6464196367 a563765e7c 7003
owner: 27248374@N04
title: Horizon Tacoma In Cook Inlet Alaska
originalsecret: 6dd9fb708b
originalformat: jpg
o_height: 1871
o_width: 2794
datetaken: 2011-12-05 12:27:28
dateupload: 1323148663
tags: alaska anchorage
license: 0
latitude: 61.203573
longitude: -150.013418
accuracy: 14
views: 17
interestingness: 61 out of 226

photo: 6445826787 0873b51f3c 7161
owner: 46527925@N04
title: truita!
originalsecret: ce698eb042
originalformat: jpg
o_height: 612
o_width: 612
datetaken: 2011-12-03 10:40:50
dateupload: 1322905250
tags: food kitchen square fb comida patatas egg cook cocina squareformat onion tortilla potatos huevo omelette cocinar cebolla iphone cocinero iphone4 iphoneography talleda instagram instagramapp uploaded:by=instagram xavitalleda
license: 4
latitude: 41.410121
longitude: 2.134469
accuracy: 16
views: 26
interestingness: 62 out of 226

photo: 6439929501 0a460e6550 7146
owner: 21509490@N04
title: Forever The Sickest Kids
originalsecret: null
originalformat: null
o_height: null
o_width: null
datetaken: 2011-11-29 20:40:13
dateupload: 1322800993
tags: new york city nyc newyorkcity november ny newyork kids austin john kyle jonathan manhattan cook burns timessquare forever caleb sickest bello the 2011 turman nokiatheater nokiatheatre ftsk foreverthesickestkids kyleburns jonathancook austinbello calebturman morphsuit djknucklehead bestbuytheater gyho getyourheartontour
license: 0
latitude: 40.757851
longitude: -73.986493
accuracy: 16
views: 33
interestingness: 63 out of 226

photo: 6471473029 6a6e25bed6 7017
owner: 41298448@N08
title: At that time
originalsecret: 7118e69e08
originalformat: jpg
o_height: 960
o_width: 1280
datetaken: 2011-12-06 23:50:15
dateupload: 1323265424
tags: leica portrait bw reflection film zeiss 50mm mirror singapore kodak tmax cook negative 400 eleanor m2 20c planar wy leicam2 carlzeiss tmaxdeveloper kodak400tmax carlzeissplanart250
license: 0
latitude: 1.35002
longitude: 103.749267
accuracy: 11
views: 38
interestingness: 64 out of 226

photo: 6439927799 5cb674ea97 7035
owner: 21509490@N04
title: Forever The Sickest Kids
originalsecret: null
originalformat: null
o_height: null
o_width: null
datetaken: 2011-11-29 20:41:34
dateupload: 1322800962
tags: new york city nyc newyorkcity november ny newyork kids austin john kyle jonathan manhattan cook burns timessquare forever caleb sickest bello the 2011 turman nokiatheater nokiatheatre ftsk foreverthesickestkids kyleburns jonathancook austinbello calebturman morphsuit djknucklehead bestbuytheater gyho getyourheartontour
license: 0
latitude: 40.757851
longitude: -73.986493
accuracy: 16
views: 28
interestingness: 65 out of 226

photo: 6429933991 2ec41fa445 7144
owner: 56546681@N00
title: Gran
originalsecret: c3a07efb80
originalformat: jpg
o_height: 2561
o_width: 4320
datetaken: 2011-11-22 13:04:43
dateupload: 1323337142
tags: ocean sea mountains plane airplane hotel spain jet lanzarote canarias aeroplane atlantic highrise canaries atlanticocean canaryislands islascanarias arrecife c?sarmanrique granhotel bricheno
license: 0
latitude: 28.957394
longitude: -13.547923
accuracy: 15
views: 14
interestingness: 66 out of 226

photo: 6469552881 48be62151f 7151
owner: 27248374@N04
title: View of Cook Inlet @ Point Woronzof Anchorage Alaska
originalsecret: ba5497f770
originalformat: jpg
o_height: 2592
o_width: 3872
datetaken: 2011-12-05 12:39:40
dateupload: 1323228620
tags: alaska anchorage
license: 0
latitude: 61.201423
longitude: -150.021829
accuracy: 14
views: 20
interestingness: 67 out of 226

photo: 6451559701 06b14fe2d7 7008
owner: 57481642@N03
title: Church of the Good Shepherd
originalsecret: c3bdc1bafb
originalformat: jpg
o_height: 798
o_width: 1200
datetaken: 2011-12-04 16:20:39
dateupload: 1322990439
tags: blue sky lake ancient cook southisland tekapo churchofgoodshepherd
license: 0
latitude: -44.003033
longitude: 170.482152
accuracy: 16
views: 15
interestingness: 68 out of 226

photo: 6445631017 abd2b646a2 7013
owner: 55545780@N03
title: iSweet. 103/365
originalsecret: b5c983f922
originalformat: jpg
o_height: 1380
o_width: 1749
datetaken: 2011-12-03 08:24:07
dateupload: 1322900647
tags: food art cooking lemon colours close tea sweet pudding pastry 365 munch meringue baked iphone
license: 0
latitude: 51.315151
longitude: 0.88804
accuracy: 11
views: 23
interestingness: 69 out of 226

photo: 6437830733 e6f594f382 7171
owner: 53783410@N03
title: Nr Cooks Wharf
originalsecret: 4235ed7e73
originalformat: jpg
o_height: 1900
o_width: 1345
datetaken: 2011-11-20 14:52:29
dateupload: 1322769758
tags: pentaxoptio pentaxart favesbyotherflickrmembers cookswharf
license: 0
latitude: 51.829837
longitude: -0.657463
accuracy: 11
views: 12
interestingness: 70 out of 226

photo: 6471206129 9a3647a996 7174
owner: 47642109@N04
title: Hanging baubels
originalsecret: fcc321bbe3
originalformat: jpg
o_height: 2448
o_width: 3264
datetaken: 2011-12-07 12:21:13
dateupload: 1323260814
tags: flickrandroidapp:filter=none
license: 1
latitude: 53.840466
longitude: -1.516512
accuracy: 16
views: 15
interestingness: 71 out of 226

photo: 6449495467 aae135b55a 7163
owner: 46043340@N08
title: Laufabrau?
originalsecret: ecaf38955c
originalformat: jpg
o_height: 783
o_width: 2292
datetaken: 2011-12-04 00:07:30
dateupload: 1322957477
tags: christmas j?l laufabrau? trypid
license: 0
latitude: 64.140267
longitude: -21.911201
accuracy: 10
views: 27
interestingness: 72 out of 226

photo: 6444119765 f76dfe6019 7009
owner: 44901507@N00
title: John Salerno (1899-1926)
originalsecret: aa6e2c0f78
originalformat: jpg
o_height: 2048
o_width: 2048
datetaken: 2011-12-02 18:20:17
dateupload: 1322871617
tags: cemeteries cemetery ceramics catholic graves pilot cookcounty roaringtwenties deadpeople mountcarmelcemetery hillsideil johnsalerno
license: 3
latitude: 41.865669
longitude: -87.907501
accuracy: 16
views: 26
interestingness: 73 out of 226

photo: 6454314619 345806358e 7012
owner: 7891209@N04
title: Medieval cooking demonstrations
originalsecret: b65c6199c1
originalformat: jpg
o_height: 683
o_width: 1024
datetaken: 2011-12-03 14:25:38
dateupload: 1323025191
tags: xmas cooking weihnachtsmarkt hallesaale xmasmarket kochkunst medievalcooking
license: 1
latitude: 51.481529
longitude: 11.96999
accuracy: 15
views: 15
interestingness: 74 out of 226

photo: 6472229417 b37aa22c11 7174
owner: 53262871@N00
title: Teuton with a Crouton
originalsecret: null
originalformat: null
o_height: null
o_width: null
datetaken: 2011-12-04 18:38:54
dateupload: 1323275613
tags: ohio man guy art bread theater play arms cleveland tattoos actor cuttingboard foodpreparation faketattoos canon28135mmisusm davidbarber clevelandpublictheatre connisavantgarderestaurant mistermesserschmidt
license: 0
latitude: 41.48418
longitude: -81.72982
accuracy: 15
views: 114
interestingness: 75 out of 226

photo: 6459527737 18e854239c 7168
owner: 43662205@N00
title: I'm so hungry
originalsecret: a360d911b9
originalformat: jpg
o_height: 768
o_width: 1024
datetaken: 2011-09-18 05:36:56
dateupload: 1323091768
tags: city food detail reunion horizontal dinner table asian restaurant healthy friend colorful asia display outdoor cook tasty korea clean delicious eat korean seoul meal noodles seafood customer local neat cooked southkorea visual omelette healthyfood foodstall organized gastronomy brochette rool challot
license: 1
latitude: 37.559999
longitude: 126.9785
accuracy: 16
views: 60
interestingness: 76 out of 226

photo: 6444712087 93987203fb 7019
owner: 23684212@N08
title: Cheeky is a Santa's Helper
originalsecret: 233672ccce
originalformat: jpg
o_height: 1025
o_width: 1366
datetaken: 2011-12-03 13:51:14
dateupload: 1322882271
tags: christmas weihnachten advent terrier jackrussell santahelper metznerdog
license: 0
latitude: -33.772338
longitude: 150.990643
accuracy: 16
views: 32
interestingness: 77 out of 226

photo: 6476198515 1fbf9d59fc 7022
owner: 46923976@N02
title: Moharam Misil
originalsecret: null
originalformat: null
o_height: null
o_width: null
datetaken: 2011-12-06 14:11:44
dateupload: 1323341239
tags: life pink blue red portrait white black green nature yellow canon eos colorful purple faces sony gray magenta surreal ash dhaka vaio rgb bangladesh dlsr vaiolet 60d ?gettyimages? 595036 ?blackwhite? gettyimagesbangladeshq3? ?framebangladesh? ?incrediblebengal?
license: 0
latitude: 23.709609
longitude: 90.400485
accuracy: 11
views: 25
interestingness: 78 out of 226

photo: 6476198511 9db1ca41dc 7034
owner: 46923976@N02
title: Celebration 0f ashura
originalsecret: null
originalformat: null
o_height: null
o_width: null
datetaken: 2011-12-06 14:07:33
dateupload: 1323341239
tags: life pink blue red portrait white black green nature yellow canon eos colorful purple faces sony gray magenta surreal ash dhaka vaio rgb bangladesh dlsr vaiolet 60d ?gettyimages? 595036 ?blackwhite? gettyimagesbangladeshq3? ?framebangladesh? ?incrediblebengal?
license: 0
latitude: 23.708561
longitude: 90.401344
accuracy: 11
views: 24
interestingness: 79 out of 226

photo: 6471690715 36f8e25a97 7026
owner: 12188500@N05
title: Guacamole time!
originalsecret: null
originalformat: null
o_height: null
o_width: null
datetaken: 2011-12-07 07:34:38
dateupload: 1323268605
tags: stilllife food cooking botanical avocado availablelight guacamole organic haas avocat
license: 0
latitude: 29.433271
longitude: -98.4908
accuracy: 15
views: 10
interestingness: 80 out of 226

photo: 6453389993 46d52bf8cc 7011
owner: 46891395@N02
title: Red Pepper
originalsecret: null
originalformat: null
o_height: null
o_width: null
datetaken: 2011-11-23 20:08:45
dateupload: 1323015748
tags: red cooking canon french pepper cuisine eos 50mm wooden dof bokeh board knife cook depthoffield cutting 5d f18 ef bois pdc planche cuisiner couteau canonef50mmf18ii cuisinefran?aise dianed
license: 0
latitude: 47.21314
longitude: -1.559067
accuracy: 16
views: 55
interestingness: 81 out of 226

photo: 6434514957 d39cdf54d6 7034
owner: 13559836@N03
title: Onion Volcano
originalsecret: 83335ef910
originalformat: jpg
o_height: 1415
o_width: 1761
datetaken: 2011-11-12 17:47:08
dateupload: 1322712591
tags: japanese restaurant epcot florida cook disney 8mm edo mitsukoshi teppan rokinon
license: 1
latitude: 28.367532
longitude: -81.550676
accuracy: 16
views: 24
interestingness: 82 out of 226

photo: 6465137359 124ec6b378 7022
owner: 23782932@N06
title: Hooker River, Mount Cook National Park
originalsecret: 3b76e0af20
originalformat: jpg
o_height: 1536
o_width: 2048
datetaken: 2008-10-31 12:13:24
dateupload: 1323167121
tags: mountcooknationalpark hookerriver
license: 0
latitude: -43.718264
longitude: 170.107326
accuracy: 11
views: 8
interestingness: 83 out of 226

photo: 6444150997 7e6df1a9d2 7146
owner: 44901507@N00
title: Set
originalsecret: 5442ddb87d
originalformat: jpg
o_height: 1474
o_width: 1457
datetaken: 2011-12-02 18:29:45
dateupload: 1322872185
tags: cemeteries cemetery illinois catholic graves sunsetting cookcounty lateafternoon mountcarmelcemetery hillsideil
license: 3
latitude: 41.865246
longitude: -87.910902
accuracy: 15
views: 19
interestingness: 84 out of 226

photo: 6464480861 8c9c1d693f 7166
owner: 14333842@N07
title: Condor Flugdienst Boeing 757-330 D-ABOF (76839)
originalsecret: null
originalformat: null
o_height: null
o_width: null
datetaken: 2011-11-19 15:10:45
dateupload: 1323153564
tags: cn plane germany airplane geotagged nose deutschland airport nikon raw hessen shot thomas frankfurt aircraft cook aeroporto 330 tug boeing 300 gps d200 condor flughafen airlines tamron flugzeug aeroport aeropuerto tow ?? aereo spotting 757 fra avion transavia 753 846 taxiing ln fraport b757 rheinmain aeroplano eddf twitter cfg 29013 aerotagged luftfahrzeug dabof aero:series=300 aero:man=boeing aero:model=757 goldhofer aero:airport=eddf aero:airline=cfg 010702 111119 towbarless ast1 130399 aoka 280504 aviationphoto flugdienst geo:lat=50039523 geo:lon=8596970 70300vc aero:tail=dabof 290199 ak4n
license: 0
latitude: 50.039333
longitude: 8.596666
accuracy: 16
views: 39
interestingness: 85 out of 226

photo: 6437220275 bec8c3bd0e 7143
owner: 35053960@N08
title: MEAT!
originalsecret: null
originalformat: null
o_height: null
o_width: null
datetaken: 2011-11-26 10:09:23
dateupload: 1322761387
tags: cooking europe poland krakow christmasmarket steam sausages kiosk oldcity hocks
license: 0
latitude: 50.0578
longitude: 19.943962
accuracy: 11
views: 24
interestingness: 86 out of 226

photo: 6478386395 bf9475ea39 7171
owner: 31789733@N02
title: The Star of the Night || Mount Cook, New Zealand
originalsecret: null
originalformat: null
o_height: null
o_width: null
datetaken: 2011-12-08 20:15:20
dateupload: 1323375454
tags: canon sigma 1020 500d
license: 0
latitude: -43.748281
longitude: 170.144405
accuracy: 11
views: 18
interestingness: 87 out of 226

photo: 6467517511 dfc69f7443 7173
owner: 74069397@N00
title: Baked Apricot & Pecan Sourdough Bread Stuffing
originalsecret: null
originalformat: null
o_height: null
o_width: null
datetaken: 2011-12-04 17:07:59
dateupload: 1323200861
tags: thanksgiving autumn food bread stuffing recipe holidays dish side dressing apricot pecan sourdough
license: 0
latitude: 37.011839
longitude: -121.589298
accuracy: 13
views: 45
interestingness: 88 out of 226

photo: 6476198517 b2b96aa36b 7167
owner: 46923976@N02
title: Tajiya _Ashura
originalsecret: null
originalformat: null
o_height: null
o_width: null
datetaken: 2011-12-06 14:26:21
dateupload: 1323341239
tags: life pink blue red portrait white black green nature yellow canon eos colorful purple faces sony gray magenta surreal ash dhaka vaio rgb bangladesh dlsr vaiolet 60d ?gettyimages? 595036 ?blackwhite? gettyimagesbangladeshq3? ?framebangladesh? ?incrediblebengal?
license: 0
latitude: 23.708038
longitude: 90.400485
accuracy: 11
views: 30
interestingness: 89 out of 226

photo: 6470628499 35c9391c0f 7001
owner: 46923976@N02
title: Moharram Meet,
originalsecret: null
originalformat: null
o_height: null
o_width: null
datetaken: 2011-12-06 13:33:46
dateupload: 1323248628
tags: life pink blue red portrait white black green nature yellow canon eos colorful purple faces sony gray magenta surreal ash dhaka vaio rgb karbala bangladesh shiya dlsr vaiolet 60d imamhasan ?gettyimages? ?blackwhite? gettyimagesbangladeshq3? ?framebangladesh? ?incrediblebengal? ashuramoharram imamhossain595036
license: 0
latitude: 23.710448
longitude: 90.401
accuracy: 11
views: 12
interestingness: 90 out of 226

photo: 6460210291 8e78c634ea 7144
owner: 30197725@N06
title: ????
originalsecret: null
originalformat: null
o_height: null
o_width: null
datetaken: 2011-12-05 19:23:31
dateupload: 1323100134
tags: fish home cooking japan homemade japanesefood japaneseradish 2011 sandfish ????
license: 0
latitude: 35.803706
longitude: 139.732086
accuracy: 7
views: 4
interestingness: 91 out of 226

photo: 6448089877 3b0b606f5d 7013
owner: 57953583@N02
title: Ladybower Storm
originalsecret: 568cb08cc5
originalformat: jpg
o_height: 4000
o_width: 6000
datetaken: 2011-12-03 15:34:01
dateupload: 1322939325
tags: sunset derbyshire peakdistrict reservoir ladybowerreservoir ladybower dancook dt50mmf18sam sonyslta77
license: 4
latitude: 53.374754
longitude: -1.708638
accuracy: 16
views: 9
interestingness: 92 out of 226

photo: 6441778801 cb14f1340a 7012
owner: 43413480@N07
title: Lago Trasimeno.
originalsecret: null
originalformat: null
o_height: null
o_width: null
datetaken: 2009-07-19 13:04:17
dateupload: 1322838263
tags: italy italia 2009 umbria passignanosultrasimeno motorhometravel liamcheasty hymertheodysseyino lagotrasimino
license: 0
latitude: 43.184311
longitude: 12.141973
accuracy: 16
views: 21
interestingness: 93 out of 226

photo: 6474261147 330eac6acd 7141
owner: 36524915@N05
title: Farmhouse Kitchen
originalsecret: null
originalformat: null
o_height: null
o_width: null
datetaken: 2007-12-14 06:05:45
dateupload: 1323303787
tags: africa road old travel cooking kitchen farmhouse vintage southafrica desert antique farm african empty roadtrip retro cape charming westerncape jagersberg
license: 0
latitude: -29.983486
longitude: 22.038574
accuracy: 7
views: 8
interestingness: 94 out of 226

photo: 6456724347 2e1b17e03d 7016
owner: 40964542@N08
title: bread and onion soup
originalsecret: 87ee2818a7
originalformat: jpg
o_height: 1156
o_width: 1612
datetaken: 2011-12-04 20:14:47
dateupload: 1323049591
tags: bread butter lentils berbere jarlsberg crushedredpepper essentialpepin jaquespepin
license: 0
latitude: 46.358746
longitude: -94.203386
accuracy: 14
views: 108
interestingness: 95 out of 226

photo: 6453987061 c47ac346d6 7027
owner: 67151927@N00
title: (324/358)
originalsecret: a11d81fc7f
originalformat: jpg
o_height: 728
o_width: 1092
datetaken: 2011-11-28 18:42:33
dateupload: 1323021782
tags: life winter food me its minnesota cheese canon stuffed rice eggplant treats 14 tomatoes like lot days delicious indoors be what 5d veggies eats bryant 50 cilantro ef scannell nom sustance venesin
license: 0
latitude: 45.030832
longitude: -93.360443
accuracy: 11
views: 44
interestingness: 96 out of 226

photo: 6447898953 eaa7b36d7e 7013
owner: 57953583@N02
title: Ladybower Storm
originalsecret: f6aa6e239b
originalformat: jpg
o_height: 4000
o_width: 6000
datetaken: 2011-12-03 15:21:24
dateupload: 1322936961
tags: sunset derbyshire peakdistrict reservoir ladybowerreservoir ladybower dancook sonyslta77 minoltasonyaf20mmf28
license: 4
latitude: 53.375878
longitude: -1.709835
accuracy: 16
views: 60
interestingness: 97 out of 226

photo: 6440832535 40c812ce52 7151
owner: 18367802@N00
title: Cocktails in the sun
originalsecret: b3322e1031
originalformat: jpg
o_height: 4000
o_width: 3000
datetaken: 2011-10-29 15:51:35
dateupload: 1322820833
tags: sea water pacific lagoon cookislands cocktails aitutaki gf1 lumixg14f25
license: 1
latitude: -18.850834
longitude: -159.758834
accuracy: 16
views: 52
interestingness: 98 out of 226

photo: 6476995699 77fdf6f642 7148
owner: 60667578@N07
title: The Big Lemon M751 LAX
originalsecret: a93621c60b
originalformat: jpg
o_height: 3240
o_width: 4320
datetaken: 2011-12-07 14:00:16
dateupload: 1323355905
tags: wood bus cooking buses court sussex volvo big coach lemon brighton university south ps oil runs alexander waste fuel coaches lewes stagecoach the b10m m751lax
license: 0
latitude: 50.870869
longitude: -0.088663
accuracy: 13
views: 24
interestingness: 99 out of 226

photo: 6465525775 cc24b370e1 7170
owner: 59634427@N06
title: Bak Kut Teh - Chinese Herbal Broth with Pork Ribs ???
originalsecret: 23bd68986a
originalformat: jpg
o_height: 800
o_width: 533
datetaken: 2011-12-06 16:54:48
dateupload: 1323174972
tags: pork savoury foodphotography bakkutteh foodstyling malaysiancuisine maindishes malaysianrecipes malaysianchinesecuisine smokywok porkribsinchineseherbalbroth famousmalaysianstreetfood
license: 0
latitude: 3.12916
longitude: 101.664433
accuracy: 13
views: 81
interestingness: 100 out of 226

photo: 6452452693 71a7dabe32 7146
owner: 35295797@N02
title: Cook of Indian curry shop
originalsecret: a0d7fe4eeb
originalformat: jpg
o_height: 1674
o_width: 2500
datetaken: 2011-12-04 18:03:45
dateupload: 1323004990
tags: 1 nikkor 10mm128
license: 0
latitude: 28.643999
longitude: 77.091003
accuracy: 5
views: 31
interestingness: 101 out of 226

photo: 6444875743 d882183a1c 7171
owner: 57688684@N02
title: 336/365 secretsanta
originalsecret: null
originalformat: null
o_height: null
o_width: null
datetaken: 2011-12-02 23:19:02
dateupload: 1322885106
tags: santa christmas tree dave canon project aj book pig photo beans team princess secret cristina hula flamingo cook coke carlos dancer gift present jelly pinata joanna cocacola 365 alejandro elisa lorna global pi?ata photoproject brustein 50d threesixfive
license: 0
latitude: 33.824085
longitude: -84.4198
accuracy: 16
views: 41
interestingness: 102 out of 226

photo: 6464470583 3147cfdb58 7008
owner: 14333842@N07
title: Condor Flugdienst Boeing 757-330 D-ABOF (76829)
originalsecret: null
originalformat: null
o_height: null
o_width: null
datetaken: 2011-11-19 15:10:37
dateupload: 1323153383
tags: cn plane germany airplane deutschland airport nikon raw hessen thomas frankfurt aircraft cook aeroporto 330 tug boeing 300 gps d200 condor flughafen aviao airlines tamron flugzeug aeroport aeropuerto tow ?? aereo spotting 757 fra avion transavia 753 846 ln fraport b757 rheinmain aeroplano eddf samolot cfg 29013 aerotagged luftfahrzeug dabof ???????? aero:series=300 aero:man=boeing aero:model=757 goldhofer aero:airport=eddf aero:airline=cfg 010702 111119 190503 towbarless ast1 130399 aoka 280504 aviationphoto 301003 flugdienst geo:lat=50039523 geo:lon=8596970 70300vc aero:tail=dabof 290199 ak4n taxiinggeotagged
license: 0
latitude: 50.039333
longitude: 8.596666
accuracy: 16
views: 20
interestingness: 103 out of 226

photo: 6451968315 27d8ec30a8 7004
owner: 84313107@N00
title: Hitting The Jackpot
originalsecret: null
originalformat: null
o_height: null
o_width: null
datetaken: 2011-12-03 13:11:26
dateupload: 1322997924
tags: road blue red white lake chicago station lights illinois big power loop timber district authority union north tracks engine rail transportation transit fox milwaukee service locomotive passenger elgin theloop division mass metra haymarket regional mdw concourse cookcounty mdn idling rta emd 614 f40c electromotive sixaxle metx edwardfbrabec
license: 0
latitude: 41.880585
longitude: -87.638969
accuracy: 16
views: 30
interestingness: 104 out of 226

photo: 6444288601 2443f0d29a 7154
owner: 96449403@N00
title: Dinner at MBC
originalsecret: 6cddbc5fb0
originalformat: jpg
o_height: 598
o_width: 900
datetaken: 2011-12-02 17:12:19
dateupload: 1322874739
tags: travel nepal mountain dinner trekking trek walking landscape hiking walk cook hike explore himalaya annapurna sanctuary prepare
license: 0
latitude: 28.451185
longitude: 84.001808
accuracy: 12
views: 7
interestingness: 105 out of 226

photo: 6459584159 ce63081ed4 7150
owner: 60268072@N08
title: ??? braised eel with rice in claypot
originalsecret: null
originalformat: null
o_height: null
o_width: null
datetaken: 2011-12-01 12:21:25
dateupload: 1323092556
tags: food cooking hongkong yummy rice chinese claypot ???
license: 0
latitude: 22.300373
longitude: 114.168891
accuracy: 11
views: 11
interestingness: 106 out of 226

photo: 6452771047 3111764f71 7007
owner: 57953583@N02
title: 
originalsecret: 27860fd704
originalformat: jpg
o_height: 4000
o_width: 6000
datetaken: 2011-12-03 15:15:30
dateupload: 1323009045
tags: dancook dt1680mmf3545za
license: 4
latitude: 53.375738
longitude: -1.710008
accuracy: 16
views: 5
interestingness: 107 out of 226

photo: 6448019217 f3d34dc2f0 7149
owner: 57953583@N02
title: Ladybower Storm
originalsecret: 9ba217b713
originalformat: jpg
o_height: 4000
o_width: 6000
datetaken: 2011-12-03 15:33:29
dateupload: 1322938433
tags: sunset derbyshire peakdistrict reservoir ladybowerreservoir ladybower dancook dt50mmf18sam sonyslta77
license: 4
latitude: 53.374798
longitude: -1.708735
accuracy: 16
views: 6
interestingness: 108 out of 226

photo: 6467684863 13e2f6ec7f 7034
owner: 14333842@N07
title: Condor Flugdienst Boeing 757-330 D-ABOF (76847)
originalsecret: null
originalformat: null
o_height: null
o_width: null
datetaken: 2011-11-19 15:10:59
dateupload: 1323202916
tags: cn plane germany airplane geotagged nose deutschland airport nikon raw hessen shot thomas frankfurt aircraft cook aeroporto 330 tug boeing 300 gps d200 condor flughafen aviao airlines tamron flugzeug aeroport aeropuerto tow ?? spotting 757 fra avion transavia 753 846 taxiing ln fraport b757 rheinmain eddf samolot cfg 29013 aerotagged dabof ???????? aero:series=300 aero:man=boeing aero:model=757 goldhofer aero:airport=eddf aero:airline=cfg 010702 111119 190503 towbarless ast1 130399 aoka 280504 aviationphoto 301003 flugdienst geo:lat=50039523 geo:lon=8596970 70300vc aero:tail=dabof 290199 ak4n
license: 0
latitude: 50.039333
longitude: 8.596666
accuracy: 16
views: 26
interestingness: 109 out of 226

photo: 6466192109 4ca3381ed7 7032
owner: 30197725@N06
title: ????
originalsecret: null
originalformat: null
o_height: null
o_width: null
datetaken: 2011-12-06 19:29:37
dateupload: 1323184694
tags: home cooking homemade noodle yakisoba 2011 friednoodle panfriednoodle
license: 0
latitude: 35.810388
longitude: 139.732086
accuracy: 7
views: 9
interestingness: 110 out of 226

photo: 6465115023 6450498487 7168
owner: 31642162@N06
title: Green Bean Casserole Grandma's Cooking Christmas Ornament
originalsecret: null
originalformat: null
o_height: null
o_width: null
datetaken: 2011-12-04 12:22:16
dateupload: 1323166646
tags: christmas food holiday cooking ornament
license: 0
latitude: 39.601059
longitude: -74.349975
accuracy: 11
views: 15
interestingness: 111 out of 226

photo: 6457286559 4bacee5dcb 7029
owner: 35664251@N05
title: Sichuan (Szechuan) Chili Paste
originalsecret: null
originalformat: null
o_height: null
o_width: null
datetaken: 2011-07-13 18:07:49
dateupload: 1323055701
tags: cooking recipe essen eating szechuan recipes sichuan chilipaste kochen pastes szechuancuisine sichuancuisine chineserecipes pasten chinesischerezepte pastemaking szechuank?che chiliknoblauchpaste
license: 0
latitude: 18.804918
longitude: 98.964843
accuracy: 10
views: 48
interestingness: 112 out of 226

photo: 6464395701 c3089217b8 7153
owner: 58036240@N04
title: Pork loin saute
originalsecret: null
originalformat: null
o_height: null
o_width: null
datetaken: 2011-11-16 20:26:00
dateupload: 1323152097
tags: 
license: 0
latitude: 35.068941
longitude: 136.744143
accuracy: 15
views: 23
interestingness: 113 out of 226

photo: 6444693003 61f5bde14a 7019
owner: 42483420@N00
title: 335/i365: kitchening
originalsecret: null
originalformat: null
o_height: null
o_width: null
datetaken: 2011-12-02 12:18:16
dateupload: 1322881959
tags: cooking apron spatula iphone i365 aoartmentlife
license: 0
latitude: 21.295879
longitude: -157.846977
accuracy: 16
views: 71
interestingness: 114 out of 226

photo: 6437866263 6740a9bd56 7016
owner: 54167673@N08
title: Cook Inside
originalsecret: null
originalformat: null
o_height: null
o_width: null
datetaken: 2011-12-01 17:12:36
dateupload: 1322770241
tags: 
license: 0
latitude: 50.884409
longitude: -0.30693
accuracy: 10
views: 8
interestingness: 115 out of 226

photo: 6434302125 703bc67863 7155
owner: 84071758@N00
title: Mays - 365 Day 324
originalsecret: null
originalformat: null
o_height: null
o_width: null
datetaken: 2011-11-24 17:21:58
dateupload: 1322709487
tags: thanksgiving portrait smile parents couple id idaho boise laugh 365project
license: 0
latitude: 43.605131
longitude: -116.194152
accuracy: 11
views: 64
interestingness: 116 out of 226

photo: 6437872703 52ec386def 7166
owner: 49432141@N00
title: 136/365 find the fish
originalsecret: 8a19d0d6b0
originalformat: jpg
o_height: 2592
o_width: 3872
datetaken: 2011-12-01 19:01:28
dateupload: 1322770337
tags: fish cooking oven python fishy project365
license: 1
latitude: 51.428176
longitude: -0.156705
accuracy: 16
views: 34
interestingness: 117 out of 226

photo: 6443476979 2ff81aa4d7 7032
owner: 11691438@N07
title: Cartagena
originalsecret: 79f8d8ea43
originalformat: jpg
o_height: 676
o_width: 1010
datetaken: 2011-10-19 14:29:39
dateupload: 1322861626
tags: break baker cigarette smoke cook chef takeabreak lucianlanteri
license: 0
latitude: 37.60675
longitude: -0.98776
accuracy: 11
views: 120
interestingness: 118 out of 226

photo: 6441662781 559be92908 7031
owner: 51035555243@N01
title: Pastoral
originalsecret: f3ac1594d5
originalformat: jpg
o_height: 3029
o_width: 3971
datetaken: 2009-05-23 12:03:56
dateupload: 1322836618
tags: usa chicago museum painting illinois unitedstates unitedstatesofamerica artinstituteofchicago artinstitute cookcounty paradisevalley chicagoland chicagoartinstitute windycity artinstitutechicago johnlafarge otherkeywords
license: 2
latitude: 41.881077
longitude: -87.623912
accuracy: 16
views: 47
interestingness: 119 out of 226

photo: 6470401849 d97d13d452 7161
owner: 16057556@N07
title: G-FCLB - 1997 build Boeing B757-28A, holding short of Runway 23R
originalsecret: null
originalformat: null
o_height: null
o_width: null
datetaken: 2011-11-30 10:09:30
dateupload: 1323243603
tags: man manchester rollsroyce boeing ringway thomascook b757 egcc 28164 b75728a gfclb
license: 0
latitude: 53.354547
longitude: -2.263526
accuracy: 12
views: 5
interestingness: 120 out of 226

photo: 6470320163 42e532dd81 7011
owner: 16057556@N07
title: G-TCCA - 1994 build Boeing B767-31KER, lining up on Runway 23R
originalsecret: null
originalformat: null
o_height: null
o_width: null
datetaken: 2011-11-30 09:53:21
dateupload: 1323241797
tags: man manchester boeing ringway thomascook b767 egcc b767300 gsjmc gtcca b76731k
license: 0
latitude: 53.354547
longitude: -2.263526
accuracy: 12
views: 5
interestingness: 121 out of 226

photo: 6464432417 fe9e6b6eaa 7161
owner: 14333842@N07
title: Condor Flugdienst Boeing 757-330 D-ABOF (76829)
originalsecret: null
originalformat: null
o_height: null
o_width: null
datetaken: 2011-11-19 15:10:27
dateupload: 1323152729
tags: cn plane germany airplane deutschland airport nikon raw hessen thomas frankfurt aircraft cook aeroporto 330 tug boeing 300 gps d200 condor flughafen aviao airlines tamron flugzeug aeroport aeropuerto tow ?? aereo spotting 757 fra avion transavia 753 846 ln fraport b757 rheinmain aeroplano eddf samolot cfg 29013 aerotagged luftfahrzeug dabof ???????? aero:series=300 aero:man=boeing aero:model=757 goldhofer aero:airport=eddf aero:airline=cfg 010702 111119 190503 towbarless ast1 130399 aoka 280504 aviationphoto 301003 flugdienst geo:lat=50039523 geo:lon=8596970 70300vc aero:tail=dabof 290199 ak4n taxiinggeotagged
license: 0
latitude: 50.039333
longitude: 8.596666
accuracy: 16
views: 25
interestingness: 122 out of 226

photo: 6459714819 6ca7e64201 7175
owner: 35338269@N00
title: Taekwondo 148
originalsecret: null
originalformat: null
o_height: null
o_width: null
datetaken: 2011-12-04 16:57:19
dateupload: 1323094293
tags: london aaron cook taekwondo wtf excel prepares london2012 yousef karami btcb
license: 0
latitude: 51.507887
longitude: 0.029976
accuracy: 14
views: 32
interestingness: 123 out of 226

photo: 6459713603 74d6a6df84 7022
owner: 35338269@N00
title: Taekwondo 147
originalsecret: null
originalformat: null
o_height: null
o_width: null
datetaken: 2011-12-04 16:57:19
dateupload: 1323094277
tags: london aaron cook taekwondo wtf excel prepares london2012 yousef karami btcb
license: 0
latitude: 51.507887
longitude: 0.029976
accuracy: 14
views: 32
interestingness: 124 out of 226

photo: 6456429253 418135a614 7028
owner: 43489439@N00
title: Drivetime, Tom Armitage & Blaine Cook & Tom Taylor
originalsecret: a78c0431f4
originalformat: jpg
o_height: 2848
o_width: 4288
datetaken: 2011-12-04 12:00:47
dateupload: 1323046287
tags: london 2011 musichackday
license: 4
latitude: 51.519999
longitude: -0.094048
accuracy: 15
views: 26
interestingness: 125 out of 226

photo: 6453991483 000dbf1118 7163
owner: 67151927@N00
title: (328/358)
originalsecret: 7586d47165
originalformat: jpg
o_height: 794
o_width: 1147
datetaken: 2011-12-02 19:38:29
dateupload: 1323021827
tags: life winter me its minnesota canon 14 like lot days indoors be what 5d bryant 50 ef scannell
license: 0
latitude: 45.030711
longitude: -93.360099
accuracy: 11
views: 45
interestingness: 126 out of 226

photo: 6453990567 3677ff1552 7035
owner: 67151927@N00
title: (328/358)
originalsecret: 44bb2405e9
originalformat: jpg
o_height: 687
o_width: 1031
datetaken: 2011-12-02 19:21:24
dateupload: 1323021817
tags: life winter food black me its minnesota cheese dinner canon sauce burger treats 14 shaved nuts like lot bbq bean days delicious indoors pineapple be eggs what 5d carrots veggie cooked eats bryant melted 50 ef bun flax scannell nutritious nom burber sustance friedup
license: 0
latitude: 45.031075
longitude: -93.359756
accuracy: 11
views: 39
interestingness: 127 out of 226

photo: 6453947793 c0f1c35840 7171
owner: 23434307@N02
title: DC/DBR quad combo
originalsecret: null
originalformat: null
o_height: null
o_width: null
datetaken: 2011-11-11 02:25:41
dateupload: 1323021395
tags: 
license: 0
latitude: -41.175359
longitude: 174.82707
accuracy: 15
views: 15
interestingness: 128 out of 226

photo: 6450274655 9fd2e8e8eb 7147
owner: 21509490@N04
title: Forever The Sickest Kids
originalsecret: null
originalformat: null
o_height: null
o_width: null
datetaken: 2011-11-30 01:32:28
dateupload: 1322968646
tags: new york city nyc newyorkcity november ny newyork kids austin john kyle jonathan manhattan cook ak burns forever caleb afterparty sickest bello the 2011 turman bromance ftsk foreverthesickestkids kyleburns angelsandkings angelskings jonathancook austinbello calebturman djknucklehead gyho getyourheartontour
license: 0
latitude: 40.72825
longitude: -73.981021
accuracy: 16
views: 26
interestingness: 129 out of 226

photo: 6440762871 b64a2cfccf 7164
owner: 75408638@N00
title: Cooked breakfast - in economy!
originalsecret: 47b2890d8c
originalformat: jpg
o_height: 2448
o_width: 3264
datetaken: 2011-12-02 07:34:28
dateupload: 1322819045
tags: city travel london fly flying nice transport flight transit ba britishairways embraer lcy nce cityflyer 190sr
license: 3
latitude: 43.738731
longitude: 6.895294
accuracy: 11
views: 26
interestingness: 130 out of 226

photo: 6435457523 39bcbe68d7 7149
owner: 55935853@N00
title: Maggie's, Lewisham, London
originalsecret: 50dbc366fb
originalformat: jpg
o_height: 2520
o_width: 3776
datetaken: 2011-11-18 09:19:43
dateupload: 1322731729
tags: england food london breakfast mushrooms bacon lewisham bakedbeans maggies hashbrowns blackpudding poachedegg se13 grilledtomatoes lewishamroad londonboroughoflewisham
license: 5
latitude: 51.465571
longitude: -0.011254
accuracy: 16
views: 12
interestingness: 131 out of 226

photo: 6479205373 9cc43d997b 7171
owner: 27761929@N04
title: 
originalsecret: null
originalformat: null
o_height: null
o_width: null
datetaken: 2011-03-18 11:21:01
dateupload: 1323387206
tags: blackandwhite bw panorama mountains ice alaska ak panoramic hazy turnagainarm cookinlet foggysnow
license: 0
latitude: 60.98664
longitude: -149.512741
accuracy: 11
views: 4
interestingness: 132 out of 226

photo: 6466888617 33057ec4f4 7143
owner: 32149255@N04
title: Christmas is coming.......
originalsecret: 0596c8efb0
originalformat: jpg
o_height: 2805
o_width: 1863
datetaken: 2011-12-02 22:33:48
dateupload: 1323193480
tags: pink food white cooking stars baking gingerbread homemade icing biscuits drizzle charlottehbest
license: 0
latitude: 52.194443
longitude: -1.724005
accuracy: 15
views: 16
interestingness: 133 out of 226

photo: 6464784069 e74be9257e 7010
owner: 7133314@N03
title: Menor's Ferry General Store
originalsecret: null
originalformat: null
o_height: null
o_width: null
datetaken: 2011-09-27 11:07:11
dateupload: 1323159548
tags: wyoming grandtetonnationalpark gtnp tetoncounty canon24105mm canon5dmarkii menorsferryhistoricdistrict billmenorcabinstore ferryranchstore menorsferrygeneralstore
license: 0
latitude: 43.659206
longitude: -110.712219
accuracy: 16
views: 25
interestingness: 134 out of 226

photo: 6464781991 76cca6fcb1 7145
owner: 59758788@N02
title: HMB Endeavour replica
originalsecret: ecba0e194e
originalformat: jpg
o_height: 1917
o_width: 2102
datetaken: 2011-12-04 10:00:26
dateupload: 1323159507
tags: james cook tall fremantle endeavour shipscaptain
license: 0
latitude: -32.053453
longitude: 115.740816
accuracy: 15
views: 5
interestingness: 135 out of 226

photo: 6439730257 1772fb0f3e 7145
owner: 59989559@N03
title: No_BBQ_No_Shirt-0f4
originalsecret: 5cb102d484
originalformat: jpg
o_height: 2373
o_width: 2973
datetaken: 2011-12-01 18:53:34
dateupload: 1322797693
tags: winter signs sign canon buildings streetscene hdr westyellowstone eos40d
license: 0
latitude: 44.66098
longitude: -111.099398
accuracy: 16
views: 26
interestingness: 136 out of 226

photo: 6439112071 b793607371 7168
owner: 44901507@N00
title: Altenheim Retirement Community
originalsecret: 3397691fa8
originalformat: jpg
o_height: 2048
o_width: 2048
datetaken: 2011-12-01 13:56:44
dateupload: 1322769404
tags: illinois forestpark cookcounty altenheimoldpeopleshome altenheimretirementcommunity
license: 0
latitude: 41.876555
longitude: -87.819943
accuracy: 16
views: 21
interestingness: 137 out of 226

photo: 6438823777 fca1fc98ef 7002
owner: 47061356@N02
title: 20111201_F0001_2400: Fusion sushi
originalsecret: e84046015e
originalformat: jpg
o_height: 1600
o_width: 2400
datetaken: 2011-11-25 20:31:38
dateupload: 1322782920
tags: food fish cooking sushi cuisine contemporary salmon plate bowl tempura fusion wasabi tuna soyasauce
license: 0
latitude: 51.282252
longitude: 1.076982
accuracy: 15
views: 30
interestingness: 138 out of 226

photo: 6460209245 122de25998 7034
owner: 30197725@N06
title: ????
originalsecret: null
originalformat: null
o_height: null
o_width: null
datetaken: 2011-12-05 19:56:18
dateupload: 1323100122
tags: food fish cooking japan japanesefood 2011 sandfish ????
license: 0
latitude: 35.797023
longitude: 139.732086
accuracy: 7
views: 13
interestingness: 139 out of 226

photo: 6459715867 95461dcb22 7150
owner: 35338269@N00
title: Taekwondo 149
originalsecret: null
originalformat: null
o_height: null
o_width: null
datetaken: 2011-12-04 16:57:19
dateupload: 1323094308
tags: london aaron cook taekwondo wtf excel prepares london2012 yousef karami btcb
license: 0
latitude: 51.507887
longitude: 0.029976
accuracy: 14
views: 41
interestingness: 140 out of 226

photo: 6459712581 8b391379e6 7158
owner: 35338269@N00
title: Taekwondo 146
originalsecret: null
originalformat: null
o_height: null
o_width: null
datetaken: 2011-12-04 16:56:33
dateupload: 1323094262
tags: london aaron cook taekwondo wtf excel prepares london2012 yousef karami btcb
license: 0
latitude: 51.507887
longitude: 0.029976
accuracy: 14
views: 27
interestingness: 141 out of 226

photo: 6459711561 c91d9db3e3 7144
owner: 35338269@N00
title: Taekwondo 145
originalsecret: null
originalformat: null
o_height: null
o_width: null
datetaken: 2011-12-04 16:56:21
dateupload: 1323094248
tags: london aaron cook taekwondo wtf excel prepares london2012 yousef karami btcb
license: 0
latitude: 51.507887
longitude: 0.029976
accuracy: 14
views: 28
interestingness: 142 out of 226

photo: 6459710503 9cce5e9d7c 7171
owner: 35338269@N00
title: Taekwondo 144
originalsecret: null
originalformat: null
o_height: null
o_width: null
datetaken: 2011-12-04 16:55:28
dateupload: 1323094233
tags: london aaron cook taekwondo wtf excel prepares london2012 yousef karami btcb
license: 0
latitude: 51.507887
longitude: 0.029976
accuracy: 14
views: 28
interestingness: 143 out of 226

photo: 6459709359 c712aa8e94 7170
owner: 35338269@N00
title: Taekwondo 143
originalsecret: null
originalformat: null
o_height: null
o_width: null
datetaken: 2011-12-04 16:55:28
dateupload: 1323094218
tags: london aaron cook taekwondo wtf excel prepares london2012 yousef karami btcb
license: 0
latitude: 51.507887
longitude: 0.029976
accuracy: 14
views: 29
interestingness: 144 out of 226

photo: 6459708127 e2705cf311 7023
owner: 35338269@N00
title: Taekwondo 142
originalsecret: null
originalformat: null
o_height: null
o_width: null
datetaken: 2011-12-04 16:55:28
dateupload: 1323094202
tags: london aaron cook taekwondo wtf excel prepares london2012 yousef karami btcb
license: 0
latitude: 51.507887
longitude: 0.029976
accuracy: 14
views: 26
interestingness: 145 out of 226

photo: 6459706933 b988781bea 7143
owner: 35338269@N00
title: Taekwondo 141
originalsecret: null
originalformat: null
o_height: null
o_width: null
datetaken: 2011-12-04 16:55:27
dateupload: 1323094186
tags: london aaron cook taekwondo wtf excel prepares london2012 yousef karami btcb
license: 0
latitude: 51.507887
longitude: 0.029976
accuracy: 14
views: 22
interestingness: 146 out of 226

photo: 6459705823 149275783b 7033
owner: 35338269@N00
title: Taekwondo 140
originalsecret: null
originalformat: null
o_height: null
o_width: null
datetaken: 2011-12-04 16:55:25
dateupload: 1323094171
tags: london aaron cook taekwondo wtf excel prepares london2012 yousef karami btcb
license: 0
latitude: 51.507887
longitude: 0.029976
accuracy: 14
views: 22
interestingness: 147 out of 226

photo: 6459704817 f72fb67f41 7026
owner: 35338269@N00
title: Taekwondo 139
originalsecret: null
originalformat: null
o_height: null
o_width: null
datetaken: 2011-12-04 16:55:24
dateupload: 1323094158
tags: london aaron cook taekwondo wtf excel prepares london2012 yousef karami btcb
license: 0
latitude: 51.507887
longitude: 0.029976
accuracy: 14
views: 17
interestingness: 148 out of 226

photo: 6459703669 9c8dd4f348 7032
owner: 35338269@N00
title: Taekwondo 138
originalsecret: null
originalformat: null
o_height: null
o_width: null
datetaken: 2011-12-04 16:54:08
dateupload: 1323094144
tags: london aaron cook taekwondo wtf excel prepares london2012 yousef karami btcb
license: 0
latitude: 51.507887
longitude: 0.029976
accuracy: 14
views: 18
interestingness: 149 out of 226

photo: 6459702495 49a4f7e411 7167
owner: 35338269@N00
title: Taekwondo 137
originalsecret: null
originalformat: null
o_height: null
o_width: null
datetaken: 2011-12-04 16:54:01
dateupload: 1323094129
tags: london aaron cook taekwondo wtf excel prepares london2012 yousef karami btcb
license: 0
latitude: 51.507887
longitude: 0.029976
accuracy: 14
views: 20
interestingness: 150 out of 226

photo: 6459701099 3fe288c733 7013
owner: 35338269@N00
title: Taekwondo 136
originalsecret: null
originalformat: null
o_height: null
o_width: null
datetaken: 2011-12-04 16:54:01
dateupload: 1323094111
tags: london aaron cook taekwondo wtf excel prepares london2012 yousef karami btcb
license: 0
latitude: 51.507887
longitude: 0.029976
accuracy: 14
views: 17
interestingness: 151 out of 226

photo: 6459700021 4b17bc0265 7012
owner: 35338269@N00
title: Taekwondo 135
originalsecret: null
originalformat: null
o_height: null
o_width: null
datetaken: 2011-12-04 16:52:19
dateupload: 1323094097
tags: london aaron cook taekwondo wtf excel prepares london2012 yousef karami btcb
license: 0
latitude: 51.507887
longitude: 0.029976
accuracy: 14
views: 17
interestingness: 152 out of 226

photo: 6459698941 ab6b8f8ffc 7020
owner: 35338269@N00
title: Taekwondo 134
originalsecret: null
originalformat: null
o_height: null
o_width: null
datetaken: 2011-12-04 16:52:17
dateupload: 1323094082
tags: london aaron cook taekwondo wtf excel prepares london2012 yousef karami btcb
license: 0
latitude: 51.507887
longitude: 0.029976
accuracy: 14
views: 19
interestingness: 153 out of 226

photo: 6459696307 7aa56dc861 7166
owner: 35338269@N00
title: Taekwondo 132
originalsecret: null
originalformat: null
o_height: null
o_width: null
datetaken: 2011-12-04 16:51:05
dateupload: 1323094049
tags: london aaron cook taekwondo wtf excel prepares london2012 yousef karami btcb
license: 0
latitude: 51.507887
longitude: 0.029976
accuracy: 14
views: 17
interestingness: 154 out of 226

photo: 6459692799 6d3ca7e9d6 7012
owner: 35338269@N00
title: Taekwondo 129
originalsecret: null
originalformat: null
o_height: null
o_width: null
datetaken: 2011-12-04 16:48:20
dateupload: 1323094003
tags: london aaron cook taekwondo wtf excel prepares london2012 yousef karami btcb
license: 0
latitude: 51.507887
longitude: 0.029976
accuracy: 14
views: 12
interestingness: 155 out of 226

photo: 6459691411 be37c2ea58 7010
owner: 35338269@N00
title: Taekwondo 128
originalsecret: null
originalformat: null
o_height: null
o_width: null
datetaken: 2011-12-04 16:47:55
dateupload: 1323093985
tags: london aaron cook taekwondo wtf excel prepares london2012 yousef karami btcb
license: 0
latitude: 51.507887
longitude: 0.029976
accuracy: 14
views: 12
interestingness: 156 out of 226

photo: 6459690113 404463983c 7034
owner: 35338269@N00
title: Taekwondo 127
originalsecret: null
originalformat: null
o_height: null
o_width: null
datetaken: 2011-12-04 16:47:55
dateupload: 1323093969
tags: london aaron cook taekwondo wtf excel prepares london2012 yousef karami btcb
license: 0
latitude: 51.507887
longitude: 0.029976
accuracy: 14
views: 15
interestingness: 157 out of 226

photo: 6459688923 4b5875ffc7 7158
owner: 35338269@N00
title: Taekwondo 126
originalsecret: null
originalformat: null
o_height: null
o_width: null
datetaken: 2011-12-04 16:47:34
dateupload: 1323093954
tags: london aaron cook taekwondo wtf excel prepares london2012 yousef karami btcb
license: 0
latitude: 51.507887
longitude: 0.029976
accuracy: 14
views: 16
interestingness: 158 out of 226

photo: 6459686751 bc989768f2 7164
owner: 35338269@N00
title: Taekwondo 124
originalsecret: null
originalformat: null
o_height: null
o_width: null
datetaken: 2011-12-04 16:47:13
dateupload: 1323093926
tags: london aaron cook taekwondo wtf excel prepares london2012 yousef karami btcb
license: 0
latitude: 51.507887
longitude: 0.029976
accuracy: 14
views: 14
interestingness: 159 out of 226

photo: 6459685473 d6d4339cb8 7156
owner: 35338269@N00
title: Taekwondo 123
originalsecret: null
originalformat: null
o_height: null
o_width: null
datetaken: 2011-12-04 16:47:09
dateupload: 1323093910
tags: london aaron cook taekwondo wtf excel prepares london2012 yousef karami btcb
license: 0
latitude: 51.507887
longitude: 0.029976
accuracy: 14
views: 18
interestingness: 160 out of 226

photo: 6454335907 8daa4fd890 7021
owner: 60357876@N00
title: - 337/365 -
originalsecret: null
originalformat: null
o_height: null
o_width: null
datetaken: 2011-12-03 20:19:35
dateupload: 1323025408
tags: fish water project painting 365 fishes 2011 project365 pieterd mostly365 3652011
license: 0
latitude: 51.287578
longitude: 4.486599
accuracy: 11
views: 30
interestingness: 161 out of 226

photo: 6448453857 b5bf9f8cca 7143
owner: 99923398@N00
title: Scenes from the Forest Park holiday walk
originalsecret: 5ed6d6174c
originalformat: jpg
o_height: 3200
o_width: 5120
datetaken: 2011-12-03 14:25:59
dateupload: 1322943959
tags: park christmas street windows chicago shop forest downtown walk madison decorated chicagoist
license: 3
latitude: 41.879429
longitude: -87.810476
accuracy: 14
views: 30
interestingness: 162 out of 226

photo: 6480312835 7d6c3d36d8 7173
owner: 37452801@N00
title: Memon winter breakfast: Hara lehsun with bajray ki roti, Karachi
originalsecret: null
originalformat: null
o_height: null
o_width: null
datetaken: 2011-12-09 09:29:54
dateupload: 1323406535
tags: breakfast earlymorning plate spoon platter chai sugarcane atta fridaymorning dahi nashta gujrati gujerati beautifulbreakfast springgarlic winterdish bajraykiroti haralehsun memondish memonwinterdish breakfastinpakistan ameerhamzakanashta
license: 0
latitude: 24.88978
longitude: 67.028511
accuracy: 11
views: 3
interestingness: 163 out of 226

photo: 6469898363 3745673288 7145
owner: 38845572@N08
title: Kelabit Highlands
originalsecret: 5dc811b88f
originalformat: jpg
o_height: 2048
o_width: 1362
datetaken: 2009-01-17 13:11:05
dateupload: 1323233820
tags: sarawak malaysia borneo kelabithighlands
license: 0
latitude: 3.653565
longitude: 115.426483
accuracy: 11
views: 3
interestingness: 164 out of 226

photo: 6468721471 da1ec28b8f 7141
owner: 73632745@N00
title: TXEMA MART?N, FOT?GRAFO Y COCINERO DE LA PICONERA TABERNA
originalsecret: c15450aace
originalformat: jpg
o_height: 992
o_width: 662
datetaken: 2011-12-06 15:29:28
dateupload: 1323216137
tags: portrait bar spain retrato restaurante cook leon fotografo taberna cocinero photograper plazadelgrano 61211 lapiconera
license: 0
latitude: 42.59553
longitude: -5.56848
accuracy: 16
views: 8
interestingness: 165 out of 226

photo: 6456190499 456f227eff 7165
owner: 8783979@N07
title: Golden_Delish
originalsecret: null
originalformat: null
o_height: null
o_width: null
datetaken: 2011-11-24 17:39:02
dateupload: 1323043660
tags: thanksgiving november cooking utah nikon cook saltlakecity nikkor 50mmf18 d300 2011 saltlakecounty 11242011
license: 0
latitude: 40.68293
longitude: -111.879684
accuracy: 16
views: 4
interestingness: 166 out of 226

photo: 6453124133 364dee5965 7160
owner: 8981098@N07
title: My lunch. Chicken pastilla.
originalsecret: eac9855b56
originalformat: jpg
o_height: 1301
o_width: 1735
datetaken: 2011-10-12 14:46:09
dateupload: 1323012968
tags: africa travel food canon geotagged restaurant mosque morocco fez maroc medina pastilla fes bastilla peregrin f?selbali bstilla bisteeya fezelbali alma?rib ???????????? lindadevolder powershotsx30 bastiyya ???????
license: 0
latitude: 34.056214
longitude: -4.993801
accuracy: 12
views: 16
interestingness: 167 out of 226

photo: 6446911697 038dc4ce20 7149
owner: 68487491@N04
title: Lotus and Rdausmif
originalsecret: null
originalformat: null
o_height: null
o_width: null
datetaken: 2011-12-03 13:37:29
dateupload: 1322924790
tags: saltwatercrocodile outbackaustralia nikon70200mmvrii foggdamnorthernterritory ntwildlife
license: 0
latitude: -12.576177
longitude: 131.312026
accuracy: 11
views: 9
interestingness: 168 out of 226

photo: 6437574623 4e3dd78eef 7175
owner: 11787988@N03
title: We did it!
originalsecret: 4808a08cf0
originalformat: jpg
o_height: 1109
o_width: 1024
datetaken: 2011-12-01 11:04:21
dateupload: 1322766261
tags: thanksgiving family usa holiday bird cooking feast turkey fun deepfriedturkey fry lasvegas cook oil fried prepare 2011
license: 0
latitude: 36.140023
longitude: -115.134315
accuracy: 12
views: 48
interestingness: 169 out of 226

photo: 6472289209 778c05b421 7159
owner: 37505055@N08
title: Tulsa, Oklahoma, USA
originalsecret: null
originalformat: null
o_height: null
o_width: null
datetaken: 2011-12-06 23:05:07
dateupload: 1323276395
tags: film 35mm nikon destruction cutting prints filmstrips d90 filmmanipulation
license: 0
latitude: 36.102792
longitude: -95.976133
accuracy: 16
views: 12
interestingness: 170 out of 226

photo: 6470781165 1112e00333 7035
owner: 62976852@N03
title: 
originalsecret: null
originalformat: null
o_height: null
o_width: null
datetaken: 2011-12-02 14:21:58
dateupload: 1323252021
tags: friends urban food streets berlin love film cooking analog dinner olympus xa3 olympusxa3
license: 0
latitude: 52.548579
longitude: 13.402526
accuracy: 15
views: 32
interestingness: 171 out of 226

photo: 6466903401 5a7347ea28 7014
owner: 32149255@N04
title: Starry night
originalsecret: 05aa9d1e8a
originalformat: jpg
o_height: 2124
o_width: 2461
datetaken: 2011-12-02 21:48:10
dateupload: 1323193430
tags: christmas bw food white black cooking stars baking gingerbread homemade gingerbreadstars charlottehbest
license: 0
latitude: 52.194443
longitude: -1.724005
accuracy: 15
views: 8
interestingness: 172 out of 226

photo: 6441538975 3a1c2a0a0c 7141
owner: 7767532@N05
title: Forest road
originalsecret: 1185e7c853
originalformat: jpg
o_height: 2848
o_width: 4288
datetaken: 2011-11-11 04:30:00
dateupload: 1322834729
tags: forest cookislands cooks atiu
license: 0
latitude: -19.993191
longitude: -158.133945
accuracy: 12
views: 13
interestingness: 173 out of 226

photo: 6470781339 ae4a2fe628 7175
owner: 62976852@N03
title: 
originalsecret: null
originalformat: null
o_height: null
o_width: null
datetaken: 2011-12-02 14:22:46
dateupload: 1323252025
tags: friends urban food streets berlin love film cooking analog dinner olympus xa3 olympusxa3
license: 0
latitude: 52.549362
longitude: 13.407526
accuracy: 15
views: 56
interestingness: 174 out of 226

photo: 6470781247 570cc6d7a0 7169
owner: 62976852@N03
title: 
originalsecret: null
originalformat: null
o_height: null
o_width: null
datetaken: 2011-12-02 14:22:07
dateupload: 1323252023
tags: friends urban food streets berlin love film cooking analog dinner olympus xa3 olympusxa3
license: 0
latitude: 52.551756
longitude: 13.400037
accuracy: 15
views: 31
interestingness: 175 out of 226

photo: 6466881895 c2a7b20306 7011
owner: 32149255@N04
title: Not the gumdrop buttons!
originalsecret: 47d986bb9f
originalformat: jpg
o_height: 2805
o_width: 1863
datetaken: 2011-12-02 22:33:15
dateupload: 1323193152
tags: christmas pink food white men cooking army miniature baking buttons gingerbread homemade icing gingerbreadmen charlottehbest
license: 0
latitude: 52.194443
longitude: -1.724005
accuracy: 15
views: 5
interestingness: 176 out of 226

photo: 6459584547 fa38291d79 7017
owner: 60268072@N08
title: cooking in progress
originalsecret: null
originalformat: null
o_height: null
o_width: null
datetaken: 2011-12-01 12:10:33
dateupload: 1323092561
tags: food cooking hongkong yummy rice chinese claypot ???
license: 0
latitude: 22.303708
longitude: 114.167861
accuracy: 11
views: 11
interestingness: 177 out of 226

photo: 6451783657 3c692cf47a 7013
owner: 10089490@N06
title: Steaming paella pans
originalsecret: 1a220fc021
originalformat: jpg
o_height: 2369
o_width: 1823
datetaken: 2011-12-03 13:26:19
dateupload: 1322994658
tags: show uk england food photo rice image north stock large cook eaten steam spanish eat cumbria stuff buy portion sell stalls thelakes foodie muncastercastle smaples ?2011tonyworrall tastecumbriachristmasfestival
license: 0
latitude: 54.354636
longitude: -3.377544
accuracy: 15
views: 23
interestingness: 178 out of 226

photo: 6445739679 37b70c0079 7023
owner: 46527925@N04
title: Spanish omelette
originalsecret: 859bf49103
originalformat: jpg
o_height: 1435
o_width: 1435
datetaken: 2011-12-03 10:06:43
dateupload: 1322903203
tags: wood food kitchen square wooden madera fb comida patatas egg cook spoon cocina squareformat pan onion paella tortilla potatos huevo omelette cocinar cebolla iphone cocinero cuchara iphone4 iphoneography talleda instagram instagramapp xavitalleda
license: 4
latitude: 41.410121
longitude: 2.134469
accuracy: 16
views: 14
interestingness: 179 out of 226

photo: 6438951579 98fddbdaee 7002
owner: 19167014@N04
title: Cooks Point, Point PInole
originalsecret: null
originalformat: null
o_height: null
o_width: null
datetaken: 2011-12-01 16:14:48
dateupload: 1322784888
tags: trees beach point mt diablo pinole
license: 0
latitude: 37.999815
longitude: -122.360916
accuracy: 11
views: 18
interestingness: 180 out of 226

photo: 6435506089 3a2c15b7f6 7030
owner: 52386950@N00
title: 
originalsecret: 4585eaf08d
originalformat: jpg
o_height: 2812
o_width: 4218
datetaken: 2011-11-30 00:00:04
dateupload: 1322732925
tags: rodinal yashicaelectrogsn iso1600 yashicaelectro35gsn aristapremium400
license: 0
latitude: 24.261363
longitude: 120.821113
accuracy: 10
views: 31
interestingness: 181 out of 226

photo: 6435194701 853bd72c43 7020
owner: 8981098@N07
title: Fez alley.
originalsecret: c2ba9b7251
originalformat: jpg
o_height: 2168
o_width: 1759
datetaken: 2011-10-11 18:17:53
dateupload: 1322725415
tags: peregrin lindadevolder canon powershotsx30 geotagged travel africa morocco maroc alma?rib ???????????? fes fez f?selbali f?zelbali
license: 0
latitude: 34.051877
longitude: -5.002384
accuracy: 12
views: 17
interestingness: 182 out of 226

photo: 6480383599 dcfed553c2 7173
owner: 26329029@N06
title: The Tribune Test Kitchen
originalsecret: 439927b910
originalformat: jpg
o_height: 768
o_width: 1024
datetaken: 2011-12-08 19:47:09
dateupload: 1323407945
tags: test chicago news kitchen paper print newspaper illinois jon media tour michigan reporter n kristin il ave worlds newsroom yates journalist tribune newsprint tribunetower chicagotribune samuelson 435 jonyates worldsgreatestnewspaper problamsolver
license: 0
latitude: 41.890545
longitude: -87.623814
accuracy: 16
views: 3
interestingness: 183 out of 226

photo: 6480286945 e5aea20a74 7006
owner: 74069397@N00
title: Stuffed Acorn Squash with Corn & Black Bean Salad
originalsecret: null
originalformat: null
o_height: null
o_width: null
datetaken: 2011-12-08 19:16:06
dateupload: 1323406021
tags: winter black salad stuffed corn sausage bean meat acorn stuff squash bake baked wintersquash acornsquash
license: 0
latitude: 37.012491
longitude: -121.589984
accuracy: 13
views: 4
interestingness: 184 out of 226

photo: 6480217525 ab252c5e45 7160
owner: 62319288@N07
title: Night Food
originalsecret: null
originalformat: null
o_height: null
o_width: null
datetaken: 2011-12-08 19:43:06
dateupload: 1323404680
tags: china street food cooking night photography nikon wuxi candid chinese cinematic d7000
license: 0
latitude: 31.574221
longitude: 120.297975
accuracy: 12
views: 7
interestingness: 185 out of 226

photo: 6480168859 28d7039eb7 7156
owner: 70891021@N05
title: HDR Over Cooked
originalsecret: 35e6204cda
originalformat: jpg
o_height: 2583
o_width: 3864
datetaken: 2011-08-20 18:57:58
dateupload: 1323403757
tags: sunset sky tree minnesota clouds photoshop landscape nikon hastings d200 tamron mn hdr msra photomatix elements9 cb1956
license: 0
latitude: 44.746672
longitude: -92.850093
accuracy: 16
views: 0
interestingness: 186 out of 226

photo: 6479313675 8e99bc75f8 7005
owner: 14915921@N00
title: 
originalsecret: 28b624a32f
originalformat: jpg
o_height: 600
o_width: 800
datetaken: 2011-12-04 12:02:21
dateupload: 1323389076
tags: door architecture gate closed pittsburgh arch shadows shadyside bricks entrance cook worker gargoyles 1911 libertyelementaryschool
license: 0
latitude: 40.452956
longitude: -79.933385
accuracy: 16
views: 0
interestingness: 187 out of 226

photo: 6478173851 2e220c4aa1 7002
owner: 48415713@N04
title: G-OMYT A330-243 Thomas Cook Airlines
originalsecret: null
originalformat: null
o_height: null
o_width: null
datetaken: 2010-06-15 07:04:56
dateupload: 1323372539
tags: glasgow aircraft aviation aeroplane airbus airliner glasgowairport a330243 thomascookairlines gomyt egpf egpfgla
license: 0
latitude: 55.873481
longitude: -4.422791
accuracy: 14
views: 13
interestingness: 188 out of 226

photo: 6477196153 d15b4f7f51 7020
owner: 52079207@N00
title: Tilapia with pink peppercorn sauce
originalsecret: c1d35fe2b2
originalformat: jpg
o_height: 1936
o_width: 2592
datetaken: 2011-12-07 19:52:23
dateupload: 1323358858
tags: food fish cooking vegetables dinner broccoli vegetable homemade pan iphone sear
license: 0
latitude: 40.692666
longitude: -73.965
accuracy: 16
views: 2
interestingness: 189 out of 226

photo: 6477142335 5a153d4e7b 7016
owner: 51035555243@N01
title: My Heart's Lost at Sea
originalsecret: 051efaeed9
originalformat: jpg
o_height: 3614
o_width: 4870
datetaken: 2009-05-24 09:02:30
dateupload: 1323358074
tags: chicago art museum painting leaving boat illinois loop institute artinstituteofchicago artinstitute cookcounty manet chicagoland chicagoartinstitute artinstitutechicago chicagoart chicagochicagochicago instituteart institutechicagolandcook manet?douard steamboatleavingboulogne countyillinoisloopmanetmuseumsteamboat boulogneboatpainting?douard
license: 2
latitude: 41.88003
longitude: -87.622723
accuracy: 16
views: 16
interestingness: 190 out of 226

photo: 6475909805 1afa5e7e32 7027
owner: 35664251@N05
title: Colourful Frostings - Bunte Glasuren
originalsecret: null
originalformat: null
o_height: null
o_width: null
datetaken: 2011-12-04 18:38:26
dateupload: 1323334433
tags: cooking baking essen colorful eating icing colourful bunt frosting backen christmascookies kochen glasur weihnachtsb?ckerei weihnachtspl?tzchen glasuren frostings nat?rlichelebensmittelfarbe naturalfodcoloring
license: 0
latitude: 18.804918
longitude: 98.964843
accuracy: 10
views: 21
interestingness: 191 out of 226

photo: 6474920575 6c53ca3308 7142
owner: 13518023@N03
title: Ingredients for (vegan) jigae (??): O'ngo Cooking Class, Seoul
originalsecret: e8cf716e42
originalformat: jpg
o_height: 1936
o_width: 2592
datetaken: 2011-12-08 10:38:38
dateupload: 1323314631
tags: temple vegan buddhist korea seoul vegetarian cookingschool ongo ???? koreakoreanfoodcookingclasscuisine
license: 5
latitude: 37.573758
longitude: 126.988359
accuracy: 16
views: 4
interestingness: 192 out of 226

photo: 6474914681 544295942a 7173
owner: 13518023@N03
title: Making japchae (??) in Seoul (????)
originalsecret: 1732c4629e
originalformat: jpg
o_height: 1936
o_width: 2592
datetaken: 2011-12-08 10:54:15
dateupload: 1323314542
tags: temple vegan buddhist korea seoul vegetarian cookingschool ongo ???? koreakoreanfoodcookingclasscuisine
license: 5
latitude: 37.573758
longitude: 126.988359
accuracy: 16
views: 2
interestingness: 193 out of 226

photo: 6474912049 bb8e20c83b 7165
owner: 13518023@N03
title: (vegan) jigae (??): O'ngo Cooking Class, Seoul
originalsecret: 1f7f2da0f4
originalformat: jpg
o_height: 1936
o_width: 2592
datetaken: 2011-12-08 11:26:41
dateupload: 1323314501
tags: temple vegan buddhist korea seoul vegetarian cookingschool ongo ???? koreakoreanfoodcookingclasscuisine
license: 5
latitude: 37.573758
longitude: 126.988359
accuracy: 16
views: 3
interestingness: 194 out of 226

photo: 6474910241 28fdc5202f 7001
owner: 13518023@N03
title: Red pepper pancakes (jeon: ?)
originalsecret: 2f64ef93ff
originalformat: jpg
o_height: 1936
o_width: 2592
datetaken: 2011-12-08 11:14:43
dateupload: 1323314472
tags: temple vegan buddhist korea seoul vegetarian cookingschool ongo ???? koreakoreanfoodcookingclasscuisine
license: 5
latitude: 37.573758
longitude: 126.988359
accuracy: 16
views: 4
interestingness: 195 out of 226

photo: 6474907303 05ffc49a76 7156
owner: 13518023@N03
title: Korean vegan soup stock: O'ngo, Seoul
originalsecret: 790f40aca9
originalformat: jpg
o_height: 1936
o_width: 2592
datetaken: 2011-12-08 10:09:05
dateupload: 1323314423
tags: temple vegan buddhist korea seoul vegetarian cookingschool ongo ???? koreakoreanfoodcookingclasscuisine
license: 5
latitude: 37.573758
longitude: 126.988359
accuracy: 16
views: 1
interestingness: 196 out of 226

photo: 6474905325 4e2e1f5179 7030
owner: 13518023@N03
title: Ingredients for Buddhist Temple Cuisine (????), Seoul: O'ngo
originalsecret: bbd048d786
originalformat: jpg
o_height: 1936
o_width: 2592
datetaken: 2011-12-08 10:04:59
dateupload: 1323314391
tags: temple vegan buddhist korea seoul vegetarian cookingschool ongo ???? koreakoreanfoodcookingclasscuisine
license: 5
latitude: 37.573758
longitude: 126.988359
accuracy: 16
views: 0
interestingness: 197 out of 226

photo: 6474903331 65bc8250d4 7004
owner: 13518023@N03
title: Korean Buddhist Temple Cuisine Cooking Class: Seoul
originalsecret: c0c14d635e
originalformat: jpg
o_height: 1936
o_width: 2592
datetaken: 2011-12-08 10:02:35
dateupload: 1323314356
tags: temple vegan buddhist korea seoul vegetarian cookingschool ongo ???? koreakoreanfoodcookingclasscuisine
license: 5
latitude: 37.573758
longitude: 126.988359
accuracy: 16
views: 0
interestingness: 198 out of 226

photo: 6474902173 b8e12d8dd6 7031
owner: 13518023@N03
title: Fried tofu in gochujang (???)
originalsecret: 20a59c9323
originalformat: jpg
o_height: 1936
o_width: 2592
datetaken: 2011-12-08 11:28:49
dateupload: 1323314335
tags: temple vegan buddhist korea seoul vegetarian cookingschool ongo ???? koreakoreanfoodcookingclasscuisine
license: 5
latitude: 37.573758
longitude: 126.988359
accuracy: 16
views: 1
interestingness: 199 out of 226

photo: 6474900131 c077a44680 7005
owner: 13518023@N03
title: Red pepper pancakes (jeon: ?)
originalsecret: 45d1f60d01
originalformat: jpg
o_height: 1936
o_width: 2592
datetaken: 2011-12-08 11:28:45
dateupload: 1323314303
tags: temple vegan buddhist korea seoul vegetarian cookingschool ongo ???? koreakoreanfoodcookingclasscuisine
license: 5
latitude: 37.573758
longitude: 126.988359
accuracy: 16
views: 1
interestingness: 200 out of 226

photo: 6474898323 9aa32b1a26 7160
owner: 13518023@N03
title: Lunch of Buddhist Temple Cuisine (????) in Seoul
originalsecret: 1444839eba
originalformat: jpg
o_height: 1936
o_width: 2592
datetaken: 2011-12-08 11:42:45
dateupload: 1323314275
tags: temple vegan buddhist korea seoul vegetarian cookingschool ongo ???? koreakoreanfoodcookingclasscuisine
license: 5
latitude: 37.573758
longitude: 126.988359
accuracy: 16
views: 0
interestingness: 201 out of 226

photo: 6474616115 de2febb627 7009
owner: 60030906@N04
title: Street vendor near Chilik cooks shashlik
originalsecret: 49c3baba85
originalformat: jpg
o_height: 979
o_width: 1306
datetaken: 2011-11-24 10:03:43
dateupload: 1323309724
tags: apple banana centralasia kazakhstan shashlik fruitstall ?????? chilik ????????? caspionet steppetales ?????
license: 0
latitude: 43.601278
longitude: 78.3078
accuracy: 10
views: 3
interestingness: 202 out of 226

photo: 6472708453 358c4e56f2 7018
owner: 24696776@N06
title: MEATliquor 20f
originalsecret: null
originalformat: null
o_height: null
o_width: null
datetaken: 2011-12-02 14:50:38
dateupload: 1323281738
tags: london burger cheeseburger hamburger buffalowings divebar friedpickles deadhippie msmarmitelover meateasy meatliquor
license: 0
latitude: 51.515482
longitude: -0.14861
accuracy: 16
views: 29
interestingness: 203 out of 226

photo: 6472707835 b24015a2a5 7020
owner: 24696776@N06
title: MEATliquor 19f
originalsecret: null
originalformat: null
o_height: null
o_width: null
datetaken: 2011-12-02 14:49:11
dateupload: 1323281730
tags: london burger cheeseburger hamburger buffalowings divebar friedpickles deadhippie msmarmitelover meateasy meatliquor
license: 0
latitude: 51.515492
longitude: -0.14861
accuracy: 16
views: 6
interestingness: 204 out of 226

photo: 6472707359 a7f8cc6f15 7013
owner: 24696776@N06
title: MEATliquor 18f
originalsecret: null
originalformat: null
o_height: null
o_width: null
datetaken: 2011-12-02 14:46:58
dateupload: 1323281724
tags: london burger cheeseburger hamburger buffalowings divebar friedpickles deadhippie msmarmitelover meateasy meatliquor
license: 0
latitude: 51.515496
longitude: -0.148599
accuracy: 16
views: 3
interestingness: 205 out of 226

photo: 6472429033 5d391f57eb 7162
owner: 16057556@N07
title: G-OMYJ - 1997 build Airbus A321-211, ex G-UKLO, G-UNID & G-OOAF
originalsecret: null
originalformat: null
o_height: null
o_width: null
datetaken: 2011-11-30 10:14:30
dateupload: 1323278139
tags: man manchester airbus 677 a321 ringway thomascook egcc cfm a321211 gomyj gooaf guklo gunid
license: 0
latitude: 53.354547
longitude: -2.263526
accuracy: 12
views: 5
interestingness: 206 out of 226

photo: 6471477967 66a704fbff 7022
owner: 43662205@N00
title: dumpling
originalsecret: 6609d30a73
originalformat: jpg
o_height: 768
o_width: 1024
datetaken: 2011-09-29 12:51:08
dateupload: 1323265493
tags: city food hot horizontal asian restaurant healthy asia display outdoor cook 8 tasty korea delicious eat korean seoul customer local cooked southkorea adults eight healthyfood foodstall dumpling gastronomy plumpy
license: 1
latitude: 37.563166
longitude: 126.984666
accuracy: 16
views: 26
interestingness: 207 out of 226

photo: 6470781027 fd3ab264c7 7006
owner: 62976852@N03
title: 
originalsecret: null
originalformat: null
o_height: null
o_width: null
datetaken: 2011-12-02 14:21:40
dateupload: 1323252019
tags: friends urban food streets berlin love film cooking analog dinner olympus xa3 olympusxa3
license: 0
latitude: 52.551756
longitude: 13.400037
accuracy: 15
views: 17
interestingness: 208 out of 226

photo: 6470780923 62b1afabeb 7006
owner: 62976852@N03
title: 
originalsecret: null
originalformat: null
o_height: null
o_width: null
datetaken: 2011-12-02 14:21:03
dateupload: 1323252016
tags: friends urban food streets berlin love film cooking analog dinner olympus xa3 olympusxa3
license: 0
latitude: 52.551749
longitude: 13.400015
accuracy: 15
views: 15
interestingness: 209 out of 226

photo: 6470780719 498cd25a9a 7141
owner: 62976852@N03
title: 
originalsecret: null
originalformat: null
o_height: null
o_width: null
datetaken: 2011-12-02 14:20:03
dateupload: 1323252012
tags: friends urban food streets berlin love film cooking analog dinner olympus xa3 olympusxa3
license: 0
latitude: 52.551762
longitude: 13.400058
accuracy: 15
views: 20
interestingness: 210 out of 226

photo: 6470780627 5beaeeb50d 7012
owner: 62976852@N03
title: 
originalsecret: null
originalformat: null
o_height: null
o_width: null
datetaken: 2011-12-02 14:18:25
dateupload: 1323252010
tags: friends urban food streets berlin love film cooking analog dinner olympus xa3 olympusxa3
license: 0
latitude: 52.551769
longitude: 13.40008
accuracy: 15
views: 16
interestingness: 211 out of 226

photo: 6469462865 cfce29c9c2 7158
owner: 35765244@N03
title: 36/365
originalsecret: 2c3290cd73
originalformat: jpg
o_height: 2672
o_width: 4000
datetaken: 2011-12-06 19:47:31
dateupload: 1323227299
tags: food cooking lumix cook panasonic chef lamb 365 lambchops chimichurri project365 gf2 365project whitebeansalad topazadjust panasoniclumixgf2
license: 0
latitude: 33.522077
longitude: -86.822891
accuracy: 11
views: 34
interestingness: 212 out of 226

photo: 6469237433 3f88458290 7025
owner: 26536149@N06
title: Fish & Cook - Blackstock Road
originalsecret: 7cbfb45ae4
originalformat: jpg
o_height: 1232
o_width: 1840
datetaken: 2011-12-07 02:13:29
dateupload: 1323224009
tags: 2 two fish color colour london film mju kodak cook olympus ii 200 stationers blackstock
license: 1
latitude: 51.563519
longitude: -0.102953
accuracy: 15
views: 14
interestingness: 213 out of 226

photo: 6469035983 214f2f825c 7157
owner: 27790978@N02
title: Broccoli
originalsecret: null
originalformat: null
o_height: null
o_width: null
datetaken: 2011-12-06 08:07:51
dateupload: 1323220890
tags: cooking dinner 11 broccoli 2011
license: 0
latitude: 40.671291
longitude: -73.959976
accuracy: 15
views: 2
interestingness: 214 out of 226

photo: 6467999935 1c196581c9 7142
owner: 29468649@N08
title: Fried
originalsecret: 592ee4b2f0
originalformat: jpg
o_height: 800
o_width: 1200
datetaken: 2011-10-12 13:31:57
dateupload: 1323206709
tags: barcelona street men cooking women candid mujeres hombres callejero robado cociendo
license: 6
latitude: 41.401406
longitude: 2.156678
accuracy: 15
views: 15
interestingness: 215 out of 226

photo: 6466919683 91002fd7ce 7154
owner: 69024332@N03
title: TN2 DSC_0034-E3s20x14
originalsecret: null
originalformat: null
o_height: null
o_width: null
datetaken: 2011-08-31 15:07:42
dateupload: 1323193629
tags: vacation fontana summervacation summercamp lakegeneva hikingtrail genevalake williamsbay lakeshorepath christiancamp dougward lakegenevawisconsin conferencepointcenter tipiwakan travelwisconsin conferencepointcamp campcollie reverendjosephcollie dougwardphotography dougwardphotographyllc tipiwakanbuilding josephcollie
license: 0
latitude: 42.578934
longitude: -88.53753
accuracy: 14
views: 2
interestingness: 216 out of 226

photo: 6466855557 04f1e95d0b 7166
owner: 32149255@N04
title: Gingerbread army
originalsecret: d6d26977f4
originalformat: jpg
o_height: 4288
o_width: 2848
datetaken: 2011-12-02 21:46:30
dateupload: 1323192945
tags: christmas food men cooking army miniature baking gingerbread homemade gingerbreadmen charlottehbest
license: 0
latitude: 52.194443
longitude: -1.724005
accuracy: 15
views: 11
interestingness: 217 out of 226

photo: 6466622469 74a9fbee13 7010
owner: 42540952@N07
title: L Espalier Food- 31
originalsecret: c9d1b2265c
originalformat: jpg
o_height: 2332
o_width: 1666
datetaken: 2011-09-10 15:13:34
dateupload: 1323189909
tags: food flower cooking vegetables cheese cuisine restaurant cook shrimp gourmet chef lamb dining pate prepare finedining prosecco lespalier shrimpt finedingin chefmcclelland
license: 0
latitude: 42.348922
longitude: -71.081565
accuracy: 15
views: 6
interestingness: 218 out of 226

photo: 6466621487 335ea24546 7021
owner: 42540952@N07
title: L Espalier Food- 29
originalsecret: b07bcf4a2f
originalformat: jpg
o_height: 2474
o_width: 1767
datetaken: 2011-09-10 14:55:24
dateupload: 1323189897
tags: food flower cooking vegetables cheese cuisine restaurant cook shrimp gourmet chef lamb dining pate prepare finedining prosecco lespalier shrimpt finedingin chefmcclelland
license: 0
latitude: 42.348922
longitude: -71.081565
accuracy: 15
views: 3
interestingness: 219 out of 226

