
mintime: 1322697600 maxtime: 1322830765.55
numimgs: 268
total pages: 2
visiting only 2 pages ( up to 500 images)
photo: 6436859953 34cda9cc70 7013
owner: 40427110@N03
title: Cloudy Star Trails at Lake Berryessa - [EXPLORED]
originalsecret: null
originalformat: null
o_height: null
o_width: null
datetaken: 2011-08-13 00:49:32
dateupload: 1322756664
tags: california longexposure shadow sky lake motion reflection tree water night clouds dark circle dead star lowlight nikon stitch trails wideangle shore napa startrails blending berryessa d7000 tamron1116f28 nikond7000 andreaskoeberl
license: 0
latitude: 38.578802
longitude: -122.245473
accuracy: 14
views: 1513
interestingness: 1 out of 268

photo: 6437011539 3105f8da3a 7023
owner: 91486426@N00
title: Architecture of red and gold Milkweed up close
originalsecret: 357b55e6dc
originalformat: jpg
o_height: 2583
o_width: 2582
datetaken: 2011-11-25 11:11:55
dateupload: 1322758651
tags: monarchcaterpillar bloodflower asclepias naturesfinest asclepiascurassavica queencaterpillar monarchlifecycle danaidae supershot queenbutterfly milkweedbutterflies abigfave mexicanmilkweed tropicalmilkweed natureselegantshots coth5 blinkagain monarchcaterpillarandaphid
license: 0
latitude: 25.749229
longitude: -80.262947
accuracy: 11
views: 1262
interestingness: 2 out of 268

photo: 6436450653 c96447a301 7026
owner: 60423624@N05
title: Gegenlicht
originalsecret: ab6579a79e
originalformat: jpg
o_height: 2482
o_width: 3721
datetaken: 2010-12-15 15:51:52
dateupload: 1322750975
tags: winter blackandwhite bw sun white black germany landscape nikon explore sw d200 schwarzweiss schleswigholstein dubdream
license: 0
latitude: 54.467992
longitude: 9.996185
accuracy: 16
views: 928
interestingness: 3 out of 268

photo: 6439398695 4a6cb83554 7030
owner: 54086289@N03
title: Golden Evening
originalsecret: null
originalformat: null
o_height: null
o_width: null
datetaken: 2011-07-03 10:20:15
dateupload: 1322792437
tags: travel trees light sunset lake canada mountains reflection nature water beautiful forest landscape mirror golden evening nationalpark pond scenery jasper hiking quality scenic ab canadianrockies baldhills
license: 0
latitude: 52.873638
longitude: -118.082649
accuracy: 11
views: 1045
interestingness: 4 out of 268

photo: 6435960041 6ca439ffb5 7153
owner: 51686984@N05
title: Shady Customer (Explored)
originalsecret: f63370a82a
originalformat: jpg
o_height: 1801
o_width: 1801
datetaken: 2011-04-05 19:20:20
dateupload: 1322782444
tags: italy blur night dark square restaurant blackwhite shadows trieste
license: 3
latitude: 45.652403
longitude: 13.772048
accuracy: 14
views: 1104
interestingness: 5 out of 268

photo: 6437112627 e516a4cd9e 7001
owner: 37287613@N02
title: Tramonto al Fraggio
originalsecret: c9664821a0
originalformat: jpg
o_height: 986
o_width: 1305
datetaken: 2011-11-23 16:57:36
dateupload: 1322760025
tags: sunset taleggio fraggio sergioesse mygearandme flickrstruereflection1 flickrstruereflection2
license: 0
latitude: 45.905568
longitude: 9.555273
accuracy: 13
views: 539
interestingness: 6 out of 268

photo: 6437576025 7862fe7826 7164
owner: 44532761@N02
title: Real Bas?lica. Fisheye optic's. Explore Dec 1, 2011
originalsecret: null
originalformat: null
o_height: null
o_width: null
datetaken: 2011-11-27 13:59:50
dateupload: 1322766282
tags: valencia fisheye explore juanjo nikond300 fisheyenikkor105mmf28 marededeudelsdesamparats juanjofotos amicsdelac?mera fisheyeoptic?s
license: 0
latitude: 39.475756
longitude: -0.374854
accuracy: 16
views: 306
interestingness: 7 out of 268

photo: 6440882795 56dc9a9fd7 7174
owner: 31415058@N04
title: Last Christmas
originalsecret: c95c731473
originalformat: jpg
o_height: 3744
o_width: 5616
datetaken: 2010-12-05 12:55:55
dateupload: 1322822039
tags: christmas leica 50mm summilux m9 explored summiluxm50mmf14asph leicam9
license: 0
latitude: 3.15257
longitude: 101.7173
accuracy: 11
views: 473
interestingness: 8 out of 268

photo: 6435809337 3a34b10544 7143
owner: 24882165@N07
title: Fantastic Flower (By My Fantastic Wife) Explored Dec. 1, 2011
originalsecret: 8c00de7a3f
originalformat: jpg
o_height: 1014
o_width: 1175
datetaken: 2011-09-30 11:27:26
dateupload: 1322739752
tags: flowers ngc longisland npc pointshoot dahlias canonpowershot stateparks canondigital bayardcuttingarboretum bayardcuttingarboretumstatepark arboretums canonaseries floralfantasy canonphotography wonderfulphotos newyorkstateparks perfectpetals longislandparks a580 dahliagardens worldofflowers canona580 canonpowershota580 powershota580 kenorafantastic angelawards unforgettableflowers naturescarousel mygearandme mygearandmepremium level1photographyforrecreation level3photographyforrecreation level2photographyforrecreation flickrstruereflection1 prestigenaturecompeititions
license: 2
latitude: 40.739518
longitude: -73.161778
accuracy: 14
views: 279
interestingness: 9 out of 268

photo: 6437221297 8dc29a8c28 7005
owner: 14838182@N00
title: Rooftop views
originalsecret: 85d53fd88d
originalformat: jpg
o_height: 847
o_width: 1641
datetaken: 2011-11-19 10:29:39
dateupload: 1322761400
tags: world life old city morning roof sky urban panorama orange painterly color colour tower history yellow mobile clouds sunrise buildings turkey painting fire gold cosmopolitan colorful paint phone dynamic vibrant minaret painted sony sonyericsson horizon fake cellphone dramatic istanbul mosque roofs explore busy filter blended colourful process multicultural drama effect postprocess galatasaray stitched sweep hdr beyoglu android app edit mosques blend galata x10 incamera thriving multiethnic hdrlike maistora xperia picsay inphone explored1dec11
license: 3
latitude: 41.034094
longitude: 28.983714
accuracy: 16
views: 281
interestingness: 10 out of 268

photo: 6437384323 ed92ab608c 7164
owner: 11314397@N00
title: Maiko & Geiko taxi : Kyoto, Japan / Jap?n
originalsecret: 381416fa14
originalformat: jpg
o_height: 720
o_width: 1280
datetaken: 2009-04-10 10:38:51
dateupload: 1322763630
tags: travel japan kyoto explore viajes maiko geiko geisha ?? ?? kimono gion kioto ?? jap?n okiya ?? ??? ?? ?? explored ???? miyakoodori gionkobu ?? ???
license: 2
latitude: 35.006026
longitude: 135.774278
accuracy: 16
views: 1162
interestingness: 11 out of 268

photo: 6436320987 82f775c698 7032
owner: 57945291@N00
title: Tungurahua Still Active
originalsecret: 8e5d684760
originalformat: jpg
o_height: 800
o_width: 531
datetaken: 2011-12-01 07:02:11
dateupload: 1322749076
tags: cloud nature clouds landscape volcano scenery eruption volcan tungurahua erupcion
license: 0
latitude: -1.390149
longitude: -78.430366
accuracy: 11
views: 156
interestingness: 12 out of 268

photo: 6441119199 c8986cac2f 7002
owner: 22559868@N06
title: Summertime
originalsecret: null
originalformat: null
o_height: null
o_width: null
datetaken: 2011-08-26 19:16:47
dateupload: 1322827086
tags: sunset summertime calabria sunsetsea explored praialonga sunsetmania fitzgeraldarmstrong
license: 0
latitude: 38.930236
longitude: 16.99748
accuracy: 13
views: 110
interestingness: 13 out of 268

photo: 6440937989 76c0b95a26 7007
owner: 41507621@N05
title: DMT_20110814104057
originalsecret: null
originalformat: null
o_height: null
o_width: null
datetaken: 2011-08-14 10:40:57
dateupload: 1322823256
tags: usa green nature yellow rock rural catchycolors insect geotagged nikon bokeh missouri grasshopper botanicalgardens hdr highdynamicrange allrightsreserved powellgardens naturesfinest catchycolorsyellow catchycolorsgreen photomatix supershot 1xp hdrsingleraw d5000 specinsect macrosdenaturaleza elmmissouri denisetschida
license: 0
latitude: 38.872319
longitude: -94.040539
accuracy: 16
views: 306
interestingness: 14 out of 268

photo: 6437893557 91d853462c 7147
owner: 15975047@N03
title: Hard Sun - Socorro . SP
originalsecret: null
originalformat: null
o_height: null
o_width: null
datetaken: 2009-10-31 18:21:48
dateupload: 1322770626
tags: light sunset summer brazil sky naturaleza sun luz sol nature brasil clouds landscape nikon interior s?opaulo natureza natur natura c?u explore sp nuvens ver?o montanha socorro brasile montain beautifulday interiordes?opaulo pedrabelavista jufumero
license: 0
latitude: -22.59674
longitude: -46.517578
accuracy: 11
views: 433
interestingness: 15 out of 268

photo: 6436821735 b7a86b35be 7030
owner: 11655978@N07
title: 365 Project - N.2 - Shekou-China (Ps)
originalsecret: null
originalformat: null
o_height: null
o_width: null
datetaken: 2011-12-01 12:25:32
dateupload: 1322756150
tags: china lighting family portrait people color photoshop children experiments nikon flickr famiglia brian son explore shenzhen editing retouch shekou enrico stefano sons d300 2011 lightingsetup studiolights apicaday strobist modelmayhem goldenshell cactusv2s nikond300 nikkor2470mmf28 sigma150500mm 3652011 mayhem686346
license: 0
latitude: 22.493922
longitude: 113.912429
accuracy: 12
views: 183
interestingness: 16 out of 268

photo: 6436176875 b7444122d9 7146
owner: 65354164@N02
title: The Fog - (Explored)
originalsecret: 8b95bdf8bf
originalformat: jpg
o_height: 680
o_width: 1024
datetaken: 2011-11-30 05:33:00
dateupload: 1322746721
tags: city travel sky white mist black history tourism portugal beautiful beauty statue fog architecture religious outdoors europe christ lisbon gorgeous religion sightseeing scenic places explore touristy historical cristo rei the explored ilustrarportugal
license: 6
latitude: 38.694842
longitude: -9.196554
accuracy: 16
views: 307
interestingness: 17 out of 268

photo: 6435788475 e3f06d2e94 7147
owner: 29394931@N06
title: Paris Noel/Christmas 2011 : Dec.1
originalsecret: 291770b766
originalformat: jpg
o_height: 1200
o_width: 1200
datetaken: 2011-12-01 12:34:32
dateupload: 1322739342
tags: christmas city travel blue light sky urban paris france building tourism monument architecture canon dawn twilight long exposure lafayette nightshot dusk wide large noel panoramic hour arrondissement hdr haussman gallerie
license: 0
latitude: 48.872763
longitude: 2.333977
accuracy: 16
views: 260
interestingness: 18 out of 268

photo: 6436503907 18fd1236c6 7012
owner: 12570475@N08
title: Shad Thames - Explored
originalsecret: null
originalformat: null
o_height: null
o_width: null
datetaken: 2011-11-03 09:26:13
dateupload: 1322751775
tags: street city uk greatbritain bridge windows england urban bw brick london window monochrome wall architecture buildings lights photo blackwhite colours shot angle unitedkingdom postcard capital perspective bridges monotone cobblestones cobblestone card photograph gb 37 capture shadthames brickwork anglia streetshot butlerswharf cityofwestminster
license: 0
latitude: 51.504061
longitude: -0.075439
accuracy: 16
views: 203
interestingness: 19 out of 268

photo: 6438138093 dff280ebf9 7173
owner: 7183402@N03
title: Cold morning
originalsecret: null
originalformat: null
o_height: null
o_width: null
datetaken: 2011-11-27 11:14:51
dateupload: 1322773694
tags: morning landscape postcard meadow explore slovenia bohinj bohinjskabistrica aviana2 frostcold fotocompetitionfotocompetitionbronze
license: 0
latitude: 46.272283
longitude: 13.954868
accuracy: 13
views: 293
interestingness: 20 out of 268

photo: 6438493909 bb11051374 7152
owner: 17174826@N00
title: Uprooted2
originalsecret: 69afdb527b
originalformat: jpg
o_height: 3456
o_width: 5184
datetaken: 2011-12-01 09:49:49
dateupload: 1322778276
tags: storm tree down damage burbank santaana winds
license: 0
latitude: 34.193221
longitude: -118.307561
accuracy: 14
views: 4627
interestingness: 21 out of 268

photo: 6437183713 724fd6171b 7143
owner: 36713600@N00
title: Asturies Picos de Europa des del Cabo Vidiu - EXPLORE Dec 1, 2011 #245
originalsecret: null
originalformat: null
o_height: null
o_width: null
datetaken: 2008-10-05 14:07:41
dateupload: 1322760946
tags: sea mer sol rock bay soleil mar cabo europa atlantic explore cap roca cudillero picos posta roques biscay cantabric vidio
license: 0
latitude: 43.567456
longitude: -6.153631
accuracy: 13
views: 267
interestingness: 22 out of 268

photo: 6437437361 c935709c05 7035
owner: 55768558@N02
title: Villagio Mall (Doha, Qatar) (Explore Dec 1st, 2011)
originalsecret: null
originalformat: null
o_height: null
o_width: null
datetaken: 2011-11-03 19:06:21
dateupload: 1322764348
tags: night mall lights nikon shoppingmall doha qatar villagio d3000 35mm18g
license: 0
latitude: 25.281508
longitude: 51.498112
accuracy: 14
views: 379
interestingness: 23 out of 268

photo: 6436835889 b498e981c3 7152
owner: 45190549@N08
title: "Here Comes the Mirror Man"
originalsecret: ff60f449bf
originalformat: jpg
o_height: 1024
o_width: 961
datetaken: 2011-12-01 16:19:05
dateupload: 1322756345
tags: 
license: 0
latitude: 54.957412
longitude: -1.556625
accuracy: 11
views: 90
interestingness: 24 out of 268

photo: 6439017371 1d9ff7d83c 7030
owner: 28161142@N06
title: On this day 2010 - Snow on Moore St
originalsecret: null
originalformat: null
o_height: null
o_width: null
datetaken: 2010-12-02 18:14:37
dateupload: 1322785902
tags: 
license: 0
latitude: 53.34952
longitude: -6.261928
accuracy: 15
views: 95
interestingness: 25 out of 268

photo: 6435545253 61581b4e86 7035
owner: 31415058@N04
title: Corner Of Main Street
originalsecret: f00bd12423
originalformat: jpg
o_height: 3744
o_width: 5616
datetaken: 2010-06-05 07:45:20
dateupload: 1322733922
tags: 35mm indonesia explore summicron jakarta m9 nasipadang leicam9 summicronm35mmf2asph
license: 0
latitude: -6.17144
longitude: 106.827819
accuracy: 11
views: 246
interestingness: 26 out of 268

photo: 6435242853 bc116a3d6f 7010
owner: 43846774@N02
title: Dawn Panorama: The Blackness Approaches - Dec 1
originalsecret: d5cc4d0e8b
originalformat: jpg
o_height: 5707
o_width: 12212
datetaken: 2011-12-01 05:48:16
dateupload: 1322726582
tags: panorama sunrise dawn earth hdr highdynamicrange hdrpano highdynamicrangepanorama josephbrimacombe corlatowersobservatory
license: 0
latitude: -16.907548
longitude: 145.76394
accuracy: 13
views: 124
interestingness: 27 out of 268

photo: 6440855329 76c013dd39 7152
owner: 44731160@N02
title: 'Behave, Fry' [Explored 2nd Dec 2011!!]
originalsecret: null
originalformat: null
o_height: null
o_width: null
datetaken: 2011-12-02 14:12:57
dateupload: 1322821370
tags: christmas xmas dog pet tree shepherd canine terrier laugh picnik 2011
license: 0
latitude: 5.6563
longitude: 116.354911
accuracy: 16
views: 71
interestingness: 28 out of 268

photo: 6440547689 6f49558602 7011
owner: 29394931@N06
title: Paris Noel/Christmas 2011 : Dec.2
originalsecret: 5ea9bf12d2
originalformat: jpg
o_height: 1200
o_width: 1200
datetaken: 2011-12-02 09:11:57
dateupload: 1322813633
tags: christmas city travel blue light sky urban paris france building tourism monument architecture canon dawn twilight long exposure nightshot dusk wide champs large illumination noel panoramic hour arrondissement elysees hdr haussman
license: 0
latitude: 48.872343
longitude: 2.299522
accuracy: 15
views: 135
interestingness: 29 out of 268

photo: 6433651443 226b43f358 7150
owner: 54816077@N03
title: The "Cold One" - Explored November 30th, 2011
originalsecret: null
originalformat: null
o_height: null
o_width: null
datetaken: 2011-11-30 12:59:54
dateupload: 1322699874
tags: winter snow blur mexico bokeh explore petawawa selectivefocus closeupview canonef50mmf14 explored alienskinexposure canon60d adobephotoshopcs5 adobelightroom34 thousandwordimages
license: 0
latitude: 45.861563
longitude: -77.254314
accuracy: 11
views: 136
interestingness: 30 out of 268

photo: 6435603675 2748fb8335 7012
owner: 8773698@N03
title: Arthur Henry "Artie" Beetson, OAM (22 Jan 1945 ? 1 Dec 2011)
originalsecret: null
originalformat: null
o_height: null
o_width: null
datetaken: 2011-10-18 13:34:40
dateupload: 1322737458
tags: sydney australia martinplace indigenouspeople lplater canon5dmkii sigma2470mmf28ifexdghsm photoshopcs5 bigartie carersday arthurartiebeetson queenslandrugbyleaguelegend
license: 0
latitude: -33.867618
longitude: 151.209114
accuracy: 15
views: 79
interestingness: 31 out of 268

photo: 6438206587 1c2ba94ecc 7151
owner: 64587980@N02
title: Advent Calender
originalsecret: a80037a478
originalformat: jpg
o_height: 1024
o_width: 683
datetaken: 2011-12-01 13:07:42
dateupload: 1322774563
tags: santa christmas red stilllife white up star close chocolate numbers adventcalender 365days tablephoto mygearandme
license: 0
latitude: 51.400996
longitude: -0.03063
accuracy: 16
views: 71
interestingness: 32 out of 268

photo: 6436312315 f291991101 7147
owner: 62619762@N07
title: taste life in the sweet side [ EXPLORE # 374 / 1 Dec.2011 ] thank you all !!!
originalsecret: 658d00dec2
originalformat: jpg
o_height: 1944
o_width: 2592
datetaken: 2011-11-18 13:10:36
dateupload: 1322748951
tags: world life christmas blue winter red 2 two people food white color colour love home cup kitchen cookies bag dessert greek happy design nokia friend holidays europe december alone peace tea sweet handmade cinnamon stripes walnuts olive hellas lifestyle happiness plate athens sugar explore greece honey oil mug bite taste tradition vacations miele farine dimitra hellenic x6 explored ????? ?????? ???????????? ???????????? ??? ???? ????? ???????? ??????? ???????????? milaiou ???????
license: 0
latitude: 37.975766
longitude: 23.751025
accuracy: 14
views: 228
interestingness: 33 out of 268

photo: 6436898935 433fca0c53 7001
owner: 29433891@N03
title: Oldie; DB lok 241 353 passeert Nieuwersluis, Dec 2000
originalsecret: null
originalformat: null
o_height: null
o_width: null
datetaken: 2011-12-01 08:32:50
dateupload: 1322757170
tags: 
license: 0
latitude: 52.200742
longitude: 4.998435
accuracy: 13
views: 50
interestingness: 34 out of 268

photo: 6440819813 56704c126a 7031
owner: 37250058@N07
title: 2nd DEC | Berries of Winter
originalsecret: d37293712b
originalformat: jpg
o_height: 3600
o_width: 2508
datetaken: 2010-12-05 14:46:30
dateupload: 1322820527
tags: christmas xmas winter holiday snow tree forest espoo suomi finland season frozen december advent berries finlandia holidayseason
license: 2
latitude: 60.152319
longitude: 24.640638
accuracy: 15
views: 69
interestingness: 35 out of 268

photo: 6436494663 6bf501bc73 7029
owner: 31765147@N07
title: st. Catharina kapel .
originalsecret: null
originalformat: null
o_height: null
o_width: null
datetaken: 2011-11-28 15:34:18
dateupload: 1322751645
tags: thorn olympusfe280 fijgje dec2011 stcatharinakapel haagenbroek
license: 0
latitude: 51.172778
longitude: 5.851724
accuracy: 11
views: 75
interestingness: 36 out of 268

photo: 6438805375 b2e77f1210 7003
owner: 63591980@N02
title: Boston cityscape at night
originalsecret: b39e8c1df2
originalformat: jpg
o_height: 2357
o_width: 4172
datetaken: 2011-12-01 22:49:20
dateupload: 1322782633
tags: street city longexposure windows sky usa streets cars boston skyline night buildings dark ma lights us cityscape skyscrapers streetlamps lamps marcoajelli ajelli
license: 0
latitude: 42.347808
longitude: -71.043133
accuracy: 14
views: 75
interestingness: 37 out of 268

photo: 6437288133 463db2665e 7030
owner: 45005123@N03
title: And a bunch of birds
originalsecret: 83ece9d623
originalformat: jpg
o_height: 2592
o_width: 3456
datetaken: 2011-12-01 02:14:41
dateupload: 1322762303
tags: mygearandme thurs1stdec
license: 0
latitude: 50.4375
longitude: -3.55751
accuracy: 11
views: 36
interestingness: 38 out of 268

photo: 6438828079 cd907e62e7 7022
owner: 45071790@N05
title: Paris by night:le pont des Arts et l'Institut.
originalsecret: b5a110b641
originalformat: jpg
o_height: 1713
o_width: 2846
datetaken: 2011-12-01 20:11:20
dateupload: 1322782987
tags: institut pontdesarts parisbynight
license: 0
latitude: 48.858305
longitude: 2.337427
accuracy: 14
views: 57
interestingness: 39 out of 268

photo: 6438678733 e658f3ae66 7142
owner: 60920269@N07
title: Inside Faversham Church
originalsecret: 85faae9aa8
originalformat: jpg
o_height: 900
o_width: 1244
datetaken: 2011-04-21 14:22:41
dateupload: 1322780752
tags: hdr
license: 0
latitude: 51.311086
longitude: 0.889205
accuracy: 10
views: 35
interestingness: 40 out of 268

photo: 6437028183 37e6c16dc0 7165
owner: 36182750@N00
title: Nairobi, Kenya. 1?Dec.?11
originalsecret: null
originalformat: null
o_height: null
o_width: null
datetaken: 2011-12-01 16:05:24
dateupload: 1322758888
tags: nairobi hijab khimar
license: 0
latitude: -1.2702
longitude: 36.804138
accuracy: 11
views: 48
interestingness: 41 out of 268

photo: 6440196327 703a2c243d 7142
owner: 70347395@N00
title: Dec 1 - Lego Star Wars Advent - Radiant VII
originalsecret: null
originalformat: null
o_height: null
o_width: null
datetaken: 2011-12-01 20:41:49
dateupload: 1322788058
tags: starwars advent lego legostarwars elyssahaeussler
license: 0
latitude: 33.477988
longitude: -111.673192
accuracy: 14
views: 168
interestingness: 42 out of 268

photo: 6437290239 fc1071b29d 7018
owner: 45005123@N03
title: Can anyone tell me the name of this bird please ( Norman )
originalsecret: 4ec2a1a927
originalformat: jpg
o_height: 1930
o_width: 2976
datetaken: 2011-12-01 02:16:06
dateupload: 1322762334
tags: thurs1stdec
license: 0
latitude: 50.442857
longitude: -3.55442
accuracy: 11
views: 45
interestingness: 43 out of 268

photo: 6439507131 9836031863 7005
owner: 56159252@N06
title: 2 DEC 2011
originalsecret: null
originalformat: null
o_height: null
o_width: null
datetaken: 2011-12-02 04:49:36
dateupload: 1322794176
tags: rolleiflex 160vc portra planar ??? 28f ??? ???
license: 0
latitude: 24.085279
longitude: 32.904708
accuracy: 11
views: 25
interestingness: 44 out of 268

photo: 6437288921 4159e8a163 7147
owner: 45005123@N03
title: Another one
originalsecret: 8d4be1b478
originalformat: jpg
o_height: 1728
o_width: 2305
datetaken: 2011-12-01 02:15:27
dateupload: 1322762313
tags: thurs1stdec
license: 0
latitude: 50.442857
longitude: -3.555793
accuracy: 11
views: 25
interestingness: 45 out of 268

photo: 6434647521 57afc6725e 7007
owner: 56159252@N06
title: 1 DEC 2011
originalsecret: null
originalformat: null
o_height: null
o_width: null
datetaken: 2011-12-01 06:42:37
dateupload: 1322714557
tags: rolleiflex 1 december 160vc portra planar 2011 28f
license: 0
latitude: 24.97492
longitude: 32.872188
accuracy: 11
views: 43
interestingness: 46 out of 268

photo: 6434953005 9722022912 7034
owner: 54399684@N04
title: 206.365 Lego-ing
originalsecret: null
originalformat: null
o_height: null
o_width: null
datetaken: 2011-11-05 18:05:24
dateupload: 1322720149
tags: me project back day you 206 follow enjoy come if after 365 script ever month bi ib on the stalling a 206365 relnofollowtwittera relnofollowtumblra legoing continueing hrefhttpregnigar94tumblrcom hrefhttpstwittercomarahazlan
license: 0
latitude: 5.150785
longitude: 100.486793
accuracy: 11
views: 16
interestingness: 47 out of 268

photo: 6438180191 d3558c57a7 7006
owner: 46292690@N00
title: 335/365: Thursday, December 01, 2011: Day Moon through the Bell Tower
originalsecret: 3a881de72d
originalformat: jpg
o_height: 3264
o_width: 4142
datetaken: 2011-12-01 15:09:21
dateupload: 1322770161
tags: moon nature beercan 121 335 day335 waxingcrescent skywatching project365 12111 365project minolta70210mmf4 minolta70210mm 335365 minoltaaf70210mmf4 minoltaaf70210mm project36612011 sonya55 2011yip sonyslta55 3652011 slta55 sonyslta55v jstephenlittlejr 12012011 1212011 project36512012011 sonyalphaslta55v 1dec2011 project36501dec11 45offull 01dec11 thursdaydecember012011
license: 0
latitude: 38.656313
longitude: -77.641878
accuracy: 16
views: 65
interestingness: 48 out of 268

photo: 6441061433 49f1cda817 7007
owner: 50769697@N02
title: West Midlands Police BMW 330d Touring BX09 OJP (OPS38)
originalsecret: 79581b9c9f
originalformat: jpg
o_height: 2736
o_width: 3648
datetaken: 2011-12-02 10:21:05
dateupload: 1322825853
tags: west police bmw touring midlands 330d bx09ojp ops38
license: 0
latitude: 52.484443
longitude: -1.893451
accuracy: 16
views: 52
interestingness: 49 out of 268

photo: 6439501001 ccbddb051f 7146
owner: 56159252@N06
title: 2 DEC 2011
originalsecret: null
originalformat: null
o_height: null
o_width: null
datetaken: 2011-12-02 04:48:00
dateupload: 1322794080
tags: rolleiflex 160vc portra planar ??? 28f ??? ???
license: 0
latitude: 24.085279
longitude: 32.904708
accuracy: 11
views: 29
interestingness: 50 out of 268

photo: 6435253977 fde41fbbb2 7172
owner: 37250058@N07
title: 1st DEC | First Candle
originalsecret: 2669682d69
originalformat: jpg
o_height: 3534
o_width: 2628
datetaken: 2010-12-25 15:08:14
dateupload: 1322726841
tags: snowflake christmas xmas light holiday window espoo finland season candles december advent candle darkness flame holidayseason polarnight stearine
license: 2
latitude: 60.154188
longitude: 24.642924
accuracy: 16
views: 55
interestingness: 51 out of 268

photo: 6436550715 e6be9bd6a9 7022
owner: 66180568@N07
title: Dec 2, 2011. ??????... (In the forest...)
originalsecret: null
originalformat: null
o_height: null
o_width: null
datetaken: 2011-11-30 09:15:08
dateupload: 1322752447
tags: street city blackandwhite animal cat hongkong nikon snap nikond90
license: 0
latitude: 22.411249
longitude: 114.153541
accuracy: 2
views: 29
interestingness: 52 out of 268

photo: 6441061439 d8d345be31 7159
owner: 50769697@N02
title: West Midlands Police BMW 330d BX11 KPK (OPS01)
originalsecret: 3d004c1f0c
originalformat: jpg
o_height: 2736
o_width: 3648
datetaken: 2011-12-02 11:37:33
dateupload: 1322825853
tags: west police bmw midlands 330d bx11kpk ops01
license: 0
latitude: 52.483721
longitude: -1.894621
accuracy: 16
views: 64
interestingness: 53 out of 268

photo: 6439101571 bb4b7fe602 7168
owner: 27204141@N05
title: North Saskatchewan River
originalsecret: a473c1d552
originalformat: jpg
o_height: 669
o_width: 1000
datetaken: 2011-12-01 16:55:14
dateupload: 1322787232
tags: cars river edmonton trains staircase alberta bluehour lrt northsaskatchewan highlevelbridge lrtbridge menziesbridge andpedestrians
license: 0
latitude: 53.533325
longitude: -113.510929
accuracy: 16
views: 55
interestingness: 54 out of 268

photo: 6441181839 92721e7699 7144
owner: 40983876@N08
title: When you go down to the Woods today...
originalsecret: null
originalformat: null
o_height: null
o_width: null
datetaken: 2011-10-27 12:44:30
dateupload: 1322828387
tags: 
license: 0
latitude: 54.934859
longitude: -1.723351
accuracy: 14
views: 22
interestingness: 55 out of 268

photo: 6439631189 304d7340bb 7031
owner: 21645402@N08
title: VLCwinter-1NV_8995
originalsecret: null
originalformat: null
o_height: null
o_width: null
datetaken: 2011-12-01 16:20:49
dateupload: 1322796137
tags: mountain lake club vancouver river washington row columbiariver crew rowing vlc sthelens mtsthelens naturesfinest vancouverlake
license: 0
latitude: 45.671251
longitude: -122.742628
accuracy: 16
views: 54
interestingness: 56 out of 268

photo: 6436612859 cd683e804c 7150
owner: 58213473@N05
title: IMG_2777 Seafield 1st Dec 2011
originalsecret: null
originalformat: null
o_height: null
o_width: null
datetaken: 2011-12-01 14:52:26
dateupload: 1322753357
tags: seascape water shutter seascapeseafieldquiltyclareirelandslow speedmilky
license: 0
latitude: 52.807924
longitude: -9.491329
accuracy: 13
views: 25
interestingness: 57 out of 268

photo: 6437286693 8d3b1b2251 7143
owner: 45005123@N03
title: Preston beach, Torbay
originalsecret: 86554ed7e6
originalformat: jpg
o_height: 2592
o_width: 3456
datetaken: 2011-12-01 02:12:22
dateupload: 1322762283
tags: thurs1stdec
license: 0
latitude: 50.445808
longitude: -3.556823
accuracy: 11
views: 12
interestingness: 58 out of 268

photo: 6440221265 bcd25a5341 7172
owner: 98663457@N00
title: My show at the Pence Gallery
originalsecret: ecca6a5c3f
originalformat: jpg
o_height: 1536
o_width: 2048
datetaken: 2011-12-01 16:06:05
dateupload: 1322806628
tags: 
license: 0
latitude: 38.543428
longitude: -121.742216
accuracy: 16
views: 89
interestingness: 59 out of 268

photo: 6437289339 9ac56d4f33 7173
owner: 45005123@N03
title: More birdies ( Norman and Norma )
originalsecret: c602ef287a
originalformat: jpg
o_height: 925
o_width: 2131
datetaken: 2011-12-01 02:15:59
dateupload: 1322762321
tags: thurs1stdec
license: 0
latitude: 50.442966
longitude: -3.55648
accuracy: 11
views: 14
interestingness: 60 out of 268

photo: 6436065671 d6a1042ce4 7033
owner: 50769697@N02
title: West Midlands Police Vauxhall Astra SH59 JKJ (D104)
originalsecret: d5797a0d78
originalformat: jpg
o_height: 2736
o_width: 3648
datetaken: 2011-12-01 09:44:44
dateupload: 1322744770
tags: west police astra vauxhall midlands d104 sh59jkj
license: 0
latitude: 52.482476
longitude: -1.897507
accuracy: 16
views: 28
interestingness: 61 out of 268

photo: 6441061427 a8f9b51e4e 7017
owner: 50769697@N02
title: West Midlands Police BMW 330d BX11 KPK (OPS01)
originalsecret: b2afc37981
originalformat: jpg
o_height: 2736
o_width: 3648
datetaken: 2011-12-02 11:37:33
dateupload: 1322825853
tags: west police bmw midlands 330d bx11kpk ops01
license: 0
latitude: 52.483708
longitude: -1.89461
accuracy: 16
views: 57
interestingness: 62 out of 268

photo: 6435428259 7c2394f8db 7035
owner: 90425101@N00
title: Dec 1st - LEGO Star Wars Advent Calendar 2011
originalsecret: 64f43b159f
originalformat: jpg
o_height: 2736
o_width: 3648
datetaken: 2011-12-01 09:06:43
dateupload: 1322731031
tags: starwars advent lego 1stdec day1
license: 2
latitude: 52.408479
longitude: -1.600946
accuracy: 16
views: 121
interestingness: 63 out of 268

photo: 6435254339 169b6a640b 7157
owner: 37250058@N07
title: 1st DEC | Light the Darkness
originalsecret: 4c477cdfba
originalformat: jpg
o_height: 2736
o_width: 3648
datetaken: 2010-12-06 18:08:46
dateupload: 1322726851
tags: christmas xmas light holiday espoo finland season candles december advent candle darkness decoration lantern holidayseason polarnight
license: 2
latitude: 60.154188
longitude: 24.642924
accuracy: 16
views: 54
interestingness: 64 out of 268

photo: 6438520797 3e6ceeb064 7166
owner: 16750025@N07
title: day 335. 1st dec 2011.
originalsecret: 77165b797b
originalformat: jpg
o_height: 3693
o_width: 2831
datetaken: 2011-12-01 22:07:26
dateupload: 1322778631
tags: 3652011
license: 0
latitude: 53.851181
longitude: -1.814849
accuracy: 11
views: 48
interestingness: 65 out of 268

photo: 6436465463 95532f15db 7008
owner: 46079256@N04
title: My USB desktop Christmas Tree
originalsecret: 0bba424e45
originalformat: jpg
o_height: 2574
o_width: 1860
datetaken: 2011-12-01 14:10:26
dateupload: 1322751188
tags: tree lights christmastree sparkle december1st picnik iphone advent1 iphoneography
license: 0
latitude: 53.764166
longitude: -2.708
accuracy: 16
views: 21
interestingness: 66 out of 268

photo: 6440819169 f4637283d9 7161
owner: 37250058@N07
title: 2nd DEC | Anybody Home?
originalsecret: 4eab0f37ea
originalformat: jpg
o_height: 3648
o_width: 2736
datetaken: 2010-12-12 13:22:05
dateupload: 1322820512
tags: christmas xmas winter holiday snow tree home forest espoo suomi finland season december advent birdhouse birch finlandia holidayseason
license: 2
latitude: 60.152319
longitude: 24.640638
accuracy: 15
views: 61
interestingness: 67 out of 268

photo: 6439755359 c09b1131f1 7149
owner: 61158472@N00
title: Okamoto 2 Dec 2011
originalsecret: 86c35fde62
originalformat: jpg
o_height: 612
o_width: 612
datetaken: 2011-12-02 12:54:44
dateupload: 1322798084
tags: japan museum tokyo iphone okamoto ??? ??? ???? setagayaku ?? ?? ???????? instagramapp seikadobunkoartmuseum goryeodynastyporcelain ??????? ????
license: 0
latitude: 35.622868
longitude: 139.619273
accuracy: 16
views: 13
interestingness: 68 out of 268

photo: 6438506605 b8dc04dee2 7147
owner: 9510935@N02
title: 20111201_occupy_8754
originalsecret: null
originalformat: null
o_height: null
o_width: null
datetaken: 2011-12-01 23:27:21
dateupload: 1322778441
tags: berlin germany protest occupy avaberlin americanvoicesabroadberlin occupywallstreet weare99 99congressionalspeakout
license: 0
latitude: 52.492553
longitude: 13.387607
accuracy: 15
views: 110
interestingness: 69 out of 268

photo: 6439520229 27f4c391d5 7146
owner: 61158472@N00
title: Tamagawa 2 Dec 2011
originalsecret: 0c32e852a7
originalformat: jpg
o_height: 612
o_width: 612
datetaken: 2011-12-02 11:52:58
dateupload: 1322794378
tags: food japan restaurant tokyo okura tonkatsu iphone tamagawa ???? ??? ???? setagayaku ?? ?? instagramapp
license: 0
latitude: 35.616879
longitude: 139.62579
accuracy: 16
views: 20
interestingness: 70 out of 268

photo: 6437645215 9e225258bb 7035
owner: 44009671@N02
title: Yarmouth Mariners read to South Centennial students
originalsecret: null
originalformat: null
o_height: null
o_width: null
datetaken: 2011-12-01 10:47:24
dateupload: 1322767233
tags: hockey reading library books yarmouth literacy westerncountiesregionallibrary wowreadingchallenge southcentennialschool yarmouthmariners junioratierii
license: 0
latitude: 43.824387
longitude: -66.11834
accuracy: 14
views: 17
interestingness: 71 out of 268

photo: 6436622697 feed2426b1 7021
owner: 58213473@N05
title: IMG_2747 Quilty 1st Dec 2011
originalsecret: null
originalformat: null
o_height: null
o_width: null
datetaken: 2011-12-01 14:43:27
dateupload: 1322753496
tags: seascape speed shutter seascapeatlanticslow seafieldquiltyireland
license: 0
latitude: 52.808883
longitude: -9.492874
accuracy: 13
views: 22
interestingness: 72 out of 268

photo: 6440594259 a9910f53bb 7014
owner: 65217511@N06
title: Spirit of the Union...  UAE's 40th National Day, 2nd Dec
originalsecret: null
originalformat: null
o_height: null
o_width: null
datetaken: 2008-03-11 18:16:16
dateupload: 1322814752
tags: sunset sky architecture landscape flag sony uae abudhabi dome unitedarabemirates nationalday spiritoftheunion 40thnationalday
license: 0
latitude: 24.476993
longitude: 54.332199
accuracy: 11
views: 36
interestingness: 73 out of 268

photo: 6439706257 4f5c4abb49 7035
owner: 61158472@N00
title: Okamoto 2 Dec 2011
originalsecret: b27e88b7c3
originalformat: jpg
o_height: 612
o_width: 612
datetaken: 2011-12-02 12:41:49
dateupload: 1322797309
tags: japan museum square tokyo iphone okamoto ??? ??? ???? setagayaku ?? ???????? instagramapp seikadobunkoartmuseum goryeodynastyporcelain ??????? ???? ?? 11??
license: 0
latitude: 35.622868
longitude: 139.619273
accuracy: 16
views: 15
interestingness: 74 out of 268

photo: 6439486635 73f9380e5d 7147
owner: 61158472@N00
title: Tamagawa 2 Dec 2011
originalsecret: 35ea0848d7
originalformat: jpg
o_height: 612
o_width: 612
datetaken: 2011-12-02 11:44:13
dateupload: 1322793853
tags: food japan restaurant tokyo okura tonkatsu iphone tamagawa ???? ??? ???? setagayaku ?? ?? instagramapp
license: 0
latitude: 35.616879
longitude: 139.62579
accuracy: 16
views: 13
interestingness: 75 out of 268

photo: 6438839825 c5cf2ab038 7019
owner: 33883192@N05
title: Winter Light
originalsecret: bfd837d9c1
originalformat: jpg
o_height: 683
o_width: 1024
datetaken: 2011-12-01 16:02:17
dateupload: 1322783171
tags: light lamp composite snowflakes december collingwood nik cep4 3652011
license: 3
latitude: 44.482877
longitude: -80.223332
accuracy: 16
views: 63
interestingness: 76 out of 268

photo: 6438506841 38bb728141 7165
owner: 9510935@N02
title: 20111201_occupy_8762
originalsecret: null
originalformat: null
o_height: null
o_width: null
datetaken: 2011-12-01 23:27:24
dateupload: 1322778444
tags: berlin germany protest occupy avaberlin americanvoicesabroadberlin occupywallstreet weare99 99congressionalspeakout
license: 0
latitude: 52.491933
longitude: 13.387672
accuracy: 15
views: 34
interestingness: 77 out of 268

photo: 6441087403 4732b7d261 7034
owner: 59898141@N06
title: I'm a Homewrecker
originalsecret: f5576dd460
originalformat: jpg
o_height: 2733
o_width: 2734
datetaken: 2011-10-05 13:20:47
dateupload: 1322826418
tags: pink sleeping baby nature animal closeup square three nikon raw babies nest newengland newhampshire nh mice squareformat triplets mousenest sleepingbabies babymice veryyoung walpolenh distanthill walpolenewhampshire d3100 nikond3100 distanthillgardens
license: 0
latitude: 43.085062
longitude: -72.364969
accuracy: 13
views: 28
interestingness: 78 out of 268

photo: 6440714483 b0b83dd54c 7024
owner: 8868440@N04
title: Don & Sandy married Dec 3, 1965
originalsecret: 018f07739e
originalformat: jpg
o_height: 1156
o_width: 980
datetaken: 2011-12-02 01:21:19
dateupload: 1322817812
tags: 
license: 0
latitude: 41.761068
longitude: -124.183959
accuracy: 7
views: 9
interestingness: 79 out of 268

photo: 6439995963 d8dcc21ed7 7155
owner: 72098626@N00
title: Central Park Dance Skaters, Oct 2011 - 22
originalsecret: 8f0583cda4
originalformat: jpg
o_height: 4928
o_width: 3264
datetaken: 2011-10-23 15:32:28
dateupload: 1322802260
tags: newyork sunglasses dancers centralpark manhattan tights skate ponytail centralparkdanceskaters danceskaters
license: 1
latitude: 40.773333
longitude: -73.971334
accuracy: 16
views: 47
interestingness: 80 out of 268

photo: 6439785875 71b1ed924e 7173
owner: 61158472@N00
title: Okamoto 2 Dec 2011
originalsecret: b43b94d34e
originalformat: jpg
o_height: 612
o_width: 612
datetaken: 2011-12-02 13:02:23
dateupload: 1322798543
tags: japan museum tokyo iphone okamoto ??? ??? ???? setagayaku ?? ???????? instagramapp seikadobunkoartmuseum goryeodynastyporcelain ??????? ??????
license: 0
latitude: 35.622868
longitude: 139.619273
accuracy: 16
views: 18
interestingness: 81 out of 268

photo: 6434863921 b27529888e 7010
owner: 23272445@N05
title: eternal sculptures
originalsecret: 5bec65966d
originalformat: jpg
o_height: 1983
o_width: 2976
datetaken: 2009-12-06 12:12:05
dateupload: 1322718395
tags: history hampi vijayanagara
license: 0
latitude: 15.32345
longitude: 76.472381
accuracy: 11
views: 66
interestingness: 82 out of 268

photo: 6441061445 de8d0ef9f7 7030
owner: 50769697@N02
title: West Midlands Police BMW 330d BX11 KPK (OPS01)
originalsecret: 5a90e386b7
originalformat: jpg
o_height: 2736
o_width: 3648
datetaken: 2011-12-02 10:23:06
dateupload: 1322825853
tags: west police bmw midlands 330d bx11kpk ops01
license: 0
latitude: 52.483711
longitude: -1.894664
accuracy: 16
views: 40
interestingness: 83 out of 268

photo: 6440835481 65fdc5b7ec 7147
owner: 36627296@N00
title: Fri 02 Dec 2011: View NW at 09:05GMT
originalsecret: null
originalformat: null
o_height: null
o_width: null
datetaken: 2011-12-02 09:05:21
dateupload: 1322820903
tags: weather clouds birmingham climate midlands jcweatherman sellyoak sellypark bsows
license: 0
latitude: 52.440184
longitude: -1.911706
accuracy: 14
views: 24
interestingness: 84 out of 268

photo: 6440520835 d7257b1b31 7150
owner: 90425101@N00
title: Dec 2nd - LEGO Star Wars Advent Calendar 2011
originalsecret: d2e786c7b4
originalformat: jpg
o_height: 2736
o_width: 3648
datetaken: 2011-12-02 07:57:23
dateupload: 1322813029
tags: day2 starwars advent lego 2nddec
license: 2
latitude: 52.408479
longitude: -1.600946
accuracy: 16
views: 81
interestingness: 85 out of 268

photo: 6438233007 3e7454e5fd 7030
owner: 55005522@N00
title: Red Cloud Glow Sunset Dec 1st 2011 02
originalsecret: c84f9cf1c8
originalformat: jpg
o_height: 3670
o_width: 5504
datetaken: 2011-12-01 17:38:43
dateupload: 1322774906
tags: sunset red clouds glow
license: 0
latitude: 52.285415
longitude: -9.723737
accuracy: 15
views: 15
interestingness: 86 out of 268

photo: 6437116647 89760dae14 7021
owner: 70485446@N00
title: 01 DEC 2011
originalsecret: null
originalformat: null
o_height: null
o_width: null
datetaken: 2011-12-01 13:39:52
dateupload: 1322760079
tags: scotland edinburgh dailyphoto scottmonument ??? grd3 december2011 ricohgrdigitaliii
license: 0
latitude: 55.95153
longitude: -3.195691
accuracy: 14
views: 24
interestingness: 87 out of 268

photo: 6436729061 f19ebbe023 7007
owner: 28650594@N03
title: Day of Commitment Ceremony [Image 11 of 19]
originalsecret: 884c315d80
originalformat: jpg
o_height: 2848
o_width: 4288
datetaken: 2010-04-24 05:10:34
dateupload: 1322754923
tags: austin general military president iraq palace medal baghdad iq primeminister commitment vicepresident alfaw ond joebiden jalaltalabani usfi nourialmaliki operationnewdawn unitedstatesforcesiraq barrieau
license: 4
latitude: 33.328151
longitude: 44.386028
accuracy: 11
views: 46
interestingness: 88 out of 268

photo: 6440296929 0c959b26c7 7154
owner: 26371083@N05
title: Snowed in car
originalsecret: b8fa62cd86
originalformat: jpg
o_height: 2048
o_width: 1536
datetaken: 2011-12-01 15:59:08
dateupload: 1322808230
tags: cold yellowknife
license: 0
latitude: 62.450701
longitude: -114.387373
accuracy: 14
views: 99
interestingness: 89 out of 268

photo: 6434394615 9e8ef2f7d4 7013
owner: 25568077@N08
title: Projector Project V - Thurs. Dec. 8, 2011 @ Vermillion
originalsecret: 3b31fd1b27
originalformat: jpg
o_height: 1200
o_width: 1500
datetaken: 2011-11-29 20:48:49
dateupload: 1322710859
tags: seattle art vermillion phantasmagoria blairwilson robertzverina projectorproject robztv emeraldreels
license: 1
latitude: 47.614218
longitude: -122.318029
accuracy: 16
views: 94
interestingness: 90 out of 268

photo: 6439791011 ce639939d1 7148
owner: 61158472@N00
title: Okamoto 2 Dec 2011
originalsecret: cb00ffafd1
originalformat: jpg
o_height: 612
o_width: 612
datetaken: 2011-12-02 13:03:44
dateupload: 1322798624
tags: japan museum tokyo iphone okamoto ??? ??? ???? setagayaku ?? ???????? instagramapp seikadobunkoartmuseum goryeodynastyporcelain ??????? ???? ??? ?????
license: 0
latitude: 35.622868
longitude: 139.619273
accuracy: 16
views: 16
interestingness: 91 out of 268

photo: 6439766471 8b650f6998 7013
owner: 61158472@N00
title: Okamoto 2 Dec 2011
originalsecret: 35f3f5b779
originalformat: jpg
o_height: 612
o_width: 612
datetaken: 2011-12-02 12:57:38
dateupload: 1322798258
tags: japan museum tokyo iphone okamoto ??? ??? ???? setagayaku ?? ???????? instagramapp seikadobunkoartmuseum goryeodynastyporcelain ??????? ?????
license: 0
latitude: 35.622868
longitude: 139.619273
accuracy: 16
views: 21
interestingness: 92 out of 268

photo: 6438896419 ffbdceb5cd 7027
owner: 23326695@N05
title: Dec 1st
originalsecret: f06959c2d0
originalformat: jpg
o_height: 2448
o_width: 2448
datetaken: 2011-12-01 23:57:39
dateupload: 1322784048
tags: leeds mcdonalds hipstamatic
license: 0
latitude: 53.914
longitude: -1.753833
accuracy: 16
views: 12
interestingness: 93 out of 268

photo: 6440017755 fb56ff267c 7018
owner: 72098626@N00
title: Central Park Dance Skaters, Oct 2011 - 28
originalsecret: b71f1ed397
originalformat: jpg
o_height: 4432
o_width: 2954
datetaken: 2011-10-23 15:40:24
dateupload: 1322802674
tags: newyork ipod dancers centralpark manhattan helmet skate earphone shorts centralparkdanceskaters danceskaters
license: 1
latitude: 40.773333
longitude: -73.971334
accuracy: 16
views: 31
interestingness: 94 out of 268

photo: 6439968707 8772db856f 7018
owner: 72098626@N00
title: Central Park Dance Skaters, Oct 2011 - 26
originalsecret: f46c898e63
originalformat: jpg
o_height: 3264
o_width: 4928
datetaken: 2011-10-23 15:37:36
dateupload: 1322801717
tags: newyork dancers mayor centralpark manhattan skate pointing centralparkdanceskaters themayor danceskaters
license: 1
latitude: 40.773333
longitude: -73.971334
accuracy: 16
views: 7
interestingness: 95 out of 268

photo: 6439868499 571825551e 7014
owner: 48165703@N00
title: Sunset 01 Dec 11 - Pacific Beach, CA
originalsecret: 6b9fcb6b89
originalformat: jpg
o_height: 1440
o_width: 2160
datetaken: 2011-12-01 16:48:03
dateupload: 1322799900
tags: ocean california pink sunset red sky orange sun beach nature water yellow clouds gold golden evening coast la twilight san darkness purple pacific dusk sunsets diego beaches coastline jolla tonightssunset120111
license: 0
latitude: 32.806272
longitude: -117.263431
accuracy: 16
views: 18
interestingness: 96 out of 268

photo: 6439814049 d0576837fd 7171
owner: 61158472@N00
title: Okamoto 2 Dec 2011
originalsecret: ed1fb1b55c
originalformat: jpg
o_height: 612
o_width: 612
datetaken: 2011-12-02 13:09:38
dateupload: 1322798978
tags: japan museum tokyo iphone okamoto ??? ??? ???? setagayaku ?? ???????? instagramapp seikadobunkoartmuseum goryeodynastyporcelain ??????? ??????? ?????? ??????
license: 0
latitude: 35.622868
longitude: 139.619273
accuracy: 16
views: 28
interestingness: 97 out of 268

photo: 6439662125 5c8f07bb7d 7174
owner: 61158472@N00
title: Okamoto 2 Dec 2011
originalsecret: e146c9c251
originalformat: jpg
o_height: 612
o_width: 612
datetaken: 2011-12-02 12:30:43
dateupload: 1322796643
tags: japan museum tokyo iphone okamoto ??? ??? ???? setagayaku ?? ???????? instagramapp seikadobunkoartmuseum
license: 0
latitude: 35.622868
longitude: 139.619273
accuracy: 16
views: 10
interestingness: 98 out of 268

photo: 6439650249 3cc641a113 7157
owner: 61158472@N00
title: Okamoto 2 Dec 2011
originalsecret: d4ae18c408
originalformat: jpg
o_height: 612
o_width: 612
datetaken: 2011-12-02 12:27:30
dateupload: 1322796450
tags: japan museum tokyo iphone okamoto ??? ??? ???? setagayaku ?? ???????? instagramapp seikadobunkoartmuseum
license: 0
latitude: 35.622868
longitude: 139.619273
accuracy: 16
views: 8
interestingness: 99 out of 268

photo: 6439525063 cb35e01f3e 7018
owner: 61158472@N00
title: Tamagawa 2 Dec 2011
originalsecret: 0e77b03233
originalformat: jpg
o_height: 612
o_width: 612
datetaken: 2011-12-02 11:54:11
dateupload: 1322794451
tags: food japan restaurant tokyo okura tonkatsu iphone tamagawa ???? ??? ???? setagayaku ?? ?? instagramapp
license: 0
latitude: 35.616879
longitude: 139.62579
accuracy: 16
views: 18
interestingness: 100 out of 268

photo: 6439482449 a90d16ca4d 7009
owner: 61158472@N00
title: Tamagawa 2 Dec 2011
originalsecret: 1da6db2eb9
originalformat: jpg
o_height: 612
o_width: 612
datetaken: 2011-12-02 11:43:03
dateupload: 1322793783
tags: tree japan tokyo ?? ginkgobiloba iphone tamagawa ??? ???? setagayaku ?? instagramapp
license: 0
latitude: 35.614597
longitude: 139.625211
accuracy: 16
views: 10
interestingness: 101 out of 268

photo: 6439470701 747daaef09 7162
owner: 76458974@N00
title: Part #2 of the article about the Holiday Tournement, Dec. 1981
originalsecret: 04a702dc3f
originalformat: jpg
o_height: 2552
o_width: 2663
datetaken: 1981-12-01 00:00:00
dateupload: 1322793599
tags: ohio holiday mike wrestling 1981 todd dickie bha brookville brookvillestar
license: 0
latitude: 39.779848
longitude: -84.064378
accuracy: 15
views: 13
interestingness: 102 out of 268

photo: 6439351201 4d7b58fc77 7146
owner: 52342865@N07
title: Dunsmure Dec 1 2011
originalsecret: null
originalformat: null
o_height: null
o_width: null
datetaken: 2011-12-01 20:16:41
dateupload: 1322791313
tags: ontario hamilton picnik hpc hfg canon1740l iamcanadian 50plus christmasxmas photographybeginners canon5dmkll hamiltonsaggressivephotographers roseysexposures
license: 0
latitude: 43.24607
longitude: -79.825651
accuracy: 16
views: 32
interestingness: 103 out of 268

photo: 6439298687 c3f044a0bf 7155
owner: 70606346@N00
title: 304/365 [LEVITATE] Towered
originalsecret: 4671426955
originalformat: jpg
o_height: 2832
o_width: 4256
datetaken: 2011-12-01 17:47:19
dateupload: 1322790439
tags: portrait self nikon waterfront towers levitation d3 levitate project365 365days strobist 1424mmf28 365point2 levitology yowayowainspired
license: 3
latitude: 49.288851
longitude: -123.118329
accuracy: 15
views: 37
interestingness: 104 out of 268

photo: 6438405431 d7e3bb7311 7002
owner: 36853267@N06
title: American Kestrel
originalsecret: null
originalformat: null
o_height: null
o_width: null
datetaken: 2011-12-01 13:19:43
dateupload: 1322777103
tags: 
license: 0
latitude: 41.917479
longitude: -87.632188
accuracy: 13
views: 41
interestingness: 105 out of 268

photo: 6437850221 b419521e55 7145
owner: 9584894@N03
title: Dec 1st, 2011 - Christmas is coming...
originalsecret: null
originalformat: null
o_height: null
o_width: null
datetaken: 2011-12-01 18:59:11
dateupload: 1322770024
tags: santa christmas bon red adorno navidad rojo san december decoration fiestas noel ornament nicolas papa claus no?l natale rosso dicembre babbo nadal diciembre festes decorazione joyeux decoracion natalizio natalizi
license: 0
latitude: 39.482711
longitude: -0.441989
accuracy: 11
views: 12
interestingness: 106 out of 268

photo: 6436729971 59480b78bf 7145
owner: 28650594@N03
title: Day of Commitment Ceremony [Image 15 of 19]
originalsecret: 5dc551642b
originalformat: jpg
o_height: 2848
o_width: 4288
datetaken: 2011-12-01 13:24:04
dateupload: 1322754935
tags: austin soldier army general military president iraq palace medal baghdad iq primeminister commitment vicepresident alfaw ond joebiden jalaltalabani usfi nourialmaliki vicepresidentbiden operationnewdawn unitedstatesforcesiraq barrieau
license: 4
latitude: 33.328151
longitude: 44.386028
accuracy: 11
views: 60
interestingness: 107 out of 268

photo: 6436729777 d85a62c6ed 7024
owner: 28650594@N03
title: Day of Commitment Ceremony [Image 4 of 19]
originalsecret: 8e7e6a0d3a
originalformat: jpg
o_height: 2848
o_width: 4288
datetaken: 2010-04-24 06:13:11
dateupload: 1322754932
tags: austin general military president iraq palace medal baghdad iq primeminister commitment vicepresident alfaw ond joebiden jalaltalabani usfi nourialmaliki vicepresidentbiden operationnewdawn unitedstatesforcesiraq barrieau
license: 4
latitude: 33.328151
longitude: 44.386028
accuracy: 11
views: 45
interestingness: 108 out of 268

photo: 6436729527 4d1882a689 7175
owner: 28650594@N03
title: Day of Commitment Ceremony [Image 14 of 19]
originalsecret: 4bf7885a06
originalformat: jpg
o_height: 2848
o_width: 4288
datetaken: 2011-12-01 13:53:26
dateupload: 1322754929
tags: austin soldier army general military president iraq palace medal baghdad iq primeminister commitment vicepresident alfaw ond joebiden jalaltalabani usfi nourialmaliki vicepresidentbiden operationnewdawn unitedstatesforcesiraq barrieau
license: 4
latitude: 33.328151
longitude: 44.386028
accuracy: 11
views: 60
interestingness: 109 out of 268

photo: 6435438903 829d0fc020 7028
owner: 55492335@N08
title: Tahoe at 15
originalsecret: 9f5d3381f6
originalformat: jpg
o_height: 2560
o_width: 3200
datetaken: 2011-11-11 15:57:54
dateupload: 1322731279
tags: jack russell tahoe terrier
license: 0
latitude: 46.98498
longitude: -124.144692
accuracy: 16
views: 9
interestingness: 110 out of 268

photo: 6440066003 0da0b4ab90 7021
owner: 72098626@N00
title: Central Park Dance Skaters, Oct 2011 - 21
originalsecret: ab09073e63
originalformat: jpg
o_height: 3553
o_width: 2369
datetaken: 2011-10-23 15:31:58
dateupload: 1322803541
tags: newyork cane dancers centralpark manhattan skate earphones centralparkdanceskaters danceskaters
license: 1
latitude: 40.773333
longitude: -73.971334
accuracy: 16
views: 27
interestingness: 111 out of 268

photo: 6439780517 8de8227ba0 7021
owner: 25139087@N05
title: Boston Skyline
originalsecret: null
originalformat: null
o_height: null
o_width: null
datetaken: 2011-12-01 16:42:03
dateupload: 1322798461
tags: boston skyline night river ma
license: 0
latitude: 42.356974
longitude: -71.092572
accuracy: 14
views: 17
interestingness: 112 out of 268

photo: 6438629593 1f8932ebd3 7031
owner: 66127949@N00
title: Dupont
originalsecret: 7c0f20b019
originalformat: jpg
o_height: 890
o_width: 768
datetaken: 2011-11-30 15:19:16
dateupload: 1322780072
tags: street polaroid washingtondc dc empty retro dupontcircle connecticutave flickrandroidapp:filter=none
license: 3
latitude: 38.910311
longitude: -77.043825
accuracy: 16
views: 24
interestingness: 113 out of 268

photo: 6438513301 1c28443a93 7149
owner: 52675324@N08
title: 2 Dec., 2011 Morning
originalsecret: d97cfecee3
originalformat: jpg
o_height: 480
o_width: 640
datetaken: 2011-12-02 07:18:55
dateupload: 1322778530
tags: sky cloud japan tokyo shot daily shinagawa eyefi dschx9v
license: 0
latitude: 35.608638
longitude: 139.718872
accuracy: 16
views: 17
interestingness: 114 out of 268

photo: 6438512365 259a22de68 7005
owner: 52675324@N08
title: 2 Dec., 2011 Morning
originalsecret: 50833af56f
originalformat: jpg
o_height: 480
o_width: 640
datetaken: 2011-12-02 06:37:28
dateupload: 1322778517
tags: sky cloud japan tokyo shot daily shinagawa eyefi dschx9v
license: 0
latitude: 35.608638
longitude: 139.718872
accuracy: 16
views: 8
interestingness: 115 out of 268

photo: 6438218469 e0c4699fff 7142
owner: 36627296@N00
title: Thu 01 Dec 2011: View SE at 08:09GMT
originalsecret: null
originalformat: null
o_height: null
o_width: null
datetaken: 2011-12-01 08:09:29
dateupload: 1322774718
tags: weather clouds birmingham climate midlands jcweatherman sellyoak sellypark bsows
license: 0
latitude: 52.439256
longitude: -1.912264
accuracy: 14
views: 26
interestingness: 116 out of 268

photo: 6437799349 e77a415f7a 7156
owner: 39730574@N07
title: [Reunited] Thu, Dec 1st, 2011 Lost Male Dog - Cypress Grove Rd, Templeogue, Dublin
originalsecret: null
originalformat: null
o_height: null
o_width: null
datetaken: 2011-12-01 19:55:58
dateupload: 1322769358
tags: dublin dog lost december grove cypress rd 2011 lostdogcypressgroverddublin
license: 0
latitude: 53.299546
longitude: -6.3096
accuracy: 16
views: 7
interestingness: 117 out of 268

photo: 6436279913 05441606b1 7021
owner: 39730574@N07
title: Thu, Dec 1st, 2011 Lost Male Dog - Custom House Quay, Waterford
originalsecret: null
originalformat: null
o_height: null
o_width: null
datetaken: 2011-12-01 14:07:45
dateupload: 1322748465
tags: dog house lost december quay custom waterford 2011 lostdogcustomhousequaywaterford
license: 0
latitude: 52.26096
longitude: -7.107682
accuracy: 16
views: 11
interestingness: 118 out of 268

photo: 6436222261 65968b9025 7021
owner: 14529688@N08
title: page18 - Dec. 13, 1970 Arlington
originalsecret: 7473bc2178
originalformat: jpg
o_height: 2232
o_width: 1700
datetaken: 1970-12-13 08:51:47
dateupload: 1322747507
tags: arlington geotagged photo albums va 1970 mayers geo:lat=38893015 geo:lon=77101591
license: 0
latitude: 38.893015
longitude: -77.101591
accuracy: 16
views: 1
interestingness: 119 out of 268

photo: 6435427555 53dcef74ab 7146
owner: 90425101@N00
title: Dec 1st - LEGO Star Wars Advent Calendar 2011
originalsecret: 583f30c260
originalformat: jpg
o_height: 2736
o_width: 3648
datetaken: 2011-12-01 09:03:56
dateupload: 1322731015
tags: starwars advent lego 1stdec day1
license: 2
latitude: 52.408479
longitude: -1.600946
accuracy: 16
views: 68
interestingness: 120 out of 268

photo: 6439996493 83f4f245c5 7166
owner: 72098626@N00
title: Central Park Dance Skaters, Oct 2011 - 29
originalsecret: 4b6cef0623
originalformat: jpg
o_height: 2936
o_width: 4405
datetaken: 2011-10-23 15:40:38
dateupload: 1322802270
tags: newyork sunglasses dancers centralpark manhattan skate centralparkdanceskaters danceskaters
license: 1
latitude: 40.773333
longitude: -73.971334
accuracy: 16
views: 20
interestingness: 121 out of 268

photo: 6438436585 1db3ace4b9 7151
owner: 69137106@N02
title: D026: 1 Dec 2011
originalsecret: null
originalformat: null
o_height: null
o_width: null
datetaken: 2011-12-01 03:59:02
dateupload: 1322777532
tags: christmas city london night lights bokeh 365 project365
license: 0
latitude: 51.503293
longitude: -0.01605
accuracy: 13
views: 35
interestingness: 122 out of 268

photo: 6437958173 c2638f30a7 7155
owner: 39730574@N07
title: Thu, Dec 1st, 2011 Found Female Cat - High St, Ballybricken, Waterford
originalsecret: null
originalformat: null
o_height: null
o_width: null
datetaken: 2011-12-01 20:31:18
dateupload: 1322771478
tags: st cat found high december waterford 2011 foundcathighstwaterford
license: 0
latitude: 52.260724
longitude: -7.110204
accuracy: 16
views: 2
interestingness: 123 out of 268

photo: 6437674553 7e49bf1ec1 7028
owner: 71148269@N02
title: Bo Challenge Dec 1
originalsecret: null
originalformat: null
o_height: null
o_width: null
datetaken: 2011-12-01 15:12:14
dateupload: 1322767623
tags: bo challenge
license: 0
latitude: 33.771905
longitude: -118.166842
accuracy: 14
views: 24
interestingness: 124 out of 268

photo: 6435427891 98eb963631 7164
owner: 90425101@N00
title: Dec 1st - LEGO Star Wars Advent Calendar 2011
originalsecret: 8d11b732df
originalformat: jpg
o_height: 2736
o_width: 3648
datetaken: 2011-12-01 09:05:08
dateupload: 1322731024
tags: starwars advent lego 1stdec day1
license: 2
latitude: 52.408479
longitude: -1.600946
accuracy: 16
views: 99
interestingness: 125 out of 268

photo: 6434723005 8e7e2fe267 7156
owner: 14170629@N08
title: 
originalsecret: 4c0af9cd23
originalformat: jpg
o_height: 2576
o_width: 1920
datetaken: 2009-11-03 13:11:59
dateupload: 1322715785
tags: massachusetts maryreed leominster pinegrovecemetery jamesburditt marytburditt marytylerburditt marytylerreed
license: 0
latitude: 42.531255
longitude: -71.75556
accuracy: 16
views: 0
interestingness: 126 out of 268

photo: 6438403153 ac96560bce 7035
owner: 36853267@N06
title: Long-tailed Duck
originalsecret: null
originalformat: null
o_height: null
o_width: null
datetaken: 2011-12-01 13:13:13
dateupload: 1322777074
tags: 
license: 0
latitude: 41.91684
longitude: -87.632102
accuracy: 13
views: 50
interestingness: 127 out of 268

photo: 6438020327 dc03ae932e 7030
owner: 22154104@N00
title: 1. dec - Kingfisher
originalsecret: 5a2859c0b1
originalformat: jpg
o_height: 2816
o_width: 2112
datetaken: 2011-12-01 09:57:53
dateupload: 1322772267
tags: beer december drink kingfisher lager pakkekalender kihoskh
license: 1
latitude: 55.672165
longitude: 12.557667
accuracy: 16
views: 6
interestingness: 128 out of 268

photo: 6436676195 915a4f174b 7015
owner: 39730574@N07
title: [Reunited] Thu, Dec 1st, 2011 Found Female Dog - Tiknock, Cobh, Cork
originalsecret: null
originalformat: null
o_height: null
o_width: null
datetaken: 2011-12-01 15:43:45
dateupload: 1322754225
tags: dog found december cork 2011 founddogtiknockcork tiknock
license: 0
latitude: 51.859001
longitude: -8.294034
accuracy: 16
views: 18
interestingness: 129 out of 268

photo: 6434580705 7667a1f6c9 7010
owner: 10758109@N04
title: "The Acoustic Sessions"
originalsecret: null
originalformat: null
o_height: null
o_width: null
datetaken: 2011-12-01 14:29:39
dateupload: 1322713559
tags: architecture atrium acoustics aucklandmuseum aucklandwarmemorialmuseum musicinmuseums 1december2011
license: 0
latitude: -36.861046
longitude: 174.777642
accuracy: 16
views: 16
interestingness: 130 out of 268

photo: 6434578165 b31d8cae7c 7010
owner: 10758109@N04
title: "The Acoustic Sessions"
originalsecret: null
originalformat: null
o_height: null
o_width: null
datetaken: 2011-12-01 14:29:30
dateupload: 1322713523
tags: architecture atrium acoustics aucklandmuseum aucklandwarmemorialmuseum musicinmuseums 1december2011
license: 0
latitude: -36.861025
longitude: 174.777631
accuracy: 16
views: 3
interestingness: 131 out of 268

photo: 6434576279 0aa82ac173 7149
owner: 10758109@N04
title: "The Acoustic Sessions"
originalsecret: null
originalformat: null
o_height: null
o_width: null
datetaken: 2011-12-01 14:29:16
dateupload: 1322713493
tags: architecture atrium acoustics aucklandmuseum aucklandwarmemorialmuseum musicinmuseums 1december2011
license: 0
latitude: -36.861021
longitude: 174.777642
accuracy: 16
views: 3
interestingness: 132 out of 268

photo: 6434574495 19eac93bce 7142
owner: 10758109@N04
title: "The Acoustic Sessions"
originalsecret: null
originalformat: null
o_height: null
o_width: null
datetaken: 2011-12-01 14:29:02
dateupload: 1322713467
tags: architecture atrium acoustics aucklandmuseum aucklandwarmemorialmuseum musicinmuseums 1december2011
license: 0
latitude: -36.861042
longitude: 174.777674
accuracy: 16
views: 7
interestingness: 133 out of 268

photo: 6434572895 52c3b5b082 7142
owner: 10758109@N04
title: "The Acoustic Sessions"
originalsecret: null
originalformat: null
o_height: null
o_width: null
datetaken: 2011-12-01 14:28:43
dateupload: 1322713443
tags: architecture atrium acoustics aucklandmuseum aucklandwarmemorialmuseum musicinmuseums 1december2011
license: 0
latitude: -36.860978
longitude: 174.777696
accuracy: 16
views: 5
interestingness: 134 out of 268

photo: 6438403671 cb7afbb30c 7169
owner: 36853267@N06
title: Ring-necked Duck
originalsecret: null
originalformat: null
o_height: null
o_width: null
datetaken: 2011-12-01 13:07:50
dateupload: 1322777080
tags: 
license: 0
latitude: 41.916617
longitude: -87.632017
accuracy: 13
views: 42
interestingness: 135 out of 268

photo: 6438394965 dcd5bb78b1 7160
owner: 91453870@N00
title: Budapest, Dec 1, 2011
originalsecret: d27de862f3
originalformat: jpg
o_height: 1166
o_width: 2409
datetaken: 2011-12-01 15:02:50
dateupload: 1322776970
tags: bridge budapest chain
license: 0
latitude: 47.49856
longitude: 19.046773
accuracy: 13
views: 12
interestingness: 136 out of 268

photo: 6437330717 840abb6e8e 7148
owner: 65438071@N00
title: Snow on 1st of Christmas
originalsecret: 43e4e2cabb
originalformat: jpg
o_height: 1529
o_width: 1920
datetaken: 2011-12-01 10:44:52
dateupload: 1322762879
tags: 
license: 3
latitude: 39.71116
longitude: -104.987615
accuracy: 16
views: 23
interestingness: 137 out of 268

photo: 6435508273 0e25dc69e0 7170
owner: 92747687@N00
title: I declare 1st Dec to be #newwintertyresday :-)
originalsecret: 8baaeb0ece
originalformat: jpg
o_height: 2192
o_width: 1680
datetaken: 2011-12-01 09:39:48
dateupload: 1322732984
tags: 
license: 0
latitude: 53.950333
longitude: -1.052333
accuracy: 16
views: 20
interestingness: 138 out of 268

photo: 6435427211 25a95a0737 7141
owner: 90425101@N00
title: Dec 1st - LEGO Star Wars Advent Calendar 2011
originalsecret: 5e880730a3
originalformat: jpg
o_height: 2736
o_width: 3648
datetaken: 2011-12-01 09:03:23
dateupload: 1322731007
tags: starwars advent lego 1stdec day1
license: 2
latitude: 52.408479
longitude: -1.600946
accuracy: 16
views: 64
interestingness: 139 out of 268

photo: 6440519791 4ee25635e1 7032
owner: 90425101@N00
title: Dec 2nd - LEGO Star Wars Advent Calendar 2011
originalsecret: e54b3cb327
originalformat: jpg
o_height: 2736
o_width: 3648
datetaken: 2011-12-02 07:58:57
dateupload: 1322813007
tags: day2 starwars advent lego 2nddec
license: 2
latitude: 52.408479
longitude: -1.600946
accuracy: 16
views: 50
interestingness: 140 out of 268

photo: 6440405685 23463ab5c0 7018
owner: 54834187@N07
title: Late Night Shopping #MKG Discount up 70% 2-3 Dec 8pm-12am at Mall Kelapa Gading http://www.malkelapagading.com
originalsecret: 165e16ac81
originalformat: jpg
o_height: 746
o_width: 543
datetaken: 2011-12-02 14:21:47
dateupload: 1322810507
tags: koprol uploaded:by=koprol koprol:place=41246 geo:lat=613236224908084 geo:lon=106847705841064
license: 0
latitude: -6.132362
longitude: 106.847705
accuracy: 16
views: 0
interestingness: 141 out of 268

photo: 6438145409 1fe904e2cd 7170
owner: 30830405@N07
title: 365/335 Little by little, through patience... Dec. 01, 2011
originalsecret: 0266e7fcd1
originalformat: jpg
o_height: 1260
o_width: 1678
datetaken: 2011-12-01 18:00:55
dateupload: 1322773792
tags: finland helsinki mindfulness apicaday 3652011
license: 3
latitude: 60.176189
longitude: 24.922721
accuracy: 16
views: 45
interestingness: 142 out of 268

photo: 6436346021 69811fd136 7022
owner: 68220996@N08
title: Marina Club-Kuwait-b
originalsecret: null
originalformat: null
o_height: null
o_width: null
datetaken: 2011-12-01 18:29:26
dateupload: 1322749440
tags: mall taken sharq shouq dec2011kuwait
license: 0
latitude: 29.31015
longitude: 47.494449
accuracy: 2
views: 0
interestingness: 143 out of 268

photo: 6436203053 af594d5caf 7003
owner: 23889540@N00
title: Dec 2
originalsecret: 45bef5a9cd
originalformat: jpg
o_height: 1936
o_width: 2592
datetaken: 2011-12-01 08:43:08
dateupload: 1322747180
tags: christmas woodwork advent calendar adventcalendar
license: 4
latitude: 37.9815
longitude: -84.5555
accuracy: 16
views: 15
interestingness: 144 out of 268

photo: 6436200957 9bb261cd5f 7170
owner: 23889540@N00
title: Dec 1
originalsecret: 889ccbebef
originalformat: jpg
o_height: 1936
o_width: 2592
datetaken: 2011-12-01 08:42:55
dateupload: 1322747145
tags: christmas woodwork advent calendar adventcalendar
license: 4
latitude: 37.9815
longitude: -84.5555
accuracy: 16
views: 13
interestingness: 145 out of 268

photo: 6449184867 1f9094e5a8 7022
owner: 35976156@N08
title: 1 Dec - Moffat
originalsecret: null
originalformat: null
o_height: null
o_width: null
datetaken: 2011-12-01 23:50:20
dateupload: 1322780418
tags: 365 moffat eastlothian ormiston
license: 0
latitude: 55.913523
longitude: -2.935581
accuracy: 16
views: 5
interestingness: 146 out of 268

photo: 6440985415 a057ca2a50 7017
owner: 8339013@N08
title: Conversations
originalsecret: null
originalformat: null
o_height: null
o_width: null
datetaken: 2011-12-01 19:11:15
dateupload: 1322824275
tags: 
license: 0
latitude: 48.004732
longitude: 0.195634
accuracy: 16
views: 33
interestingness: 147 out of 268

photo: 6439196709 c22f03e28f 7004
owner: 58784984@N02
title: Goldcoast Evening Dec 1/2011
originalsecret: 8606c5d00e
originalformat: jpg
o_height: 1486
o_width: 2130
datetaken: 2011-12-02 01:19:19
dateupload: 1322788759
tags: 
license: 0
latitude: 52.097133
longitude: -7.582154
accuracy: 14
views: 7
interestingness: 148 out of 268

photo: 6438230793 4325263001 7170
owner: 55005522@N00
title: Red Cloud Glow Sunset Dec 1st 2011 01
originalsecret: 678f3f3f77
originalformat: jpg
o_height: 3744
o_width: 5616
datetaken: 2011-12-01 17:38:17
dateupload: 1322774876
tags: sunset red clouds glow
license: 0
latitude: 52.285415
longitude: -9.723737
accuracy: 15
views: 14
interestingness: 149 out of 268

photo: 6437847633 9586eb5853 7153
owner: 55568187@N06
title: 1 dec 2011
originalsecret: null
originalformat: null
o_height: null
o_width: null
datetaken: 2011-12-01 12:51:22
dateupload: 1322769989
tags: 
license: 0
latitude: 48.856918
longitude: 2.341209
accuracy: 11
views: 19
interestingness: 150 out of 268

photo: 6436612221 1574961cc5 7154
owner: 58213473@N05
title: IMG_2745 Quilty 1st Dec 2011
originalsecret: null
originalformat: null
o_height: null
o_width: null
datetaken: 2011-12-01 14:41:32
dateupload: 1322753349
tags: formation seascapeseafieldquiltyclareirelandwavescliffs moherrock
license: 0
latitude: 52.809299
longitude: -9.492101
accuracy: 13
views: 5
interestingness: 151 out of 268

photo: 6436308493 32eb6f5e40 7147
owner: 52675324@N08
title: 1 Dec., 2011 Morning
originalsecret: 5e0c374a54
originalformat: jpg
o_height: 1936
o_width: 2592
datetaken: 2011-12-01 12:07:59
dateupload: 1322748898
tags: morning japan tokyo iphone4
license: 0
latitude: 35.623
longitude: 139.719
accuracy: 16
views: 9
interestingness: 152 out of 268

photo: 6441162943 b94eb0c7b3 7157
owner: 9495138@N08
title: SBG 02 Dec 2011 - 1
originalsecret: null
originalformat: null
o_height: null
o_width: null
datetaken: 2011-12-02 14:22:14
dateupload: 1322828015
tags: birds singaporebotanicalgardens yellowbittern
license: 0
latitude: 1.315291
longitude: 103.814522
accuracy: 16
views: 2
interestingness: 153 out of 268

photo: 6441153381 7d92a09069 7168
owner: 9495138@N08
title: SBG 02 Dec 2011 - 3
originalsecret: null
originalformat: null
o_height: null
o_width: null
datetaken: 2011-12-02 15:47:47
dateupload: 1322827818
tags: birds singaporebotanicalgardens spotteddove
license: 0
latitude: 1.31088
longitude: 103.81515
accuracy: 16
views: 2
interestingness: 154 out of 268

photo: 6440209833 2f52b26d52 7030
owner: 18022695@N00
title: Sevilla, Spain - 2009 Dec
originalsecret: 31612000d5
originalformat: jpg
o_height: 3648
o_width: 2736
datetaken: 2009-12-07 09:38:51
dateupload: 1322806364
tags: sevilla spain seville
license: 0
latitude: 37.386824
longitude: -5.995166
accuracy: 15
views: 1
interestingness: 155 out of 268

photo: 6440202327 c93bb41999 7155
owner: 18022695@N00
title: Sevilla, Spain - 2009 Dec
originalsecret: d18accc270
originalformat: jpg
o_height: 2736
o_width: 3648
datetaken: 2009-12-07 09:16:27
dateupload: 1322806191
tags: sevilla spain seville
license: 0
latitude: 37.38702
longitude: -5.99272
accuracy: 15
views: 0
interestingness: 156 out of 268

photo: 6440191989 b4d41d1c0c 7018
owner: 18022695@N00
title: Sevilla, Spain - 2009 Dec
originalsecret: 118f7a96fc
originalformat: jpg
o_height: 2736
o_width: 3648
datetaken: 2009-12-07 09:16:11
dateupload: 1322805963
tags: sevilla spain seville
license: 0
latitude: 37.38702
longitude: -5.99272
accuracy: 15
views: 0
interestingness: 157 out of 268

photo: 6440181079 6df0884b3c 7020
owner: 18022695@N00
title: Sevilla, Spain - 2009 Dec
originalsecret: 9a9922c1e8
originalformat: jpg
o_height: 2736
o_width: 3648
datetaken: 2009-12-07 08:56:01
dateupload: 1322805747
tags: sevilla spain seville
license: 0
latitude: 37.38702
longitude: -5.99272
accuracy: 15
views: 0
interestingness: 158 out of 268

photo: 6440169569 b42222db55 7159
owner: 18022695@N00
title: Sevilla, Spain - 2009 Dec
originalsecret: f4a5bbecd4
originalformat: jpg
o_height: 2736
o_width: 3648
datetaken: 2009-12-07 08:55:54
dateupload: 1322805502
tags: sevilla spain seville
license: 0
latitude: 37.38702
longitude: -5.99272
accuracy: 15
views: 1
interestingness: 159 out of 268

photo: 6440158019 54c9e31f6f 7032
owner: 18022695@N00
title: Sevilla, Spain - 2009 Dec
originalsecret: e058594a29
originalformat: jpg
o_height: 2736
o_width: 3648
datetaken: 2009-12-07 08:55:02
dateupload: 1322805254
tags: sevilla spain seville
license: 0
latitude: 37.38702
longitude: -5.99272
accuracy: 15
views: 0
interestingness: 160 out of 268

photo: 6440149789 5aaa204e6c 7029
owner: 18022695@N00
title: Sevilla, Spain - 2009 Dec
originalsecret: cb3c8f70b4
originalformat: jpg
o_height: 2736
o_width: 3648
datetaken: 2009-12-07 08:54:57
dateupload: 1322805098
tags: sevilla spain seville
license: 0
latitude: 37.38702
longitude: -5.99272
accuracy: 15
views: 0
interestingness: 161 out of 268

photo: 6440141379 453c672e80 7151
owner: 18022695@N00
title: Sevilla, Spain - 2009 Dec
originalsecret: bb0de7156d
originalformat: jpg
o_height: 2736
o_width: 3648
datetaken: 2009-12-07 08:50:38
dateupload: 1322804941
tags: sevilla spain seville
license: 0
latitude: 37.38702
longitude: -5.99272
accuracy: 15
views: 0
interestingness: 162 out of 268

photo: 6440131521 bc3a2f132e 7005
owner: 18022695@N00
title: Sevilla, Spain - 2009 Dec
originalsecret: 5d4961e8cf
originalformat: jpg
o_height: 2736
o_width: 3648
datetaken: 2009-12-07 08:48:39
dateupload: 1322804769
tags: sevilla spain seville
license: 0
latitude: 37.38702
longitude: -5.99272
accuracy: 15
views: 0
interestingness: 163 out of 268

photo: 6440120083 22b9b2cc3e 7166
owner: 18022695@N00
title: Sevilla, Spain - 2009 Dec
originalsecret: 69eb10b009
originalformat: jpg
o_height: 2736
o_width: 3648
datetaken: 2009-12-07 08:48:29
dateupload: 1322804549
tags: sevilla spain seville
license: 0
latitude: 37.386824
longitude: -5.995166
accuracy: 15
views: 0
interestingness: 164 out of 268

photo: 6440108005 4d038dbef0 7172
owner: 18022695@N00
title: Sevilla, Spain - 2009 Dec
originalsecret: 538c1239fd
originalformat: jpg
o_height: 3530
o_width: 2570
datetaken: 2009-12-07 08:45:12
dateupload: 1322804325
tags: sevilla spain seville
license: 0
latitude: 37.386824
longitude: -5.995166
accuracy: 15
views: 0
interestingness: 165 out of 268

photo: 6440099817 01398839c0 7159
owner: 18022695@N00
title: Sevilla, Spain - 2009 Dec
originalsecret: 851fe331b1
originalformat: jpg
o_height: 2736
o_width: 3648
datetaken: 2009-12-07 08:36:04
dateupload: 1322804176
tags: sevilla spain seville
license: 0
latitude: 37.385187
longitude: -5.992376
accuracy: 16
views: 0
interestingness: 166 out of 268

photo: 6440089751 703d8a40bd 7148
owner: 18022695@N00
title: Sevilla, Spain - 2009 Dec
originalsecret: 275295a9c9
originalformat: jpg
o_height: 3536
o_width: 2580
datetaken: 2009-12-07 08:35:25
dateupload: 1322803993
tags: sevilla spain seville
license: 0
latitude: 37.385187
longitude: -5.992376
accuracy: 16
views: 0
interestingness: 167 out of 268

photo: 6440077477 314a73befc 7165
owner: 18022695@N00
title: Sevilla, Spain - 2009 Dec
originalsecret: 6b687023ee
originalformat: jpg
o_height: 3602
o_width: 2674
datetaken: 2009-12-07 08:33:43
dateupload: 1322803757
tags: sevilla spain seville
license: 0
latitude: 37.385614
longitude: -5.99317
accuracy: 15
views: 0
interestingness: 168 out of 268

photo: 6440061879 53f8fcbc60 7158
owner: 18022695@N00
title: Sevilla, Spain - 2009 Dec
originalsecret: 50170e25ce
originalformat: jpg
o_height: 2736
o_width: 3648
datetaken: 2009-12-07 08:33:28
dateupload: 1322803465
tags: sevilla spain seville
license: 0
latitude: 37.385614
longitude: -5.99317
accuracy: 15
views: 0
interestingness: 169 out of 268

photo: 6440048773 defa708730 7025
owner: 18022695@N00
title: Sevilla, Spain - 2009 Dec
originalsecret: b03bf6b142
originalformat: jpg
o_height: 3648
o_width: 2736
datetaken: 2009-12-07 08:31:39
dateupload: 1322803233
tags: sevilla spain seville
license: 0
latitude: 37.385187
longitude: -5.992376
accuracy: 16
views: 1
interestingness: 170 out of 268

photo: 6440031911 a1b4650d09 7026
owner: 18022695@N00
title: Sevilla, Spain - 2009 Dec
originalsecret: 7d9c1dc9b8
originalformat: jpg
o_height: 2736
o_width: 3648
datetaken: 2009-12-07 08:30:57
dateupload: 1322802937
tags: sevilla spain seville
license: 0
latitude: 37.385187
longitude: -5.992376
accuracy: 16
views: 0
interestingness: 171 out of 268

photo: 6440019839 4e97f9fb59 7029
owner: 18022695@N00
title: Sevilla, Spain - 2009 Dec
originalsecret: cfe817054c
originalformat: jpg
o_height: 2698
o_width: 3620
datetaken: 2009-12-07 08:29:34
dateupload: 1322802712
tags: sevilla spain seville
license: 0
latitude: 37.385187
longitude: -5.992376
accuracy: 16
views: 0
interestingness: 172 out of 268

photo: 6440006283 7a573b312b 7028
owner: 18022695@N00
title: Sevilla, Spain - 2009 Dec
originalsecret: 6e79622e36
originalformat: jpg
o_height: 3648
o_width: 2736
datetaken: 2009-12-07 08:28:35
dateupload: 1322802460
tags: sevilla spain seville
license: 0
latitude: 37.385614
longitude: -5.99317
accuracy: 15
views: 0
interestingness: 173 out of 268

photo: 6439991671 bf166ff926 7025
owner: 18022695@N00
title: Sevilla, Spain - 2009 Dec
originalsecret: 819fcbeb2f
originalformat: jpg
o_height: 3648
o_width: 2736
datetaken: 2009-12-07 08:28:26
dateupload: 1322802175
tags: sevilla spain seville
license: 0
latitude: 37.385614
longitude: -5.99317
accuracy: 15
views: 0
interestingness: 174 out of 268

photo: 6439976433 10421a82b1 7026
owner: 18022695@N00
title: Sevilla, Spain - 2009 Dec
originalsecret: 1258b00969
originalformat: jpg
o_height: 2736
o_width: 3648
datetaken: 2009-12-07 08:27:25
dateupload: 1322801865
tags: sevilla spain seville
license: 0
latitude: 37.385614
longitude: -5.99317
accuracy: 15
views: 0
interestingness: 175 out of 268

photo: 6439965075 0a3b5ef1f0 7152
owner: 18022695@N00
title: Sevilla, Spain - 2009 Dec
originalsecret: 33d542fe3b
originalformat: jpg
o_height: 2736
o_width: 3648
datetaken: 2009-12-07 08:26:06
dateupload: 1322801648
tags: sevilla spain seville
license: 0
latitude: 37.385614
longitude: -5.99317
accuracy: 15
views: 0
interestingness: 176 out of 268

photo: 6439956527 8c8e01e63b 7164
owner: 18022695@N00
title: Sevilla, Spain - 2009 Dec
originalsecret: 1b687fe689
originalformat: jpg
o_height: 2628
o_width: 3570
datetaken: 2009-12-07 08:22:17
dateupload: 1322801480
tags: sevilla spain seville
license: 0
latitude: 37.385187
longitude: -5.992376
accuracy: 16
views: 2
interestingness: 177 out of 268

photo: 6439944425 33b47eacda 7013
owner: 18022695@N00
title: Sevilla, Spain - 2009 Dec
originalsecret: ef4cafeda2
originalformat: jpg
o_height: 2736
o_width: 3648
datetaken: 2009-12-07 08:21:18
dateupload: 1322801254
tags: sevilla spain seville
license: 0
latitude: 37.385187
longitude: -5.992376
accuracy: 16
views: 1
interestingness: 178 out of 268

photo: 6439931973 4bedd01e55 7163
owner: 18022695@N00
title: Sevilla, Spain - 2009 Dec
originalsecret: ea9df0d03b
originalformat: jpg
o_height: 2736
o_width: 3648
datetaken: 2009-12-07 08:18:56
dateupload: 1322801038
tags: sevilla spain seville
license: 0
latitude: 37.385997
longitude: -5.992248
accuracy: 15
views: 0
interestingness: 179 out of 268

photo: 6439920919 7dcbc541ae 7152
owner: 18022695@N00
title: Sevilla, Spain - 2009 Dec
originalsecret: eac6d7b5a1
originalformat: jpg
o_height: 2668
o_width: 3598
datetaken: 2009-12-07 08:17:00
dateupload: 1322800841
tags: sevilla spain seville
license: 0
latitude: 37.386824
longitude: -5.995166
accuracy: 15
views: 0
interestingness: 180 out of 268

photo: 6439909971 69b1e79db7 7156
owner: 18022695@N00
title: Sevilla, Spain - 2009 Dec
originalsecret: 70c557b7a5
originalformat: jpg
o_height: 2736
o_width: 3648
datetaken: 2009-12-07 08:15:46
dateupload: 1322800646
tags: sevilla spain seville
license: 0
latitude: 37.386824
longitude: -5.995166
accuracy: 15
views: 2
interestingness: 181 out of 268

photo: 6439898231 fa30844011 7156
owner: 18022695@N00
title: Sevilla, Spain - 2009 Dec
originalsecret: ce0dac034b
originalformat: jpg
o_height: 3574
o_width: 2634
datetaken: 2009-12-07 08:11:56
dateupload: 1322800433
tags: sevilla spain seville
license: 0
latitude: 37.382494
longitude: -5.996421
accuracy: 16
views: 0
interestingness: 182 out of 268

photo: 6439888565 6ecd7a84aa 7150
owner: 18022695@N00
title: Sevilla, Spain - 2009 Dec
originalsecret: c9710c20f7
originalformat: jpg
o_height: 2652
o_width: 3586
datetaken: 2009-12-07 08:07:16
dateupload: 1322800258
tags: sevilla spain seville
license: 0
latitude: 37.386824
longitude: -5.995166
accuracy: 15
views: 0
interestingness: 183 out of 268

photo: 6439878691 d2780c424b 7168
owner: 18022695@N00
title: Sevilla, Spain - 2009 Dec
originalsecret: 5bd641b906
originalformat: jpg
o_height: 2732
o_width: 3644
datetaken: 2009-12-07 08:03:48
dateupload: 1322800082
tags: sevilla spain seville
license: 0
latitude: 37.386824
longitude: -5.995166
accuracy: 15
views: 3
interestingness: 184 out of 268

photo: 6439867567 77f163d242 7143
owner: 18022695@N00
title: Sevilla, Spain - 2009 Dec
originalsecret: e74537909b
originalformat: jpg
o_height: 2736
o_width: 3648
datetaken: 2009-12-07 08:00:43
dateupload: 1322799884
tags: sevilla spain seville
license: 0
latitude: 37.386014
longitude: -5.998599
accuracy: 16
views: 0
interestingness: 185 out of 268

photo: 6439855537 d3b9fd9a0e 7021
owner: 18022695@N00
title: Sevilla, Spain - 2009 Dec
originalsecret: 603ed57bb3
originalformat: jpg
o_height: 2736
o_width: 3648
datetaken: 2009-12-07 08:00:25
dateupload: 1322799684
tags: sevilla spain seville
license: 0
latitude: 37.386014
longitude: -5.998599
accuracy: 16
views: 0
interestingness: 186 out of 268

photo: 6439843177 8bd015c0ab 7172
owner: 18022695@N00
title: Sevilla, Spain - 2009 Dec
originalsecret: 06c8a002eb
originalformat: jpg
o_height: 2861
o_width: 2291
datetaken: 2009-12-07 07:57:05
dateupload: 1322799471
tags: sevilla spain seville
license: 0
latitude: 37.386014
longitude: -5.998599
accuracy: 16
views: 0
interestingness: 187 out of 268

photo: 6439834465 5014d81eb9 7165
owner: 18022695@N00
title: Sevilla, Spain - 2009 Dec
originalsecret: 8c3b36ff52
originalformat: jpg
o_height: 2736
o_width: 3648
datetaken: 2009-12-07 07:55:21
dateupload: 1322799320
tags: sevilla spain seville
license: 0
latitude: 37.386014
longitude: -5.998599
accuracy: 16
views: 0
interestingness: 188 out of 268

photo: 6439820087 866d0b728c 7142
owner: 18022695@N00
title: Sevilla, Spain - 2009 Dec
originalsecret: 0a79ccde31
originalformat: jpg
o_height: 2736
o_width: 3648
datetaken: 2009-12-07 07:51:17
dateupload: 1322799076
tags: sevilla spain seville
license: 0
latitude: 37.386014
longitude: -5.998599
accuracy: 16
views: 0
interestingness: 189 out of 268

photo: 6439811223 f9d7f1b0e7 7014
owner: 18022695@N00
title: Sevilla, Spain - 2009 Dec
originalsecret: 85fab97ed5
originalformat: jpg
o_height: 2736
o_width: 3648
datetaken: 2009-12-07 07:46:36
dateupload: 1322798933
tags: sevilla spain seville
license: 0
latitude: 37.386014
longitude: -5.998599
accuracy: 16
views: 0
interestingness: 190 out of 268

photo: 6439799879 e4624b4ce0 7020
owner: 18022695@N00
title: Sevilla, Spain - 2009 Dec
originalsecret: 1797e9728e
originalformat: jpg
o_height: 2452
o_width: 3452
datetaken: 2009-12-07 07:32:23
dateupload: 1322798759
tags: sevilla spain seville
license: 0
latitude: 37.386014
longitude: -5.998599
accuracy: 16
views: 0
interestingness: 191 out of 268

photo: 6439787773 21f968fc47 7016
owner: 18022695@N00
title: Sevilla, Spain - 2009 Dec
originalsecret: d359222a23
originalformat: jpg
o_height: 2736
o_width: 3648
datetaken: 2009-12-07 07:24:46
dateupload: 1322798572
tags: sevilla spain seville
license: 0
latitude: 37.386014
longitude: -5.998599
accuracy: 16
views: 0
interestingness: 192 out of 268

photo: 6439772831 f1e54cde24 7154
owner: 18022695@N00
title: Sevilla, Spain - 2009 Dec
originalsecret: 5e1928438e
originalformat: jpg
o_height: 3592
o_width: 2660
datetaken: 2009-12-07 07:24:35
dateupload: 1322798351
tags: sevilla spain seville
license: 0
latitude: 37.386014
longitude: -5.998599
accuracy: 16
views: 0
interestingness: 193 out of 268

photo: 6439758619 f46341a1ac 7012
owner: 18022695@N00
title: Sevilla, Spain - 2009 Dec
originalsecret: 00cca54afc
originalformat: jpg
o_height: 3648
o_width: 2736
datetaken: 2009-12-07 07:23:14
dateupload: 1322798134
tags: sevilla spain seville
license: 0
latitude: 37.387583
longitude: -5.999693
accuracy: 14
views: 0
interestingness: 194 out of 268

photo: 6439749219 351d79ed5d 7141
owner: 18022695@N00
title: Sevilla, Spain - 2009 Dec
originalsecret: e670b2db24
originalformat: jpg
o_height: 3612
o_width: 2688
datetaken: 2009-12-07 07:23:05
dateupload: 1322797985
tags: sevilla spain seville
license: 0
latitude: 37.387583
longitude: -5.999693
accuracy: 14
views: 0
interestingness: 195 out of 268

photo: 6439737939 4055ffd957 7025
owner: 18022695@N00
title: Sevilla, Spain - 2009 Dec
originalsecret: 934735c305
originalformat: jpg
o_height: 2736
o_width: 3648
datetaken: 2009-12-07 07:22:51
dateupload: 1322797816
tags: sevilla spain seville
license: 0
latitude: 37.386014
longitude: -5.998599
accuracy: 16
views: 0
interestingness: 196 out of 268

photo: 6439726009 714468b9bf 7165
owner: 18022695@N00
title: Sevilla, Spain - 2009 Dec
originalsecret: a0a2b4fac6
originalformat: jpg
o_height: 2478
o_width: 3468
datetaken: 2009-12-07 07:16:40
dateupload: 1322797626
tags: sevilla spain seville
license: 0
latitude: 37.386014
longitude: -5.998599
accuracy: 16
views: 2
interestingness: 197 out of 268

photo: 6439714139 42afd36f62 7148
owner: 18022695@N00
title: Sevilla, Spain - 2009 Dec
originalsecret: 4659a84b6c
originalformat: jpg
o_height: 2736
o_width: 3648
datetaken: 2009-12-07 07:13:38
dateupload: 1322797437
tags: sevilla spain seville
license: 0
latitude: 37.386014
longitude: -5.998599
accuracy: 16
views: 0
interestingness: 198 out of 268

photo: 6439700469 898222961f 7145
owner: 18022695@N00
title: Sevilla, Spain - 2009 Dec
originalsecret: 36a599f843
originalformat: jpg
o_height: 2712
o_width: 3630
datetaken: 2009-12-07 07:13:26
dateupload: 1322797221
tags: sevilla spain seville
license: 0
latitude: 37.386014
longitude: -5.998599
accuracy: 16
views: 0
interestingness: 199 out of 268

photo: 6439684357 1447a5c4c4 7017
owner: 18022695@N00
title: Sevilla, Spain - 2009 Dec
originalsecret: ec511fa0a6
originalformat: jpg
o_height: 2736
o_width: 3648
datetaken: 2009-12-07 07:08:02
dateupload: 1322796972
tags: sevilla spain seville
license: 0
latitude: 37.386014
longitude: -5.998599
accuracy: 16
views: 0
interestingness: 200 out of 268

photo: 6439668069 ea944edf82 7008
owner: 18022695@N00
title: Sevilla, Spain - 2009 Dec
originalsecret: d30f85d636
originalformat: jpg
o_height: 2668
o_width: 3598
datetaken: 2009-12-07 06:57:06
dateupload: 1322796731
tags: sevilla spain seville
license: 0
latitude: 37.385707
longitude: -5.997698
accuracy: 15
views: 0
interestingness: 201 out of 268

photo: 6439656079 75f8e410aa 7165
owner: 18022695@N00
title: Sevilla, Spain - 2009 Dec
originalsecret: 48175a2396
originalformat: jpg
o_height: 3648
o_width: 2736
datetaken: 2009-12-07 06:54:42
dateupload: 1322796543
tags: sevilla spain seville
license: 0
latitude: 37.386824
longitude: -5.995166
accuracy: 15
views: 3
interestingness: 202 out of 268

photo: 6439645111 29cb67656a 7017
owner: 18022695@N00
title: Sevilla, Spain - 2009 Dec
originalsecret: d285ee86dd
originalformat: jpg
o_height: 3648
o_width: 2736
datetaken: 2009-12-07 06:52:04
dateupload: 1322796364
tags: sevilla spain seville
license: 0
latitude: 37.386824
longitude: -5.995166
accuracy: 15
views: 4
interestingness: 203 out of 268

photo: 6439630669 7db43b9230 7026
owner: 18022695@N00
title: Sevilla, Spain - 2009 Dec
originalsecret: 2c1b21d47f
originalformat: jpg
o_height: 2568
o_width: 3508
datetaken: 2009-12-07 06:50:53
dateupload: 1322796128
tags: sevilla spain seville
license: 0
latitude: 37.386824
longitude: -5.995166
accuracy: 15
views: 1
interestingness: 204 out of 268

photo: 6439618665 6b7d916da8 7004
owner: 18022695@N00
title: Sevilla, Spain - 2009 Dec
originalsecret: 05594701a0
originalformat: jpg
o_height: 3572
o_width: 2632
datetaken: 2009-12-07 06:49:30
dateupload: 1322795930
tags: sevilla spain seville
license: 0
latitude: 37.386824
longitude: -5.995166
accuracy: 15
views: 3
interestingness: 205 out of 268

photo: 6439607565 08f0abfe58 7013
owner: 18022695@N00
title: Sevilla, Spain - 2009 Dec
originalsecret: d2c556a2aa
originalformat: jpg
o_height: 3648
o_width: 2736
datetaken: 2009-12-07 06:43:49
dateupload: 1322795752
tags: sevilla spain seville
license: 0
latitude: 37.386824
longitude: -5.995166
accuracy: 15
views: 2
interestingness: 206 out of 268

photo: 6437410959 a59f7c3804 7017
owner: 10354154@N05
title: 1 Dec 2011 work trees (2)
originalsecret: 7d890746b1
originalformat: jpg
o_height: 2304
o_width: 3072
datetaken: 2011-12-01 08:29:41
dateupload: 1322763987
tags: trees work yakstrangler
license: 1
latitude: 52.911904
longitude: -1.246057
accuracy: 16
views: 3
interestingness: 207 out of 268

photo: 6440303139 710581bfb5 7175
owner: 71071675@N05
title: Dec 2 Friday, 2011
originalsecret: null
originalformat: null
o_height: null
o_width: null
datetaken: 2011-12-02 13:58:07
dateupload: 1322808352
tags: park dog
license: 0
latitude: 1.31421
longitude: 103.901975
accuracy: 14
views: 0
interestingness: 208 out of 268

photo: 6439038007 ed866a648c 7149
owner: 61601730@N05
title: 111201 (30)
originalsecret: null
originalformat: null
o_height: null
o_width: null
datetaken: 2011-12-01 12:00:54
dateupload: 1322786236
tags: teignmouth dredger
license: 0
latitude: 50.547035
longitude: -3.487472
accuracy: 10
views: 1
interestingness: 209 out of 268

photo: 6437673787 d60fb3c02a 7169
owner: 71148269@N02
title: Bo Challenge Dec 1
originalsecret: null
originalformat: null
o_height: null
o_width: null
datetaken: 2011-12-01 14:55:42
dateupload: 1322767614
tags: bo challenge
license: 0
latitude: 33.771816
longitude: -118.166885
accuracy: 14
views: 1
interestingness: 210 out of 268

photo: 6437342593 1967eed887 7155
owner: 32736079@N03
title: Dickens of a Holiday, Sat., Dec. 3 10 am - 4 pm, here and the Presbyterian Church & the War Memorial Park #snj @njdotcom
originalsecret: 59834740ab
originalformat: jpg
o_height: 396
o_width: 640
datetaken: 2011-12-01 13:10:48
dateupload: 1322763048
tags: picplz foursquare:venue=4c56e1bfcc96c9b6509f772e
license: 0
latitude: 39.450899
longitude: -74.725184
accuracy: 16
views: 0
interestingness: 211 out of 268

photo: 6437284059 3a35b4dd49 7170
owner: 32736079@N03
title: Dickens of a Holiday, Sat., Dec. 3 10 am - 4 pm, here and the Mays Landing Library & the War Memorial Park #snj @njdotcom
originalsecret: ba4a6fcb39
originalformat: jpg
o_height: 478
o_width: 640
datetaken: 2011-12-01 12:57:28
dateupload: 1322762248
tags: picplz foursquare:venue=4d4df642819554816fc8dd93
license: 0
latitude: 39.452563
longitude: -74.727594
accuracy: 16
views: 0
interestingness: 212 out of 268

photo: 6437257423 9429ccecef 7028
owner: 32736079@N03
title: Dickens of a Holiday, Sat., Dec. 3 10 am - 4 pm, here and the Mays Landing Library & the Presbyterian Church #snj @njdotcom
originalsecret: ca3d2a1b69
originalformat: jpg
o_height: 425
o_width: 640
datetaken: 2011-12-01 12:51:30
dateupload: 1322761890
tags: picplz foursquare:venue=4e7e1596cc211b5c22eaae2e
license: 0
latitude: 39.452784
longitude: -74.725967
accuracy: 16
views: 0
interestingness: 213 out of 268

photo: 6435974531 030aaef56b 7145
owner: 63470540@N04
title: NL-904202
originalsecret: null
originalformat: null
o_height: null
o_width: null
datetaken: 2011-12-01 04:38:33
dateupload: 1322743113
tags: netherlands recibidas
license: 0
latitude: 52.099967
longitude: 5.111732
accuracy: 11
views: 0
interestingness: 214 out of 268

photo: 6435026045 e9bedc48be 7020
owner: 58117995@N00
title: Blissful Bihar - Dec 2011
originalsecret: null
originalformat: null
o_height: null
o_width: null
datetaken: 2011-12-01 00:41:24
dateupload: 1322721684
tags: bodhgaya blissfulbihar
license: 0
latitude: 24.70269
longitude: 84.98384
accuracy: 11
views: 41
interestingness: 215 out of 268

photo: 6433600653 a9b9d7cc5f 7008
owner: 54601956@N04
title: Dec-1/ Dic 1
originalsecret: null
originalformat: null
o_height: null
o_width: null
datetaken: 2007-01-01 12:22:24
dateupload: 1322699117
tags: origami crane
license: 0
latitude: 10.232998
longitude: -67.57656
accuracy: 11
views: 55
interestingness: 216 out of 268

photo: 6440873245 8668fccd57 7172
owner: 15315174@N00
title: Singapore Marathon 2km Marker
originalsecret: null
originalformat: null
o_height: null
o_width: null
datetaken: 2011-12-01 21:36:01
dateupload: 1322821814
tags: flickrandroidapp:filter=none
license: 0
latitude: 1.292103
longitude: 103.849689
accuracy: 15
views: 12
interestingness: 217 out of 268

photo: 6439869697 7ebb10c78b 7023
owner: 39094428@N07
title: Christmas Trees
originalsecret: null
originalformat: null
o_height: null
o_width: null
datetaken: 2011-12-01 19:50:45
dateupload: 1322799920
tags: tacoma
license: 0
latitude: 47.288443
longitude: -122.515797
accuracy: 16
views: 4
interestingness: 218 out of 268

photo: 6436328859 56e0d60b47 7158
owner: 30859363@N03
title: Juv Male Rufous banding 1 Dec 2011 019
originalsecret: null
originalformat: null
o_height: null
o_width: null
datetaken: 2011-12-01 09:01:55
dateupload: 1322749194
tags: juvmalerufousbanding1dec2011
license: 0
latitude: 30.89009
longitude: -83.297932
accuracy: 15
views: 160
interestingness: 219 out of 268

photo: 6435916167 fdcecd8f86 7014
owner: 71071675@N05
title: Dec 1 Thursday, 2011
originalsecret: null
originalformat: null
o_height: null
o_width: null
datetaken: 2011-12-01 20:13:31
dateupload: 1322741959
tags: shophouse
license: 0
latitude: 1.313802
longitude: 103.90279
accuracy: 14
views: 1
interestingness: 220 out of 268

photo: 6440985131 6e3980c33c 7155
owner: 8339013@N08
title: 
originalsecret: null
originalformat: null
o_height: null
o_width: null
datetaken: 2011-12-01 19:11:09
dateupload: 1322824269
tags: 
license: 0
latitude: 48.004732
longitude: 0.195634
accuracy: 16
views: 38
interestingness: 221 out of 268

photo: 6440984667 3943052e21 7021
owner: 8339013@N08
title: Buffet Froid
originalsecret: null
originalformat: null
o_height: null
o_width: null
datetaken: 2011-12-01 19:11:00
dateupload: 1322824260
tags: 
license: 0
latitude: 48.004732
longitude: 0.195634
accuracy: 16
views: 42
interestingness: 222 out of 268

photo: 6439577697 4a20bc805c 7023
owner: 27817355@N07
title: Bailey / 50mm
originalsecret: null
originalformat: null
o_height: null
o_width: null
datetaken: 2011-12-01 10:40:51
dateupload: 1322795269
tags: 
license: 0
latitude: 40.722099
longitude: -73.716598
accuracy: 13
views: 47
interestingness: 223 out of 268

photo: 6439566395 5f5378f277 7003
owner: 69515167@N03
title: White-winged Scoter. Bill Williams River Delta. La Paz, AZ. 1 Dec 2011
originalsecret: null
originalformat: null
o_height: null
o_width: null
datetaken: 2011-12-01 23:29:12
dateupload: 1322795083
tags: 
license: 0
latitude: 34.289559
longitude: -114.108295
accuracy: 11
views: 0
interestingness: 224 out of 268

photo: 6438404735 f14fcabe43 7145
owner: 36853267@N06
title: American Kestrel
originalsecret: null
originalformat: null
o_height: null
o_width: null
datetaken: 2011-12-01 13:19:44
dateupload: 1322777095
tags: 
license: 0
latitude: 41.917447
longitude: -87.631845
accuracy: 13
views: 40
interestingness: 225 out of 268

photo: 6438404139 5ae0e67ce5 7173
owner: 36853267@N06
title: Ring-necked Duck and Gadwall
originalsecret: null
originalformat: null
o_height: null
o_width: null
datetaken: 2011-12-01 13:05:29
dateupload: 1322777087
tags: 
license: 0
latitude: 41.916776
longitude: -87.632017
accuracy: 13
views: 39
interestingness: 226 out of 268

photo: 6438402283 ccca28d3d5 7020
owner: 36853267@N06
title: Gadwall
originalsecret: null
originalformat: null
o_height: null
o_width: null
datetaken: 2011-12-01 13:15:25
dateupload: 1322777063
tags: 
license: 0
latitude: 41.916617
longitude: -87.63236
accuracy: 13
views: 31
interestingness: 227 out of 268

photo: 6438400653 4042040304 7012
owner: 36853267@N06
title: Long-tailed Duck
originalsecret: null
originalformat: null
o_height: null
o_width: null
datetaken: 2011-12-01 13:17:34
dateupload: 1322777043
tags: 
license: 0
latitude: 41.91684
longitude: -87.632274
accuracy: 13
views: 57
interestingness: 228 out of 268

photo: 6438277883 310c06959b 7166
owner: 9276739@N08
title: A157511 - 1 yr old, female, Pekingese/Cocker Spaniel
originalsecret: null
originalformat: null
o_height: null
o_width: null
datetaken: 2011-12-01 15:38:04
dateupload: 1322775484
tags: 
license: 0
latitude: 32.906001
longitude: -96.603469
accuracy: 13
views: 12
interestingness: 229 out of 268

photo: 6438277833 2242ab94f6 7166
owner: 9276739@N08
title: A157457 - 3 month old, female, Shih Tzu
originalsecret: null
originalformat: null
o_height: null
o_width: null
datetaken: 2011-12-01 15:38:04
dateupload: 1322775484
tags: 
license: 0
latitude: 32.905821
longitude: -96.603727
accuracy: 13
views: 13
interestingness: 230 out of 268

photo: 6437449259 991fa20f38 7007
owner: 71781509@N00
title: Declan and Tamsin
originalsecret: f5ed78f4b1
originalformat: jpg
o_height: 1868
o_width: 2500
datetaken: 2011-11-02 13:10:50
dateupload: 1322764516
tags: 
license: 2
latitude: 38.552666
longitude: -121.439166
accuracy: 16
views: 0
interestingness: 231 out of 268

photo: 6437234127 fb6151807e 7020
owner: 70356873@N07
title: 1 Dec Beijing 22.13 p.m.
originalsecret: null
originalformat: null
o_height: null
o_width: null
datetaken: 2011-12-01 00:00:10
dateupload: 1322761573
tags: 
license: 0
latitude: 35.460669
longitude: 108.632812
accuracy: 3
views: 7
interestingness: 232 out of 268

photo: 6437233993 3ff4f04048 7030
owner: 70356873@N07
title: 1 Dec Beijing 23.14 p.m.
originalsecret: null
originalformat: null
o_height: null
o_width: null
datetaken: 2011-12-01 00:00:09
dateupload: 1322761571
tags: 
license: 0
latitude: 37.509725
longitude: 103.095703
accuracy: 3
views: 9
interestingness: 233 out of 268

photo: 6437233711 d7a3638063 7148
owner: 70356873@N07
title: 1 Dec Beijing 23.14 p.m.
originalsecret: null
originalformat: null
o_height: null
o_width: null
datetaken: 2011-12-01 00:00:08
dateupload: 1322761567
tags: 
license: 0
latitude: 25.165173
longitude: 102.480468
accuracy: 3
views: 2
interestingness: 234 out of 268

photo: 6437233475 d4f6e97b01 7172
owner: 70356873@N07
title: 1 Dec Beijing 23.45 p.m.
originalsecret: null
originalformat: null
o_height: null
o_width: null
datetaken: 2011-12-01 00:00:07
dateupload: 1322761564
tags: 
license: 0
latitude: 23.241346
longitude: 107.753906
accuracy: 3
views: 7
interestingness: 235 out of 268

photo: 6437233295 6bcc0c9bab 7145
owner: 70356873@N07
title: 1 Dec Beijing 23.12 p.m.
originalsecret: null
originalformat: null
o_height: null
o_width: null
datetaken: 2011-12-01 00:00:06
dateupload: 1322761562
tags: 
license: 0
latitude: 41.967659
longitude: 122.783203
accuracy: 3
views: 7
interestingness: 236 out of 268

photo: 6437232995 1e3417fd82 7029
owner: 70356873@N07
title: 1 Dec Beijing 23.12 p.m.
originalsecret: null
originalformat: null
o_height: null
o_width: null
datetaken: 2011-12-01 00:00:05
dateupload: 1322761559
tags: 
license: 0
latitude: 41.967659
longitude: 122.783203
accuracy: 3
views: 2
interestingness: 237 out of 268

photo: 6437232951 a36e938374 7012
owner: 70356873@N07
title: 1 Dec Beijing 20.54 p.m.
originalsecret: null
originalformat: null
o_height: null
o_width: null
datetaken: 2011-12-01 00:00:04
dateupload: 1322761557
tags: 
license: 0
latitude: 31.578535
longitude: 121.201171
accuracy: 3
views: 6
interestingness: 238 out of 268

photo: 6437232239 5d055a9592 7175
owner: 70356873@N07
title: 1 Dec Beijing 20.07 p.m.
originalsecret: null
originalformat: null
o_height: null
o_width: null
datetaken: 2011-12-01 00:00:03
dateupload: 1322761547
tags: 
license: 0
latitude: 35.460669
longitude: 108.632812
accuracy: 3
views: 7
interestingness: 239 out of 268

photo: 6437231935 8389141bee 7161
owner: 70356873@N07
title: 1 Dec Beijing 20.07 p.m.
originalsecret: null
originalformat: null
o_height: null
o_width: null
datetaken: 2011-12-01 00:00:02
dateupload: 1322761542
tags: 
license: 0
latitude: 26.352497
longitude: 120.849609
accuracy: 3
views: 5
interestingness: 240 out of 268

photo: 6437231347 e7bd9cd5fe 7167
owner: 70356873@N07
title: 1 Dec Beijing 19.47 p.m.
originalsecret: null
originalformat: null
o_height: null
o_width: null
datetaken: 2011-12-01 00:00:01
dateupload: 1322761535
tags: 
license: 0
latitude: 23.604261
longitude: 108.105468
accuracy: 3
views: 8
interestingness: 241 out of 268

photo: 6437231001 4049738443 7152
owner: 70356873@N07
title: 1 Dec Beijing 19.47 p.m.
originalsecret: null
originalformat: null
o_height: null
o_width: null
datetaken: 2011-12-01 00:00:00
dateupload: 1322761530
tags: 
license: 0
latitude: 23.402764
longitude: 108.017578
accuracy: 3
views: 2
interestingness: 242 out of 268

photo: 6437218357 cb63f00ab0 7143
owner: 22966161@N07
title: 
originalsecret: null
originalformat: null
o_height: null
o_width: null
datetaken: 2011-12-01 05:47:16
dateupload: 1322761363
tags: 
license: 0
latitude: 32.7035
longitude: -97.1205
accuracy: 16
views: 0
interestingness: 243 out of 268

photo: 6437067245 07f069d968 7026
owner: 77559623@N00
title: 335-365 2011
originalsecret: null
originalformat: null
o_height: null
o_width: null
datetaken: 2011-12-01 09:30:22
dateupload: 1322759420
tags: 
license: 0
latitude: 51.043167
longitude: -114.079167
accuracy: 16
views: 11
interestingness: 244 out of 268

photo: 6436646611 13eefd2901 7001
owner: 70356873@N07
title: 1 Dec. Beijing.20.25 p.m.
originalsecret: null
originalformat: null
o_height: null
o_width: null
datetaken: 2011-12-01 12:17:20
dateupload: 1322753825
tags: 
license: 0
latitude: 23.402764
longitude: 108.017578
accuracy: 3
views: 8
interestingness: 245 out of 268

photo: 6436423441 4e8e85abe7 7154
owner: 70356873@N07
title: 1 Dec.Beijing .17.07p.m.
originalsecret: null
originalformat: null
o_height: null
o_width: null
datetaken: 2011-12-01 00:00:00
dateupload: 1322750578
tags: 
license: 0
latitude: 40.313043
longitude: 115.927734
accuracy: 3
views: 2
interestingness: 246 out of 268

photo: 6436360831 6407d93434 7001
owner: 51044250@N04
title: Seligman Dec 2008 091
originalsecret: null
originalformat: null
o_height: null
o_width: null
datetaken: 2006-05-13 03:14:27
dateupload: 1322749657
tags: 
license: 0
latitude: 35.003003
longitude: -113.620605
accuracy: 5
views: 7
interestingness: 247 out of 268

photo: 6436339961 a35fab5cc6 7024
owner: 51044250@N04
title: Seligman Dec 2008 078
originalsecret: null
originalformat: null
o_height: null
o_width: null
datetaken: 2006-05-13 03:10:39
dateupload: 1322749356
tags: 
license: 0
latitude: 34.506556
longitude: -114.104003
accuracy: 5
views: 1
interestingness: 248 out of 268

photo: 6435848209 546121447a 7154
owner: 50716174@N08
title: Countdown is on!
originalsecret: null
originalformat: null
o_height: null
o_width: null
datetaken: 2011-12-01 11:52:39
dateupload: 1322740570
tags: 
license: 0
