
mintime: 1322697600 maxtime: 1324512427.5
numimgs: 21
total pages: 1
visiting only 1 pages ( up to 250 images)
photo: 6439246237 28bf7ce509 7158
owner: 14198543@N07
title: Moonlight Mile
originalsecret: 91f8519d0f
originalformat: jpg
o_height: 1024
o_width: 768
datetaken: 2011-12-01 17:57:58
dateupload: 1322789580
tags: moon ontario canada detail digital lune lens mare photos sony awesome first luna craters galaxy astrophotography handheld quarter astronomy nightsky terminator outerspace mississauga tonight astronomia current 47 17x teleconversion dschx1 blinkagain
license: 0
latitude: 43.565528
longitude: -79.586162
accuracy: 13
views: 201
interestingness: 1 out of 21

photo: 6468383713 622957c1fb 7152
owner: 21456452@N05
title: Night at Sheikh Zayed Grand Mosque!
originalsecret: da32e2d076
originalformat: jpg
o_height: 2848
o_width: 4288
datetaken: 2011-12-03 06:09:10
dateupload: 1323279248
tags: nightphotography moon night reflections stars lights nikon doors minaret uae grand mosque full zayed abudhabi sheikh unitedarabemirates minarets d300 detials saadalenezi
license: 0
latitude: 24.443929
longitude: 54.419048
accuracy: 11
views: 129
interestingness: 2 out of 21

photo: 6476206899 43c9d45f84 7161
owner: 30505166@N00
title: Anti Tunnock
originalsecret: null
originalformat: null
o_height: null
o_width: null
datetaken: 2011-12-08 10:50:29
dateupload: 1323341429
tags: sepia enlarged isleoflewis paperneg northtolsta adoxmcc
license: 0
latitude: 58.34446
longitude: -6.203155
accuracy: 9
views: 87
interestingness: 3 out of 21

photo: 6461385591 fd8da8e113 7029
owner: 21456452@N05
title: Sheikh Zayed Grand Mosque!
originalsecret: d659457b41
originalformat: jpg
o_height: 4288
o_width: 2848
datetaken: 2011-12-03 06:52:09
dateupload: 1323179520
tags: sky water night reflections lights nikon minaret grand mosque zayed abudhabi dome sheikh unitedarabemirates d300 sheikhzayedgrandmosque saadalenezi
license: 0
latitude: 24.443929
longitude: 54.419048
accuracy: 11
views: 172
interestingness: 4 out of 21

photo: 6423876183 09c5de7461 7151
owner: 36326099@N05
title: Around and Down, Down and Around
originalsecret: null
originalformat: null
o_height: null
o_width: null
datetaken: 2011-09-17 15:57:07
dateupload: 1322751720
tags: city uk greatbritain england people urban blackandwhite bw building london glass lines architecture modern spiral blackwhite office europe unitedkingdom cityhall sony curves perspective line normanfoster staircase gb alpha curve offices officeblock sirnormanfoster fosterandpartners a700 openhouselondon tamronspaf1750mmf28xrdiii sonyalpha700 dslra700 silverefexpro2
license: 0
latitude: 51.504722
longitude: -0.078333
accuracy: 16
views: 95
interestingness: 5 out of 21

photo: 6467320073 e6970e57d4 7004
owner: 27555616@N04
title: shopping at the Doug Mall - Get Pushed #14 - Baddest Pun of the Year #1
originalsecret: 0cc42abe43
originalformat: jpg
o_height: 2048
o_width: 2048
datetaken: 2011-12-06 20:02:47
dateupload: 1323198432
tags: blue red yellow square 14 security badpun push huub zeeman canoneos5dmarkii huubzeeman dougmall getpushed
license: 0
latitude: 52.353432
longitude: 4.931783
accuracy: 16
views: 107
interestingness: 6 out of 21

photo: 6453966283 cd7a6b8d01 7155
owner: 21456452@N05
title: We Are Sky Divers!
originalsecret: 2492fc49c1
originalformat: jpg
o_height: 3456
o_width: 5184
datetaken: 2011-12-02 15:26:30
dateupload: 1323179400
tags: sky sun canon skydiving divers dubai desert air uae dive diver skydive alain unitedarabemirates saadalenezi
license: 0
latitude: 25.14777
longitude: 55.34646
accuracy: 13
views: 179
interestingness: 7 out of 21

photo: 6458519919 6484462db7 7004
owner: 53825985@N02
title: Bang!
originalsecret: d232d4f037
originalformat: jpg
o_height: 1643
o_width: 1809
datetaken: 2011-12-05 08:29:33
dateupload: 1323073773
tags: world china blue light red orange color colour green colors yellow silver paper stars effects model war technology purple shot mail display fireworks smoke air flames tube shapes culture shell floating ground competition chinesenewyear firework device aerial confetti celebration event entertainment burn mortar commercial material rocket perform festivity noise bang sparks society sparkling sights explosive cultural origin exporter backbone classified casing springfestival manufacturer skyrocket religeous aesthetic invented pasteboard focal propulsion midautumnfestival pyrotechnic combustible dvice
license: 3
latitude: 52.911735
longitude: -1.04222
accuracy: 14
views: 77
interestingness: 8 out of 21

photo: 6465584105 a205a87090 7035
owner: 60208344@N03
title: Tr?s vieille dame a?rodrome Mont?limar
originalsecret: null
originalformat: null
o_height: null
o_width: null
datetaken: 2011-12-06 13:51:31
dateupload: 1323175967
tags: me nord 1012 taifun mont?limar bf108
license: 0
latitude: 44.579326
longitude: 4.737575
accuracy: 15
views: 78
interestingness: 9 out of 21

photo: 6441393563 5efe2951fd 7175
owner: 64151671@N06
title: FAC 214 (TFRP No. 51)
originalsecret: null
originalformat: null
o_height: null
o_width: null
datetaken: 2011-10-25 17:49:39
dateupload: 1322832295
tags: reflection manchester promo nikon box 1987 nikkor dslr flexidisc thedurutticolumn factoryrecords vinireilly 7inchsingle stephenstreet brucemitchell theguitarandothermachines d7000 fact204 fac214 thefactoryrecordsproject theguitarandothermarketingdevices
license: 0
latitude: 53.431524
longitude: -2.230739
accuracy: 16
views: 48
interestingness: 10 out of 21

photo: 6440440411 90202349fd 7011
owner: 29061555@N03
title: cattle scale
originalsecret: 3b57a66458
originalformat: jpg
o_height: 3456
o_width: 5184
datetaken: 2011-10-16 16:22:22
dateupload: 1322811288
tags: sepia vintage device slovenia ?flickraward? pi?ece
license: 0
latitude: 46.004354
longitude: 15.644187
accuracy: 12
views: 27
interestingness: 11 out of 21

photo: 6472777415 05b08edec3 7155
owner: 21456452@N05
title: Fly with Smile!
originalsecret: 3a6cee06b0
originalformat: jpg
o_height: 3456
o_width: 5184
datetaken: 2011-12-02 15:26:29
dateupload: 1323332340
tags: sky sun smile plane canon eos rebel fly with skydive unitedarabemirates t2i saadalenezi alainsdesert
license: 0
latitude: 25.145828
longitude: 55.347061
accuracy: 16
views: 86
interestingness: 12 out of 21

photo: 6475243619 8a1330db15 7152
owner: 21456452@N05
title: Inside Sheikh Zayed Grand Mosque!
originalsecret: 3baceb3c97
originalformat: jpg
o_height: 4288
o_width: 2848
datetaken: 2011-12-03 06:26:54
dateupload: 1323332340
tags: nikon grand mosque zayed abudhabi inside sheikh unitedarabemirates d300 saadalenezi
license: 0
latitude: 24.443929
longitude: 54.419048
accuracy: 11
views: 52
interestingness: 13 out of 21

photo: 6441337579 1dc033745c 7026
owner: 64151671@N06
title: FAC 214 (TFRP No. 44)
originalsecret: null
originalformat: null
o_height: null
o_width: null
datetaken: 2011-10-25 17:48:56
dateupload: 1322831265
tags: blackandwhite bw monochrome manchester promo nikon 1987 nikkor dslr flexidisc thedurutticolumn factoryrecords vinireilly 7inchsingle stephenstreet brucemitchell theguitarandothermachines d7000 fact204 fac214 thefactoryrecordsproject theguitarandothermarketingdevices
license: 0
latitude: 53.431524
longitude: -2.230739
accuracy: 16
views: 25
interestingness: 14 out of 21

photo: 6478261617 5aa88bb11e 7033
owner: 65535964@N06
title: Plant pot with ingenious watering device! (Marazion)
originalsecret: 412cf2686c
originalformat: jpg
o_height: 683
o_width: 1024
datetaken: 2010-06-30 14:24:22
dateupload: 1323373750
tags: cornwall reddoor plantpot wallflower marazion paintedflowers eatincornwall
license: 0
latitude: 50.125061
longitude: -5.46397
accuracy: 11
views: 22
interestingness: 15 out of 21

photo: 6471305223 f0e4f014d6 7175
owner: 22573958@N06
title: DSC02808e
originalsecret: 902d506361
originalformat: jpg
o_height: 2112
o_width: 2816
datetaken: 2011-12-04 11:26:48
dateupload: 1323262676
tags: london station underground tube aldwych disused dslr compact urbex tfl
license: 3
latitude: 51.512548
longitude: -0.115227
accuracy: 15
views: 14
interestingness: 16 out of 21

photo: 6443984747 d313324b1d 7146
owner: 25208635@N02
title: Light Illuminates Darkness
originalsecret: ac802aa719
originalformat: jpg
o_height: 1500
o_width: 1500
datetaken: 2011-11-19 17:22:14
dateupload: 1322869295
tags: light people color silhouette fireworks crowd celebration
license: 0
latitude: 53.544158
longitude: -113.490078
accuracy: 16
views: 62
interestingness: 17 out of 21

photo: 6442921043 60c7f41a9d 7151
owner: 31157565@N08
title: P1020088
originalsecret: 5105ed7c5f
originalformat: jpg
o_height: 1980
o_width: 2640
datetaken: 2011-07-04 11:03:15
dateupload: 1322853878
tags: red green yellow cardinal solarpanel navigation channel bouys vlissingen octahedral buoyant radarreflector
license: 6
latitude: 51.448016
longitude: 3.587207
accuracy: 11
views: 43
interestingness: 18 out of 21

photo: 6459859469 4c45b51ea3 7172
owner: 55691305@N08
title: lazy summer
originalsecret: 6c4eb3aed7
originalformat: jpg
o_height: 1285
o_width: 3931
datetaken: 2010-06-27 12:20:22
dateupload: 1323096097
tags: summer dog feet pool lazy
license: 1
latitude: 27.986244
longitude: -82.816443
accuracy: 15
views: 26
interestingness: 19 out of 21

photo: 6475175401 4e5668fe4f 7020
owner: 21456452@N05
title: Ferrari World ( It's your turn )
originalsecret: d4f0dc6404
originalformat: jpg
o_height: 2848
o_width: 4288
datetaken: 2011-12-03 02:52:09
dateupload: 1323332285
tags: world nikon uae ferrari inside unitedarabemirates d300 ferrariworld itsyourturn yasisland saadalenezi
license: 0
latitude: 24.316589
longitude: 52.600921
accuracy: 10
views: 32
interestingness: 20 out of 21

photo: 6478729047 932d528c50 7010
owner: 52872531@N07
title: Chewin'
originalsecret: 9360277705
originalformat: jpg
o_height: 2570
o_width: 3870
datetaken: 2011-12-08 21:43:26
dateupload: 1323380065
tags: pets dogs animals nikon flash indoors externalflash chinesecresteddog d5000
license: 0
latitude: 47.493776
longitude: 19.033126
accuracy: 10
views: 50
interestingness: 21 out of 21

photo: 6471311047 f7dbb88214 7168
owner: 22573958@N06
title: DSC02822e
originalsecret: 752942db24
originalformat: jpg
o_height: 2112
o_width: 2816
datetaken: 2011-12-04 11:46:09
dateupload: 1323262792
tags: london station underground tube aldwych disused dslr compact urbex tfl
license: 3
latitude: 51.512548
longitude: -0.115227
accuracy: 15
views: 37
interestingness: 22 out of 21

photo: 6466619375 456b9dbc08 7005
owner: 54754281@N04
title: WTN just follow ......
originalsecret: c6d4b2950a
originalformat: jpg
o_height: 2112
o_width: 2816
datetaken: 2011-12-06 15:45:21
dateupload: 1323189871
tags: trees collie path stick dec04 navigation scdec scdec04
license: 0
latitude: 50.694282
longitude: -1.228408
accuracy: 11
views: 46
interestingness: 23 out of 21

photo: 6471782757 d965908384 7148
owner: 7361952@N03
title: 98 bexley Hall Place
originalsecret: 4877408b48
originalformat: jpg
o_height: 4032
o_width: 5580
datetaken: 2011-12-05 14:17:19
dateupload: 1323269967
tags: uk england london landscape bexley hallplace
license: 0
latitude: 51.447688
longitude: 0.158464
accuracy: 15
views: 9
interestingness: 24 out of 21

photo: 6443018111 0e20f8a758 7141
owner: 36519414@N00
title: Electronic devices
originalsecret: null
originalformat: null
o_height: null
o_width: null
datetaken: 2011-12-02 12:49:40
dateupload: 1322855144
tags: france macro circuits circuit franchecomt? fra ?lectronique sochaux focusstacking electronicdevices composants composant composants?lectroniques
license: 4
latitude: 47.518888
longitude: 6.820822
accuracy: 16
views: 94
interestingness: 25 out of 21

photo: 6468289389 ccd879b80f 7143
owner: 73877479@N00
title: Self installed RAM upgrade for Macbook Pro
originalsecret: null
originalformat: null
o_height: null
o_width: null
datetaken: 2011-12-06 16:47:02
dateupload: 1323210211
tags: 
license: 0
latitude: 41.381833
longitude: -81.517834
accuracy: 16
views: 23
interestingness: 26 out of 21

photo: 6456889349 d409a96a92 7169
owner: 24893739@N00
title: Preferred Jawa Transport Device
originalsecret: 13d65f05f6
originalformat: jpg
o_height: 3168
o_width: 4752
datetaken: 2010-07-12 10:23:28
dateupload: 1323051401
tags: newmexico route66 desert dry highdesert gallup westernnewmexico jawababetta donatedbythomasgasparich rexhistoricalmuseum galluphistoricalmuseum galluphistoricalsociety historyoftheregionscoalminingindustry i40sights
license: 0
latitude: 35.526503
longitude: -108.74804
accuracy: 12
views: 8
interestingness: 27 out of 21

photo: 6470574507 f0e232cafb 7142
owner: 51035718466@N01
title: Schill's setup
originalsecret: bc57955560
originalformat: jpg
o_height: 2848
o_width: 4288
datetaken: 2011-12-06 18:10:51
dateupload: 1323247388
tags: event
license: 1
latitude: 37.753946
longitude: -122.420622
accuracy: 16
views: 21
interestingness: 28 out of 21

photo: 6471319241 5eed736b3c 7150
owner: 22573958@N06
title: DSC02798e
originalsecret: 8ef6d35a6d
originalformat: jpg
o_height: 2112
o_width: 2816
datetaken: 2011-12-04 11:15:04
dateupload: 1323262945
tags: london station underground tube aldwych disused dslr compact urbex tfl
license: 3
latitude: 51.512548
longitude: -0.115227
accuracy: 15
views: 100
interestingness: 29 out of 21

photo: 6471313557 8823438cfb 7153
owner: 22573958@N06
title: DSC02828e
originalsecret: 010da2b521
originalformat: jpg
o_height: 2112
o_width: 2816
datetaken: 2011-12-04 11:52:04
dateupload: 1323262841
tags: london station underground tube aldwych disused dslr compact urbex tfl
license: 3
latitude: 51.512548
longitude: -0.115227
accuracy: 15
views: 59
interestingness: 30 out of 21

photo: 6471312683 6575e43b41 7013
owner: 22573958@N06
title: DSC02827e
originalsecret: 81a1cecc6a
originalformat: jpg
o_height: 2112
o_width: 2816
datetaken: 2011-12-04 11:50:49
dateupload: 1323262823
tags: london station underground tube aldwych disused dslr compact urbex tfl
license: 3
latitude: 51.512548
longitude: -0.115227
accuracy: 15
views: 47
interestingness: 31 out of 21

photo: 6471312019 24b2d9d963 7168
owner: 22573958@N06
title: DSC02825e
originalsecret: dc96c11b6d
originalformat: jpg
o_height: 2112
o_width: 2816
datetaken: 2011-12-04 11:47:41
dateupload: 1323262810
tags: london station underground tube aldwych disused dslr compact urbex tfl
license: 3
latitude: 51.512548
longitude: -0.115227
accuracy: 15
views: 42
interestingness: 32 out of 21

photo: 6471300289 684df194e5 7167
owner: 22573958@N06
title: DSC02800e
originalsecret: 4efdfa112a
originalformat: jpg
o_height: 2066
o_width: 2756
datetaken: 2011-12-04 11:20:55
dateupload: 1323262584
tags: london station underground tube aldwych disused dslr compact urbex tfl
license: 3
latitude: 51.512548
longitude: -0.115227
accuracy: 15
views: 11
interestingness: 33 out of 21

photo: 6476100647 32944d06a2 7030
owner: 36698994@N04
title: Musselburgh Race Course - East Lothian Scotland
originalsecret: af69cb7a75
originalformat: jpg
o_height: 640
o_width: 853
datetaken: 2008-11-28 14:23:25
dateupload: 1323339001
tags: 
license: 0
latitude: 55.949139
longitude: -3.045423
accuracy: 14
views: 10
interestingness: 34 out of 21

photo: 6352262614 2a196d584a 6035
owner: 59705247@N03
title: She needs a floating device
originalsecret: null
originalformat: null
o_height: null
o_width: null
datetaken: 2011-11-16 18:11:11
dateupload: 1323182591
tags: sea beach sunglasses aruba bikini milf m?re
license: 0
latitude: 12.45468
longitude: -69.911499
accuracy: 9
views: 143
interestingness: 35 out of 21

photo: 6471310289 7bab308128 7035
owner: 22573958@N06
title: DSC02819e
originalsecret: 99e9df36ed
originalformat: jpg
o_height: 2112
o_width: 2816
datetaken: 2011-12-04 11:42:12
dateupload: 1323262776
tags: london station underground tube aldwych disused dslr compact urbex tfl
license: 3
latitude: 51.512548
longitude: -0.115227
accuracy: 15
views: 9
interestingness: 36 out of 21

photo: 6471309475 f0c301b0d3 7007
owner: 22573958@N06
title: DSC02818e
originalsecret: 6dae8b497f
originalformat: jpg
o_height: 2112
o_width: 2816
datetaken: 2011-12-04 11:41:40
dateupload: 1323262760
tags: london station underground tube aldwych disused dslr compact urbex tfl
license: 3
latitude: 51.512548
longitude: -0.115227
accuracy: 15
views: 12
interestingness: 37 out of 21

photo: 6471308745 c4c0e1c793 7149
owner: 22573958@N06
title: DSC02817e
originalsecret: ab2fa08b10
originalformat: jpg
o_height: 2112
o_width: 2816
datetaken: 2011-12-04 11:39:41
dateupload: 1323262746
tags: london station underground tube aldwych disused dslr compact urbex tfl
license: 3
latitude: 51.512548
longitude: -0.115227
accuracy: 15
views: 8
interestingness: 38 out of 21

photo: 6471307895 0cbca087dd 7141
owner: 22573958@N06
title: DSC02811e
originalsecret: 840bfbeaf6
originalformat: jpg
o_height: 2112
o_width: 2816
datetaken: 2011-12-04 11:31:09
dateupload: 1323262728
tags: london station underground tube aldwych disused dslr compact urbex tfl
license: 3
latitude: 51.512548
longitude: -0.115227
accuracy: 15
views: 15
interestingness: 39 out of 21

photo: 6471307007 cc2755cd88 7167
owner: 22573958@N06
title: DSC02810e
originalsecret: 3702dc4ec8
originalformat: jpg
o_height: 2112
o_width: 2816
datetaken: 2011-12-04 11:30:45
dateupload: 1323262710
tags: london station underground tube aldwych disused dslr compact urbex tfl
license: 3
latitude: 51.512548
longitude: -0.115227
accuracy: 15
views: 13
interestingness: 40 out of 21

photo: 6471306227 f6d7c25c68 7032
owner: 22573958@N06
title: DSC02809e
originalsecret: c474322a2c
originalformat: jpg
o_height: 2816
o_width: 2112
datetaken: 2011-12-04 11:30:31
dateupload: 1323262694
tags: london station underground tube aldwych disused dslr compact urbex tfl
license: 3
latitude: 51.512548
longitude: -0.115227
accuracy: 15
views: 8
interestingness: 41 out of 21

photo: 6471304175 bedb3fc670 7014
owner: 22573958@N06
title: DSC02805e
originalsecret: 2a848918a1
originalformat: jpg
o_height: 2112
o_width: 2816
datetaken: 2011-12-04 11:23:52
dateupload: 1323262656
tags: london station underground tube aldwych disused dslr compact urbex tfl
license: 3
latitude: 51.512548
longitude: -0.115227
accuracy: 15
views: 9
interestingness: 42 out of 21

photo: 6471303237 282792002b 7024
owner: 22573958@N06
title: DSC02803e
originalsecret: f03b626042
originalformat: jpg
o_height: 2112
o_width: 2816
datetaken: 2011-12-04 11:22:55
dateupload: 1323262640
tags: london station underground tube aldwych disused dslr compact urbex tfl
license: 3
latitude: 51.512548
longitude: -0.115227
accuracy: 15
views: 9
interestingness: 43 out of 21

photo: 6471302121 fc631d220d 7174
owner: 22573958@N06
title: DSC02802e
originalsecret: bb826b31e0
originalformat: jpg
o_height: 2816
o_width: 2112
datetaken: 2011-12-04 11:22:16
dateupload: 1323262618
tags: london station underground tube aldwych disused dslr compact urbex tfl
license: 3
latitude: 51.512548
longitude: -0.115227
accuracy: 15
views: 7
interestingness: 44 out of 21

photo: 6471301205 01f4f735c4 7029
owner: 22573958@N06
title: DSC02801e
originalsecret: 66fe4c67ab
originalformat: jpg
o_height: 2112
o_width: 2816
datetaken: 2011-12-04 11:21:27
dateupload: 1323262601
tags: london station underground tube aldwych disused dslr compact urbex tfl
license: 3
latitude: 51.512548
longitude: -0.115227
accuracy: 15
views: 10
interestingness: 45 out of 21

photo: 6471299419 3c04d1d5d2 7034
owner: 22573958@N06
title: DSC02799e
originalsecret: 3da3730a4b
originalformat: jpg
o_height: 2648
o_width: 1986
datetaken: 2011-12-04 11:18:16
dateupload: 1323262566
tags: london station underground tube aldwych disused dslr compact urbex tfl
license: 3
latitude: 51.512548
longitude: -0.115227
accuracy: 15
views: 9
interestingness: 46 out of 21

photo: 6471297957 b7102f3186 7016
owner: 22573958@N06
title: DSC02796e
originalsecret: 9a06a536ac
originalformat: jpg
o_height: 2112
o_width: 2816
datetaken: 2011-12-04 11:13:27
dateupload: 1323262537
tags: london station underground tube aldwych disused dslr compact urbex tfl
license: 3
latitude: 51.512548
longitude: -0.115227
accuracy: 15
views: 9
interestingness: 47 out of 21

photo: 6434643321 efd24c22d3 7154
owner: 21945957@N00
title: Dan Roam at Adaptive Path
originalsecret: d771412408
originalformat: jpg
o_height: 2448
o_width: 3264
datetaken: 2011-11-30 19:46:53
dateupload: 1322714493
tags: blah adaptivepath iphone 2011 danroam
license: 0
latitude: 37.797333
longitude: -122.394
accuracy: 16
views: 16
interestingness: 48 out of 21

photo: 6478044339 7e3e71636e 7168
owner: 86619511@N00
title: Key Data Wind Technology: offloading core browser processing tasks to cloud servers
originalsecret: null
originalformat: null
o_height: null
o_width: null
datetaken: 2011-12-08 13:21:18
dateupload: 1323370678
tags: world upload wind internet bank data access 35 tablet aakash ict4d inveneo ict4edu
license: 0
latitude: 38.896666
longitude: -77.044167
accuracy: 16
views: 77
interestingness: 49 out of 21

photo: 6477968559 ab9769da81 7153
owner: 86619511@N00
title: Data Wind 6-month product road map
originalsecret: null
originalformat: null
o_height: null
o_width: null
datetaken: 2011-12-08 13:36:41
dateupload: 1323369626
tags: life road india upload computer wind map cycle wifi data product tablet touchscreen aakash inveneo resistive
license: 0
latitude: 38.899166
longitude: -77.0435
accuracy: 16
views: 78
interestingness: 50 out of 21

photo: 6473520293 b61b6d5ff8 7161
owner: 80901812@N00
title: ancient architecture on modern devices
originalsecret: null
originalformat: null
o_height: null
o_width: null
datetaken: 2011-12-04 12:30:44
dateupload: 1323292593
tags: bw salzburg austria tirol blackwhite europa europe streetphotography ?stereich schwarzweis
license: 0
latitude: 47.805469
longitude: 13.04156
accuracy: 16
views: 9
interestingness: 51 out of 21

photo: 6471297081 0f681e64ba 7168
owner: 22573958@N06
title: DSC02795e
originalsecret: 8ee6c2e997
originalformat: jpg
o_height: 2112
o_width: 2816
datetaken: 2011-12-04 11:12:07
dateupload: 1323262520
tags: london station underground tube aldwych disused dslr compact urbex tfl
license: 3
latitude: 51.512548
longitude: -0.115227
accuracy: 15
views: 14
interestingness: 52 out of 21

photo: 6471296163 840e472779 7148
owner: 22573958@N06
title: DSC02783e
originalsecret: a18f868c3a
originalformat: jpg
o_height: 2816
o_width: 2112
datetaken: 2011-12-04 10:26:47
dateupload: 1323262503
tags: london station underground tube aldwych disused dslr compact urbex tfl
license: 3
latitude: 51.512548
longitude: -0.115227
accuracy: 15
views: 12
interestingness: 53 out of 21

photo: 6468460873 f85c93ec6a 7005
owner: 58763466@N00
title: Underwood Noiseless
originalsecret: 824b4790b4
originalformat: jpg
o_height: 1840
o_width: 3264
datetaken: 2011-12-06 18:00:14
dateupload: 1323212414
tags: flickrandroidapp:filter=none
license: 5
latitude: 42.267383
longitude: -71.806375
accuracy: 16
views: 3
interestingness: 54 out of 21

photo: 6465277673 93c1e1b89b 7022
owner: 70153992@N08
title: P?ssaro no Parque Farroupilha - Reden??o - Porto Alegre, RS.
originalsecret: null
originalformat: null
o_height: null
o_width: null
datetaken: 2011-09-11 16:45:47
dateupload: 1323170030
tags: flowers naturaleza flores bird nature natureza portoalegre parquefarroupilha passarinho aves ave nectar beleza domingo riograndedosul passaro p?jaro littlebird parquedareden??o deaves n?ctar beautyparquedelaredenci?n bellezaportoalegre
license: 0
latitude: -30.036897
longitude: -51.215064
accuracy: 15
views: 13
interestingness: 55 out of 21

photo: 6459043569 2b397eba0f 7143
owner: 70153992@N08
title: Abelha
originalsecret: null
originalformat: null
o_height: null
o_width: null
datetaken: 2011-12-04 09:51:40
dateupload: 1323083943
tags: naturaleza macro nature insect landscape natureza flor paisagem bee abelha inseto abeja insecto n?ctar flowernectar n?ctardelasflores paisajeabelhaflornaturezainsetopaisagemmacrobeeflowernectarnatureinsectlandscapeabejan?ctardelasfloresnaturalezainsecto
license: 0
latitude: -29.654264
longitude: -51.136529
accuracy: 16
views: 11
interestingness: 56 out of 21

photo: 6443015059 3a102a9a39 7153
owner: 36519414@N00
title: Electronic devices
originalsecret: null
originalformat: null
o_height: null
o_width: null
datetaken: 2011-12-02 12:42:51
dateupload: 1322855100
tags: france macro circuits circuit franchecomt? fra ?lectronique sochaux focusstacking electronicdevices composants composant composants?lectroniques
license: 4
latitude: 47.518888
longitude: 6.820822
accuracy: 16
views: 84
interestingness: 57 out of 21

photo: 6441354325 1eaa2bfd40 7174
owner: 64151671@N06
title: FAC 214 (TFRP No. 46)
originalsecret: null
originalformat: null
o_height: null
o_width: null
datetaken: 2011-10-25 17:50:02
dateupload: 1322831573
tags: manchester promo nikon 1987 nikkor dslr flexidisc thedurutticolumn factoryrecords vinireilly 7inchsingle stephenstreet brucemitchell theguitarandothermachines d7000 fact204 fac214 thefactoryrecordsproject theguitarandothermarketingdevices
license: 0
latitude: 53.431524
longitude: -2.230739
accuracy: 16
views: 22
interestingness: 58 out of 21

photo: 6441347631 57552e5493 7158
owner: 64151671@N06
title: FAC 214 (TFRP No. 45)
originalsecret: null
originalformat: null
o_height: null
o_width: null
datetaken: 2011-10-25 17:49:48
dateupload: 1322831447
tags: blackandwhite bw monochrome manchester promo nikon box 1987 nikkor dslr flexidisc thedurutticolumn factoryrecords vinireilly 7inchsingle stephenstreet brucemitchell theguitarandothermachines d7000 fact204 fac214 thefactoryrecordsproject theguitarandothermarketingdevices
license: 0
latitude: 53.431524
longitude: -2.230739
accuracy: 16
views: 19
interestingness: 59 out of 21

photo: 6433646217 d106b9de9e 7019
owner: 53921762@N00
title: Two twig solution
originalsecret: 8d60ac6cb8
originalformat: jpg
o_height: 1756
o_width: 1376
datetaken: 2011-11-26 16:48:07
dateupload: 1322699791
tags: geotagged gate twig recycling tottenham haringey improvise londonn17 chesnutroad urbanenvironmentdepartment protheroehouse pedestrianisedroad departmentofspacetimeentropy geo:lat=5159089393130383 geo:lon=00686777401240306 ligneouslatchingdevice
license: 5
latitude: 51.590893
longitude: -0.068677
accuracy: 16
views: 11
interestingness: 60 out of 21

photo: 6454075271 18afcf1699 7170
owner: 88691402@N00
title: Newfangled telecommunications devices
originalsecret: null
originalformat: null
o_height: null
o_width: null
datetaken: 2011-12-04 12:58:14
dateupload: 1323022686
tags: station strand underground tube aldwych openday londontransportmuseum disusedstations
license: 0
latitude: 51.512211
longitude: -0.11556
accuracy: 15
views: 9
interestingness: 61 out of 21

photo: 6449241569 99a2143deb 7148
owner: 21945957@N00
title: Mission Faces
originalsecret: cc076aaf49
originalformat: jpg
o_height: 1464
o_width: 2048
datetaken: 2011-12-03 15:12:29
dateupload: 1322953949
tags: iphone
license: 0
latitude: 37.752326
longitude: -122.416441
accuracy: 15
views: 17
interestingness: 62 out of 21

photo: 6433962711 52da9ba559 7158
owner: 57804393@N02
title: I'm pretty sure everyone is on their mobile device. Everyone.
originalsecret: null
originalformat: null
o_height: null
o_width: null
datetaken: 2011-11-30 17:55:00
dateupload: 1322704500
tags: square squareformat lomofi iphoneography instagramapp uploaded:by=instagram foursquare:venue=4d43353c1925721e85f390dd
license: 0
latitude: 37.364962
longitude: -121.924145
accuracy: 16
views: 0
interestingness: 63 out of 21

photo: 6472467951 592d1ae774 7170
owner: 35711622@N08
title: Back in the Old Days
originalsecret: 66eb6f5a54
originalformat: jpg
o_height: 664
o_width: 1000
datetaken: 2011-12-01 20:01:11
dateupload: 1323278621
tags: museum nikon antique malang telephones d5000
license: 0
latitude: -7.981037
longitude: 112.627716
accuracy: 10
views: 0
interestingness: 64 out of 21

photo: 6433695067 1b2a07a3b4 7162
owner: 18548283@N00
title: w00t! Successfully coded a custom BMC ADDM pattern file that extracts a Hitachi storage device driver version info. #nftc #newsfromthecube
originalsecret: f3122947ca
originalformat: jpg
o_height: 2448
o_width: 3264
datetaken: 2011-11-30 16:38:30
dateupload: 1322700502
tags: moblog evo 4g htc sprinthtcevopc36100 pc36100
license: 1
latitude: 32.896591
longitude: -117.201067
accuracy: 16
views: 44
interestingness: 65 out of 21

photo: 6470575055 f93a57f721 7167
owner: 51035718466@N01
title: Torture device
originalsecret: 208b3c4345
originalformat: jpg
o_height: 2848
o_width: 4288
datetaken: 2011-12-06 18:46:46
dateupload: 1323247400
tags: event
license: 1
latitude: 37.753946
longitude: -122.420622
accuracy: 16
views: 19
interestingness: 66 out of 21

photo: 6444794383 3c22d114af 7033
owner: 39231768@N04
title: Humayun's Tomb, Delhi, India-1
originalsecret: null
originalformat: null
o_height: null
o_width: null
datetaken: 2011-11-27 22:06:20
dateupload: 1322883687
tags: india delhi tomb humayun
license: 5
latitude: 28.643999
longitude: 77.091003
accuracy: 5
views: 5
interestingness: 67 out of 21

photo: 6435222753 5ae79b3827 7172
owner: 39042368@N04
title: ePodsOne
originalsecret: dd13c06607
originalformat: jpg
o_height: 3264
o_width: 2448
datetaken: 2011-12-01 08:55:17
dateupload: 1322726117
tags: 
license: 0
latitude: 46.51663
longitude: 6.564869
accuracy: 16
views: 36
interestingness: 68 out of 21

photo: 6472655383 84658858e5 7030
owner: 46431541@N02
title: Packing light for 5 days away
originalsecret: 387aeae090
originalformat: jpg
o_height: 2448
o_width: 3264
datetaken: 2011-12-07 18:46:30
dateupload: 1323280993
tags: plasencia gr2 packinglight goruck
license: 0
latitude: 40.031167
longitude: -6.091
accuracy: 16
views: 82
interestingness: 69 out of 21

photo: 6459751239 734eb4e591 7021
owner: 31902638@N06
title: 1229
originalsecret: e02239ec11
originalformat: jpg
o_height: 1000
o_width: 1504
datetaken: 2011-12-04 11:55:49
dateupload: 1323094758
tags: berlin germany espionage stasi
license: 4
latitude: 52.519393
longitude: 13.402569
accuracy: 15
views: 2
interestingness: 70 out of 21

photo: 6436751347 6f1f459457 7143
owner: 70871098@N04
title: 12/01/2011 - Sound beyond size
originalsecret: null
originalformat: null
o_height: null
o_width: null
datetaken: 2007-01-01 12:13:22
dateupload: 1322755207
tags: size xmini
license: 0
latitude: 24.081417
longitude: 120.536842
accuracy: 11
views: 2
interestingness: 71 out of 21

photo: 6434459129 38db32496f 7020
owner: 68342439@N05
title: DSC01710
originalsecret: null
originalformat: null
o_height: null
o_width: null
datetaken: 2011-11-30 20:42:06
dateupload: 1322711773
tags: sonya77 sonysal70400gserieslens
license: 0
latitude: 28.14748
longitude: -96.978164
accuracy: 16
views: 1
interestingness: 72 out of 21

photo: 6434449363 3cf3505ef2 7174
owner: 68342439@N05
title: DSC01700
originalsecret: null
originalformat: null
o_height: null
o_width: null
datetaken: 2011-11-30 20:42:04
dateupload: 1322711632
tags: sonya77 sonysal70400gserieslens
license: 0
latitude: 28.147444
longitude: -96.978162
accuracy: 16
views: 3
interestingness: 73 out of 21

photo: 6479686331 56d31d2652 7009
owner: 21945957@N00
title: Sunset & Blimp from the 54th Floor
originalsecret: 4a8e604a0b
originalformat: jpg
o_height: 3264
o_width: 2448
datetaken: 2011-12-08 17:15:19
dateupload: 1323395574
tags: iphone
license: 0
latitude: 34.053333
longitude: -118.2535
accuracy: 16
views: 26
interestingness: 74 out of 21

photo: 6479583067 31dbf0ccfa 7021
owner: 21945957@N00
title: Downtown LA
originalsecret: 99564c2be5
originalformat: jpg
o_height: 2448
o_width: 3264
datetaken: 2011-12-08 17:16:09
dateupload: 1323393815
tags: iphone
license: 0
latitude: 34.0535
longitude: -118.2535
accuracy: 16
views: 23
interestingness: 75 out of 21

photo: 6456871443 81b43c95de 7004
owner: 47679490@N00
title: To think of the year I spent devoted to this little device. Little blinking lights were all my 11 year old mind required.
originalsecret: null
originalformat: null
o_height: null
o_width: null
datetaken: 2011-12-04 13:08:38
dateupload: 1323051215
tags: electronicfootballcira1979
license: 0
latitude: 37.790668
longitude: -122.314835
accuracy: 16
views: 10
interestingness: 76 out of 21

photo: 6449834231 22c9a0acae 7147
owner: 81356246@N00
title: photo.JPG
originalsecret: 97337ff38e
originalformat: jpg
o_height: 3264
o_width: 2448
datetaken: 2011-12-03 18:18:53
dateupload: 1322962195
tags: mobile
license: 0
latitude: 39.732833
longitude: -104.977834
accuracy: 16
views: 8
interestingness: 77 out of 21

photo: 6469185059 afb81eb84b 7025
owner: 22809317@N04
title: Device
originalsecret: 64d09ba407
originalformat: jpg
o_height: 2048
o_width: 1536
datetaken: 2011-12-06 20:58:39
dateupload: 1323223187
tags: 
license: 5
latitude: 38.880793
longitude: -77.137095
accuracy: 16
views: 57
interestingness: 78 out of 21

photo: 6465909947 95910d6ca0 7143
owner: 16430733@N04
title: WTF?  Frozen water already.
originalsecret: null
originalformat: null
o_height: null
o_width: null
datetaken: 2011-12-06 08:09:34
dateupload: 1323180978
tags: 
license: 0
latitude: 33.084166
longitude: -96.775334
accuracy: 16
views: 0
interestingness: 79 out of 21

photo: 6464338143 95490a044c 7172
owner: 71476857@N06
title: Crutches 4 Africa
originalsecret: null
originalformat: null
o_height: null
o_width: null
datetaken: 2008-01-01 00:02:42
dateupload: 1323151073
tags: 
license: 0
latitude: -0.085487
longitude: 34.751815
accuracy: 11
views: 11
interestingness: 80 out of 21

photo: 6447365291 6cdbbe91dc 7017
owner: 91479888@N00
title: Saratoga morning
originalsecret: null
originalformat: null
o_height: null
o_width: null
datetaken: 2011-12-03 08:43:34
dateupload: 1322930614
tags: 
license: 0
latitude: 37.2555
longitude: -122.036334
accuracy: 16
views: 1
interestingness: 81 out of 21

photo: 6444826059 242d0a51bc 7032
owner: 66028782@N00
title: CommNexus Panel Discussion
originalsecret: null
originalformat: null
o_height: null
o_width: null
datetaken: 2011-11-29 19:22:36
dateupload: 1322884214
tags: 
license: 0
latitude: 32.895555
longitude: -117.195834
accuracy: 16
views: 3
interestingness: 82 out of 21

photo: 6438961809 6d1f1120a5 7025
owner: 62817311@N03
title: Getting the Devices Ready!
originalsecret: 8cf44124b1
originalformat: jpg
o_height: 3240
o_width: 4320
datetaken: 2011-11-22 19:47:05
dateupload: 1322785038
tags: 
license: 1
latitude: 34.065067
longitude: -118.374681
accuracy: 13
views: 1
interestingness: 83 out of 21

photo: 6438873275 ceea0e19f1 7157
owner: 12967790@N00
title: HP 3PAR- The technology behind the leading storage system for Virtual and Cloud Data Centres
originalsecret: ff1b141325
originalformat: jpg
o_height: 1552
o_width: 2592
datetaken: 2011-11-30 12:03:30
dateupload: 1322783680
tags: 
license: 4
latitude: 48.216538
longitude: 16.4103
accuracy: 16
views: 7
interestingness: 84 out of 21

photo: 6444869849 2eb710c000 7016
owner: 14643312@N02
title: Turbulators
originalsecret: 178f37e7db
originalformat: jpg
o_height: 3380
o_width: 5069
datetaken: 2011-10-31 22:33:18
dateupload: 1322884991
tags: lighthouse lakemichigan greatlakes nikonf5 colorneg vuescan nikoncoolscan5000ed kodakektar100 vacation2011upperlakes
license: 0
latitude: 44.691111
longitude: -86.2554
accuracy: 16
views: 28
interestingness: 85 out of 21

photo: 6476233085 8bcbef75a0 7161
owner: 65934665@N06
title: Learning English
originalsecret: 5e8e672bff
originalformat: jpg
o_height: 2548
o_width: 1911
datetaken: 2011-11-07 07:39:21
dateupload: 1323342021
tags: 
license: 1
latitude: 31.233882
longitude: 121.47889
accuracy: 16
views: 4
interestingness: 86 out of 21

photo: 6454664793 c0aae4e42d 7022
owner: 87087035@N00
title: Inner Temple Inns of Court armorial device
originalsecret: null
originalformat: null
o_height: null
o_width: null
datetaken: 2011-12-02 10:57:37
dateupload: 1323028662
tags: 
license: 0
latitude: 51.51343
longitude: -0.110812
accuracy: 16
views: 0
interestingness: 87 out of 21

photo: 6452231899 94d279741d 7153
owner: 37473766@N08
title: London Eye at Night
originalsecret: d659f565fb
originalformat: jpg
o_height: 4676
o_width: 3117
datetaken: 2011-11-19 21:04:19
dateupload: 1323001979
tags: 
license: 4
latitude: 51.502999
longitude: -0.123424
accuracy: 13
views: 3
interestingness: 88 out of 21

Total images queried: 21
