
mintime: 1322697600 maxtime: 1324512427.5
numimgs: 34
total pages: 1
visiting only 1 pages ( up to 250 images)
photo: 6467248615 3d9d56a31e 7024
owner: 40512809@N02
title: Polite University Drug Advice
originalsecret: null
originalformat: null
o_height: null
o_width: null
datetaken: 2011-12-05 15:21:19
dateupload: 1323197559
tags: cambridge sunset sign kingscollege hdr keepoffgrassplease
license: 0
latitude: 52.204638
longitude: 0.11439
accuracy: 16
views: 152
interestingness: 1 out of 34

photo: 6449007271 840f99751c 7007
owner: 86818123@N00
title: Pyschedelic
originalsecret: null
originalformat: null
o_height: null
o_width: null
datetaken: 2011-12-03 18:23:36
dateupload: 1322950855
tags: festival butterfly december rochester psyche week48 0312 2011 psycheledic ???? dickensianchristmas nikond700 richardreader 52images2011
license: 0
latitude: 51.386258
longitude: 0.50728
accuracy: 14
views: 68
interestingness: 2 out of 34

photo: 6457156039 36230fa888 7018
owner: 35528040@N04
title: Drugs & Appliances
originalsecret: 10b15238a5
originalformat: jpg
o_height: 1695
o_width: 2079
datetaken: 2011-09-06 14:04:22
dateupload: 1323054288
tags: usa abandoned facade america awning us midwest ks rusty storefront limestone kansas hanover smalltown outofbusiness pammorris pamspics usedappliances septemberroadtrip nikond5000 hanoverkansas hanoverappliances
license: 1
latitude: 39.891694
longitude: -96.871948
accuracy: 11
views: 76
interestingness: 3 out of 34

photo: 6467521953 51f4ed5bce 7162
owner: 54686230@N04
title: Stranger 2/100
originalsecret: null
originalformat: null
o_height: null
o_width: null
datetaken: 2011-10-07 18:32:34
dateupload: 1323200916
tags: camera portrait white man male bird me up shirt tattoo hair neck beard looking finger cigarette smoking giving short button drug flannel hispanic middle tee chin flipping dealer
license: 0
latitude: 32.81294
longitude: -96.651417
accuracy: 16
views: 103
interestingness: 4 out of 34

photo: 6477737653 6ef6e32fdf 7007
owner: 43749513@N08
title: "This one is mine!"
originalsecret: 054e42a20e
originalformat: jpg
o_height: 1937
o_width: 2870
datetaken: 2011-12-07 16:46:05
dateupload: 1323366329
tags: christmas stella holiday cat feline christmasdecoration tissuepaper dilutetortoiseshell
license: 0
latitude: 40.205448
longitude: -75.100067
accuracy: 11
views: 43
interestingness: 5 out of 34

photo: 6479385665 95b4d55870 7022
owner: 23448498@N02
title: I Broke One Million!  1,033,557 Views!
originalsecret: 0ea04d7d2f
originalformat: jpg
o_height: 2401
o_width: 4249
datetaken: 2011-12-08 18:18:24
dateupload: 1323390351
tags: yahoo screenshot nikon flickr awesome stats photosharing socialnetworking millionaire davidsmith onemillionviews calgaryalbertacanada thankyoumydearflickrfriends
license: 0
latitude: 50.948288
longitude: -114.009997
accuracy: 14
views: 47
interestingness: 6 out of 34

photo: 6438478999 73bcb19dc6 7034
owner: 28650594@N03
title: Otay Mesa Drug Tunnel [Image 4 of 4]
originalsecret: 8ba2c65cab
originalformat: jpg
o_height: 3456
o_width: 5184
datetaken: 2011-11-29 18:02:20
dateupload: 1322778085
tags: california ca ice us sandiego drugsmugglingtunnelmarijuana smugglingtunnel
license: 4
latitude: 32.715679
longitude: -117.16172
accuracy: 11
views: 77
interestingness: 7 out of 34

photo: 6455536505 7f86926a3d 7031
owner: 35528040@N04
title: Main Street With Boat
originalsecret: 2d807c5095
originalformat: jpg
o_height: 1367
o_width: 1886
datetaken: 2011-09-06 14:02:21
dateupload: 1323037005
tags: usa facade america us mainstreet midwest ks facades kansas storefronts hanover smalltown pammorris pamspics septemberroadtrip nikond5000 hanoverkansas
license: 1
latitude: 39.892818
longitude: -96.875579
accuracy: 11
views: 71
interestingness: 8 out of 34

photo: 6472828467 327e1c5293 7165
owner: 36714682@N08
title: The Dark side of Luchas
originalsecret: null
originalformat: null
o_height: null
o_width: null
datetaken: 2011-11-15 15:30:55
dateupload: 1323283371
tags: light portrait men wet look youth canon contraluz dark studio mexico photography luces photo bottle fight hit model eyes foto retrato flash bad picture makeup estudio modelo alcohol vida drugs luchador contraste deporte bluedemon mascara heroin punch fotografia tatoo puebla pelea hombre cabello joven tatuajes deportivo defensa pu?o luchas practicas adiction 60d davidcordova efe64 deividcordova
license: 0
latitude: 19.056601
longitude: -98.232579
accuracy: 16
views: 74
interestingness: 9 out of 34

photo: 6460771149 ba4bd1dfe7 7141
owner: 36714682@N08
title: The Dark side of boxing 4
originalsecret: null
originalformat: null
o_height: null
o_width: null
datetaken: 2011-11-15 14:29:13
dateupload: 1323106238
tags: light portrait woman sexy wet girl beautiful beauty look youth canon contraluz dark studio mexico photography luces photo fight hit mujer model eyes foto chica box retrato top gorgeous smoke flash bad picture makeup estudio modelo ni?a ojos linda vida drugs contraste deporte heroin punch fotografia puebla pelea chava cabello joven badgirl boxeadora defensa pu?o boxeo deportiva practicas vendas adiction 60d davidcordova efe64 deividcordova
license: 0
latitude: 19.056601
longitude: -98.232579
accuracy: 16
views: 90
interestingness: 10 out of 34

photo: 6447352739 0e1ff6b155 7030
owner: 36714682@N08
title: The Dark side of boxing 3
originalsecret: null
originalformat: null
o_height: null
o_width: null
datetaken: 2011-11-15 14:34:41
dateupload: 1322930467
tags: light portrait woman sexy wet girl beautiful beauty look youth canon contraluz dark studio mexico photography luces photo fight hit mujer model eyes foto chica box retrato top gorgeous smoke flash bad picture makeup estudio modelo ni?a ojos linda vida drugs contraste deporte heroin punch fotografia puebla pelea chava cabello joven badgirl boxeadora defensa pu?o boxeo deportiva practicas vendas adiction 60d davidcordova efe64 deividcordova
license: 0
latitude: 19.056601
longitude: -98.232579
accuracy: 16
views: 86
interestingness: 11 out of 34

photo: 6473062731 db53f06e11 7014
owner: 7933174@N07
title: [1000 Strangers] #3 Medet
originalsecret: 3b03bdb50b
originalformat: jpg
o_height: 497
o_width: 800
datetaken: 2011-12-02 17:30:33
dateupload: 1323286460
tags: portrait aachen 2011 d90 85f18 1000strangers dr?house
license: 0
latitude: 50.77479
longitude: 6.088099
accuracy: 14
views: 38
interestingness: 12 out of 34

photo: 6473525427 8d816a89ae 7020
owner: 71335187@N00
title: bittersweet
originalsecret: null
originalformat: null
o_height: null
o_width: null
datetaken: 2011-12-07 19:54:17
dateupload: 1323292669
tags: lighting bw stilllife film analog schweiz switzerland suiza swiss acid stilleben lsd nikonf100 drugs sugarcube bulbs sw lamps monochrom svizzera dummy schwarzweiss lampen drogen sveitsi leuchtmittel tokinaatxm100prod fujineopan400professional
license: 0
latitude: 46.979518
longitude: 8.33759
accuracy: 11
views: 41
interestingness: 13 out of 34

photo: 6439499705 1a70b88ed8 7156
owner: 11185080@N03
title: Incensed Heckler led away from  #n30 #strike Pensions Protest Preston Flag Market  - Too much of the  Daily Mail & that Murdoch comic The S** resulting in the long arm of the law
originalsecret: null
originalformat: null
o_height: null
o_width: null
datetaken: 2011-11-30 04:27:25
dateupload: 1322794060
tags: uk england bw english monochrome digital photoshop nikon zoom north wide sigma lancashire adobe 400 preston british 400asa lenses nikond1x black7white d1x alienskinexposure nikonsigma sigma1835mmf3545dasphericalautofocuszoom
license: 0
latitude: 53.758752
longitude: -2.699149
accuracy: 16
views: 81
interestingness: 14 out of 34

photo: 6441611103 d31285a386 7168
owner: 15481483@N06
title: a profile
originalsecret: 7592ab4b3f
originalformat: jpg
o_height: 2896
o_width: 1920
datetaken: 2011-12-02 09:23:17
dateupload: 1322856919
tags: 
license: 4
latitude: 43.685672
longitude: -79.75924
accuracy: 14
views: 56
interestingness: 15 out of 34

photo: 6459824945 15f01c1705 7153
owner: 51035555243@N01
title: Oil is a Drug
originalsecret: 7ab094872a
originalformat: jpg
o_height: 3362
o_width: 5043
datetaken: 2011-05-28 13:43:03
dateupload: 1323095672
tags: bw usa architecture texas unitedstates unitedstatesofamerica houston harriscounty 1500louisianastreet enroncentersouth
license: 2
latitude: 29.754769
longitude: -95.370039
accuracy: 16
views: 68
interestingness: 16 out of 34

photo: 6437310349 dce10b59f6 7014
owner: 26953621@N03
title: 335/365: D
originalsecret: 9df1ea667b
originalformat: jpg
o_height: 1929
o_width: 3424
datetaken: 2011-12-01 16:34:48
dateupload: 1322762602
tags: december d 365 pills tablets 2011 project365 335365 vitamind3 cholecalciferol calciumtablets
license: 0
latitude: 51.490295
longitude: -2.60569
accuracy: 14
views: 45
interestingness: 17 out of 34

photo: 6478750949 a8bba7085c 7020
owner: 44615609@N07
title: Giant's steps
originalsecret: null
originalformat: null
o_height: null
o_width: null
datetaken: 2011-07-17 16:19:36
dateupload: 1323382934
tags: portrait dog tractor ford hospital river landscape hope bokeh recovery godscountry rintin lornadoone timoleon barreriver
license: 0
latitude: 51.51181
longitude: -0.163499
accuracy: 13
views: 17
interestingness: 18 out of 34

photo: 6448218165 6ed5317fb5 7020
owner: 62164357@N05
title: Hongo Sapiens
originalsecret: null
originalformat: null
o_height: null
o_width: null
datetaken: 2011-12-03 01:29:40
dateupload: 1322940939
tags: trip portrait psicoactive hongosapiens surrealismdrugsmovementmushroomspsilocibios
license: 1
latitude: 6.619342
longitude: -75.682818
accuracy: 16
views: 28
interestingness: 19 out of 34

photo: 6475298347 f1b351dc01 7143
owner: 77383293@N00
title: The Masquerades 1997
originalsecret: null
originalformat: null
o_height: null
o_width: null
datetaken: 2011-12-07 23:49:02
dateupload: 1323320913
tags: party records film 35mm tampa lights dance florida bass vinyl lasers drugs sweat rave djs allnight themasquerades
license: 0
latitude: 27.960196
longitude: -82.439925
accuracy: 15
views: 50
interestingness: 20 out of 34

photo: 6429524183 6e6a51fab8 7019
owner: 48639212@N02
title: World AIDS Day
originalsecret: c1266d5e21
originalformat: jpg
o_height: 1536
o_width: 1024
datetaken: 2007-10-26 12:14:36
dateupload: 1322755887
tags: india asia aids hiv 2007 andhrapradesh globalhealth billmelindagatefoundation
license: 3
latitude: 16.27098
longitude: 80.763641
accuracy: 5
views: 549
interestingness: 21 out of 34

photo: 6454593095 9a35686f55 7011
owner: 41392639@N07
title: Twice daily
originalsecret: null
originalformat: null
o_height: null
o_width: null
datetaken: 2011-12-04 22:07:36
dateupload: 1323027952
tags: drug medicine tablets panadol oikks
license: 0
latitude: 26.358362
longitude: 43.968465
accuracy: 15
views: 16
interestingness: 22 out of 34

photo: 6442070691 8b14304443 7035
owner: 61422138@N04
title: Cherry Ole/ Lena Lodge / Enchi Lodge, Fanling, Hong Kong, pre war and 2010
originalsecret: null
originalformat: null
o_height: null
o_width: null
datetaken: 2011-12-02 08:12:47
dateupload: 1322842367
tags: hongkong ?? fanling historicbuilding ???? ?? ???? collectivememories enchilodge
license: 0
latitude: 22.502883
longitude: 114.11087
accuracy: 14
views: 54
interestingness: 23 out of 34

photo: 6433980803 7bb979795f 7160
owner: 36612134@N05
title: Only in Amsterdam
originalsecret: 64a8db5c01
originalformat: jpg
o_height: 1934
o_width: 2659
datetaken: 2011-09-13 03:29:06
dateupload: 1322704759
tags: amsterdam for weed herbs outdoor sale indoor seeds drugs illegal only dope typical selling cannabis amsterdams marihuana ganja amsterdamse tekoop
license: 0
latitude: 52.367031
longitude: 4.891405
accuracy: 13
views: 40
interestingness: 24 out of 34

photo: 6478482811 acc51a7f33 7151
owner: 27745058@N05
title: SDC10176
originalsecret: null
originalformat: null
o_height: null
o_width: null
datetaken: 2011-10-24 17:16:08
dateupload: 1323376763
tags: dog stpetersburg walking yellowlab florida neighborhood stroll dailyroutine ramble christmasornaments wwwwillknotdicom
license: 0
latitude: 27.83227
longitude: -82.677354
accuracy: 12
views: 2
interestingness: 25 out of 34

photo: 6451728809 dbff10e2ab 7161
owner: 28523661@N07
title: in chains ... new patient at Mental Hospital, Berbera
originalsecret: e8b78b591f
originalformat: jpg
o_height: 3459
o_width: 2294
datetaken: 2011-12-04 10:41:09
dateupload: 1322993632
tags: leica hospital noctilux somalia mental somaliland berbera 095 m3p
license: 4
latitude: 10.43513
longitude: 45.010898
accuracy: 11
views: 17
interestingness: 26 out of 34

photo: 6452988205 ceb353df4e 7157
owner: 97028995@N00
title: argentinische weinschorle.
originalsecret: 097386955a
originalformat: jpg
o_height: 2227
o_width: 2969
datetaken: 2011-09-14 19:36:48
dateupload: 1323011482
tags: southamerica argentina buenosaires drugs werbung drogen champagner argentinien s?damerika ??????? knapp10euro m?chtesein
license: 0
latitude: -34.589212
longitude: -58.430851
accuracy: 16
views: 10
interestingness: 27 out of 34

photo: 6434354065 91a40ff757 7030
owner: 11581147@N06
title: Rexall Elsberry Drugs Sign - Elsberry, MO_PB171862
originalsecret: 82fed42a15
originalformat: jpg
o_height: 2970
o_width: 3959
datetaken: 2011-11-17 17:44:36
dateupload: 1322710253
tags: old orange sign missouri drugs smalltown rexall elsberry elsberrymo
license: 0
latitude: 39.166133
longitude: -90.78137
accuracy: 16
views: 13
interestingness: 28 out of 34

photo: 6478644997 cbf1a71711 7151
owner: 77453483@N00
title: VORREI ESSERE JACK (100x150)
originalsecret: null
originalformat: null
o_height: null
o_width: null
datetaken: 2011-12-08 10:39:52
dateupload: 1323378935
tags: life house colour up pencil children jack born quadro give dont drugs depression vita pittura
license: 0
latitude: 41.901638
longitude: 12.450113
accuracy: 13
views: 335
interestingness: 29 out of 34

photo: 6471738531 598ef25e37 7170
owner: 27745058@N05
title: SDC10119
originalsecret: null
originalformat: null
o_height: null
o_width: null
datetaken: 2011-12-07 00:08:18
dateupload: 1323269323
tags: dog stpetersburg walking yellowlab florida neighborhood graffitti tagging stroll dailyroutine ramble christmasornaments wwwwillknotdicom
license: 0
latitude: 27.83227
longitude: -82.677354
accuracy: 12
views: 8
interestingness: 30 out of 34

photo: 6456995739 6a0c5fdfc2 7151
owner: 16767123@N08
title: End US-16A
originalsecret: 10c2125ac1
originalformat: jpg
o_height: 3456
o_width: 5184
datetaken: 2011-09-28 13:58:01
dateupload: 1323052554
tags: road old west building brick sign southdakota blackhills carson historic drug plains rapidcity hotsprings custer hillcity us16 us385 sd89 us16a
license: 0
latitude: 43.766414
longitude: -103.600065
accuracy: 16
views: 2
interestingness: 31 out of 34

photo: 6453116259 ccfd4d72c8 7007
owner: 44217191@N05
title: Fun Cancelled - OccupyLSX
originalsecret: bf53da0b02
originalformat: jpg
o_height: 1280
o_width: 852
datetaken: 2011-11-19 14:30:38
dateupload: 1323012889
tags: people st democracy tents faces cathedral protest stpauls noalcohol pauls litter 99 rubbish stpaulscathedral activists protesters nodrugs cannonstreet protestors cityoflondon campers anticapitalists newchange corporationoflondon ludgatehill stpaulschurchyard nationalprotest ec4a globalprotest occupymovement occupylsx tentcityuniversity
license: 0
latitude: 51.513509
longitude: -0.099735
accuracy: 16
views: 11
interestingness: 32 out of 34

photo: 6452930049 827da920cc 7026
owner: 17087190@N00
title: Pharmacy Museum
originalsecret: null
originalformat: null
o_height: null
o_width: null
datetaken: 2011-09-28 13:34:38
dateupload: 1323010855
tags: louisiana neworleans pharmacy frenchquarter drugs medicine 1900s vieuxcarre turnofthecentury apothocary pharmacymuseum nikond300 afsnikkor1735mmf28 lapharmaciefrancaise
license: 0
latitude: 29.95602
longitude: -90.065109
accuracy: 16
views: 10
interestingness: 33 out of 34

photo: 6452924395 2517b2f04c 7032
owner: 17087190@N00
title: Pharmacy Museum
originalsecret: null
originalformat: null
o_height: null
o_width: null
datetaken: 2011-09-28 13:32:58
dateupload: 1323010795
tags: louisiana neworleans pharmacy frenchquarter drugs medicine 1900s vieuxcarre turnofthecentury apothocary pharmacymuseum nikond300 afsnikkor1735mmf28 lapharmaciefrancaise
license: 0
latitude: 29.95602
longitude: -90.065109
accuracy: 16
views: 7
interestingness: 34 out of 34

photo: 6452914123 3eb66889e4 7173
owner: 17087190@N00
title: Pharmacy Museum
originalsecret: null
originalformat: null
o_height: null
o_width: null
datetaken: 2011-09-28 13:31:12
dateupload: 1323010681
tags: louisiana neworleans pharmacy frenchquarter drugs medicine 1900s vieuxcarre turnofthecentury apothocary pharmacymuseum nikond300 afsnikkor1735mmf28 lapharmaciefrancaise
license: 0
latitude: 29.95602
longitude: -90.065109
accuracy: 16
views: 2
interestingness: 35 out of 34

photo: 6452911125 039cf7de90 7021
owner: 17087190@N00
title: Pharmacy Museum
originalsecret: null
originalformat: null
o_height: null
o_width: null
datetaken: 2011-09-28 13:29:41
dateupload: 1323010648
tags: louisiana neworleans pharmacy frenchquarter drugs medicine 1900s vieuxcarre turnofthecentury apothocary pharmacymuseum nikond300 afsnikkor1735mmf28 lapharmaciefrancaise
license: 0
latitude: 29.95602
longitude: -90.065109
accuracy: 16
views: 2
interestingness: 36 out of 34

photo: 6452899797 96ab2da9c9 7174
owner: 17087190@N00
title: Pharmacy Museum
originalsecret: null
originalformat: null
o_height: null
o_width: null
datetaken: 2011-09-28 13:28:58
dateupload: 1323010519
tags: louisiana neworleans pharmacy frenchquarter drugs medicine 1900s vieuxcarre turnofthecentury apothocary pharmacymuseum nikond300 afsnikkor1735mmf28 lapharmaciefrancaise
license: 0
latitude: 29.95602
longitude: -90.065109
accuracy: 16
views: 8
interestingness: 37 out of 34

photo: 6446728825 e6fd8577d4 7011
owner: 74007022@N00
title: 49/52 : Bhopal
originalsecret: 3d08a41d95
originalformat: jpg
o_height: 3872
o_width: 2592
datetaken: 2011-12-03 09:22:37
dateupload: 1322922157
tags: red project rouge death freedom justice fight earthquake women war eric day cross lego crash mort destruction femme 911 photojournalism jour prison international tragedy fidel rights weapon disaster torture mines drug terre ghandi environment missile che annual mass spill bomb situation imperialism atomic guerre slavery arsenal wmd liberte mandela censure global 52 discrimination croix finance environnement mondial projet bhopal armes censor droit tchernobyl desastre ethic bloddy genome esclavage ethique drogue tremblement constantineau deversement ericconstantineau atroc
license: 2
latitude: 23.23911
longitude: 77.415771
accuracy: 14
views: 50
interestingness: 38 out of 34

photo: 6446725035 99f4120bd0 7015
owner: 74007022@N00
title: 48/52 : Journ?e internationale de solidarit? avec le peuple palestinien - International day for solidarity with the Palestinan people
originalsecret: 1009cdffa0
originalformat: jpg
o_height: 1995
o_width: 1995
datetaken: 2011-12-03 09:21:40
dateupload: 1322922100
tags: red project rouge death freedom justice fight earthquake women war eric day cross lego crash mort destruction femme 911 photojournalism jour prison international tragedy fidel rights weapon disaster torture mines drug terre ghandi environment missile che annual mass spill bomb situation imperialism atomic guerre slavery arsenal wmd liberte mandela censure global 52 discrimination croix finance environnement mondial projet bhopal armes censor droit tchernobyl desastre ethic bloddy genome esclavage ethique drogue tremblement constantineau deversement ericconstantineau atroc
license: 2
latitude: 31.774585
longitude: 35.267143
accuracy: 10
views: 39
interestingness: 39 out of 34

photo: 6444477805 377b0ffbe4 7143
owner: 35034347371@N01
title: London Drugs W2 - 120220112216
originalsecret: 2e1c2481c2
originalformat: jpg
o_height: 2248
o_width: 4000
datetaken: 2011-12-02 17:21:35
dateupload: 1322878204
tags: cameraphone vancouver rolandtanglaophoto w2 woodwards londondrugs n8photo
license: 4
latitude: 49.2825
longitude: -123.10782
accuracy: 16
views: 34
interestingness: 40 out of 34

photo: 6443713895 e942865651 7027
owner: 16767123@N08
title: Wall Drug
originalsecret: d697ec9953
originalformat: jpg
o_height: 3456
o_width: 5184
datetaken: 2011-09-27 16:39:42
dateupload: 1322865092
tags: signs wall southdakota store tourist historic roadside plains i90 trap walldrug attraction
license: 0
latitude: 43.993316
longitude: -102.241977
accuracy: 16
views: 5
interestingness: 41 out of 34

photo: 6443713133 568b1d268f 7153
owner: 16767123@N08
title: Wall Drug
originalsecret: 0aa07e9242
originalformat: jpg
o_height: 3456
o_width: 5184
datetaken: 2011-09-27 16:39:39
dateupload: 1322865080
tags: signs wall southdakota store tourist historic roadside plains i90 trap walldrug attraction
license: 0
latitude: 43.993316
longitude: -102.241977
accuracy: 16
views: 2
interestingness: 42 out of 34

photo: 6443712323 448b856398 7010
owner: 16767123@N08
title: Wall Drug
originalsecret: 30b3a61e75
originalformat: jpg
o_height: 3456
o_width: 5184
datetaken: 2011-09-27 16:39:29
dateupload: 1322865068
tags: signs wall southdakota store tourist historic roadside plains i90 trap walldrug attraction
license: 0
latitude: 43.993061
longitude: -102.242031
accuracy: 16
views: 3
interestingness: 43 out of 34

photo: 6443711511 c161db3b5e 7018
owner: 16767123@N08
title: Wall Drug
originalsecret: 1ef2127d69
originalformat: jpg
o_height: 3456
o_width: 5184
datetaken: 2011-09-27 16:38:47
dateupload: 1322865056
tags: signs wall southdakota store tourist historic roadside plains i90 trap walldrug attraction
license: 0
latitude: 43.992625
longitude: -102.241977
accuracy: 16
views: 6
interestingness: 44 out of 34

photo: 6443710817 90d107aa97 7009
owner: 16767123@N08
title: Wall Drug
originalsecret: 7ff5c9ee65
originalformat: jpg
o_height: 3456
o_width: 5184
datetaken: 2011-09-27 16:38:39
dateupload: 1322865044
tags: signs wall southdakota store tourist historic roadside plains i90 trap walldrug attraction
license: 0
latitude: 43.992625
longitude: -102.241977
accuracy: 16
views: 5
interestingness: 45 out of 34

photo: 6443710157 1648a7a6a3 7030
owner: 16767123@N08
title: Main Street in Wall, SD
originalsecret: 1e9f176b98
originalformat: jpg
o_height: 5184
o_width: 3456
datetaken: 2011-09-27 16:38:19
dateupload: 1322865033
tags: west wall southdakota town mainstreet tourist roadside trap walldrug attraction
license: 0
latitude: 43.992625
longitude: -102.241977
accuracy: 16
views: 4
interestingness: 46 out of 34

photo: 6443709051 5ec5f95352 7025
owner: 16767123@N08
title: Main Street in Wall, SD
originalsecret: 4f9c8565b8
originalformat: jpg
o_height: 3456
o_width: 5184
datetaken: 2011-09-27 16:36:34
dateupload: 1322865013
tags: west wall southdakota town mainstreet tourist roadside trap walldrug attraction
license: 0
latitude: 43.99281
longitude: -102.241752
accuracy: 16
views: 4
interestingness: 47 out of 34

photo: 6443708451 8832000f81 7167
owner: 16767123@N08
title: Wall Drug
originalsecret: 8e66cc5cdf
originalformat: jpg
o_height: 5184
o_width: 3456
datetaken: 2011-09-27 16:14:05
dateupload: 1322865003
tags: signs wall southdakota store tourist historic roadside plains i90 trap walldrug attraction
license: 0
latitude: 43.992972
longitude: -102.241215
accuracy: 16
views: 0
interestingness: 48 out of 34

photo: 6443707525 7484d4fac6 7017
owner: 16767123@N08
title: Wall Drug
originalsecret: 7b16bf6e52
originalformat: jpg
o_height: 3456
o_width: 5184
datetaken: 2011-09-27 16:09:11
dateupload: 1322864989
tags: signs wall southdakota store tourist historic roadside plains i90 trap walldrug attraction
license: 0
latitude: 43.992972
longitude: -102.241215
accuracy: 16
views: 0
interestingness: 49 out of 34

photo: 6443707063 eee66c0313 7030
owner: 16767123@N08
title: Wall Drug
originalsecret: 34ebf21ba3
originalformat: jpg
o_height: 5184
o_width: 3456
datetaken: 2011-09-27 16:08:56
dateupload: 1322864982
tags: signs wall southdakota store tourist historic roadside plains i90 trap walldrug attraction
license: 0
latitude: 43.992972
longitude: -102.241215
accuracy: 16
views: 0
interestingness: 50 out of 34

photo: 6443706429 45f3f157cc 7021
owner: 16767123@N08
title: Wall Drug
originalsecret: 654680c3fc
originalformat: jpg
o_height: 3456
o_width: 5184
datetaken: 2011-09-27 16:08:14
dateupload: 1322864972
tags: signs wall southdakota store tourist historic roadside plains i90 trap walldrug attraction
license: 0
latitude: 43.992972
longitude: -102.241215
accuracy: 16
views: 0
interestingness: 51 out of 34

photo: 6443705807 c743056b10 7007
owner: 16767123@N08
title: Wall Drug
originalsecret: 7519b79309
originalformat: jpg
o_height: 5184
o_width: 3456
datetaken: 2011-09-27 16:07:47
dateupload: 1322864964
tags: signs wall southdakota store tourist historic roadside plains i90 trap walldrug attraction
license: 0
latitude: 43.992972
longitude: -102.241215
accuracy: 16
views: 0
interestingness: 52 out of 34

photo: 6443705177 f2b5831248 7009
owner: 16767123@N08
title: Wall Drug
originalsecret: 5e265890c8
originalformat: jpg
o_height: 3456
o_width: 5184
datetaken: 2011-09-27 16:07:35
dateupload: 1322864955
tags: signs wall southdakota store tourist historic roadside plains i90 trap walldrug attraction
license: 0
latitude: 43.992972
longitude: -102.241215
accuracy: 16
views: 1
interestingness: 53 out of 34

photo: 6439974155 4453c75681 7008
owner: 90142686@N00
title: West Side Pharmacy
originalsecret: e56488f2ec
originalformat: jpg
o_height: 852
o_width: 1280
datetaken: 2011-11-28 20:57:20
dateupload: 1322801822
tags: nyc newyork sign night neon glow pharmacy upperwestside drugstore aglow uws
license: 0
latitude: 40.778274
longitude: -73.981654
accuracy: 15
views: 4
interestingness: 54 out of 34

photo: 6439382923 8990394ca3 7142
owner: 24130392@N08
title: We Are Travellers
originalsecret: null
originalformat: null
o_height: null
o_width: null
datetaken: 2011-11-26 15:40:02
dateupload: 1322792166
tags: street boy blackandwhite bw man church southamerica train mexico tren sadness tristeza calle mexicocity father homeless son traveller elsalvador refugio shelter chiapas hombre distritofederal melancolia migrant meloncholy migrante tultitlan sanjuandediego
license: 0
latitude: 19.615909
longitude: -99.188461
accuracy: 11
views: 14
interestingness: 55 out of 34

photo: 6438754621 e1baa10436 7034
owner: 51055936@N03
title: 2011-11-30 Drink- and Drugs-Fueled Democracy, St Paul's Cathedral, London
originalsecret: null
originalformat: null
o_height: null
o_width: null
datetaken: 2011-11-30 18:22:37
dateupload: 1322781886
tags: uk england london students night dark lights tents university cathedral young stpauls alcohol quotes drugs financial protests banks slogans opposition occupy
license: 0
latitude: 51.513616
longitude: -0.099627
accuracy: 15
views: 17
interestingness: 56 out of 34

photo: 6437199623 c8fab01533 7169
owner: 69193251@N05
title: Drug Opera - Brussel
originalsecret: 2fdb324e64
originalformat: jpg
o_height: 1354
o_width: 2000
datetaken: 2008-08-25 17:21:15
dateupload: 1322761132
tags: travel camping summer building green beer relax landscape countryside pub europe cityscape belgium euro north bruxelles journey eurotrip brussel atomium outskirt fotolidia europeanparlaiment
license: 0
latitude: 50.844876
longitude: 4.351959
accuracy: 14
views: 9
interestingness: 57 out of 34

photo: 6434545981 2dcee61fe8 7158
owner: 42450712@N06
title: D.R.U.G.S (1)
originalsecret: null
originalformat: null
o_height: null
o_width: null
datetaken: 2011-11-17 19:10:26
dateupload: 1322713062
tags: canon orlando concert florida livemusic drugs 7d citywalk hardrocklive hrl wwwtheconcertshootercom
license: 0
latitude: 28.473755
longitude: -81.467689
accuracy: 16
views: 1
interestingness: 58 out of 34

photo: 6434545707 45dd1cfed0 7153
owner: 42450712@N06
title: D.R.U.G.S (6)
originalsecret: null
originalformat: null
o_height: null
o_width: null
datetaken: 2011-11-17 19:08:52
dateupload: 1322713058
tags: canon orlando concert florida livemusic drugs 7d citywalk hardrocklive hrl wwwtheconcertshootercom
license: 0
latitude: 28.473755
longitude: -81.467689
accuracy: 16
views: 1
interestingness: 59 out of 34

photo: 6434545469 7bf4359ca2 7144
owner: 42450712@N06
title: D.R.U.G.S (5)
originalsecret: null
originalformat: null
o_height: null
o_width: null
datetaken: 2011-11-17 19:06:43
dateupload: 1322713055
tags: canon orlando concert florida livemusic drugs 7d citywalk hardrocklive hrl wwwtheconcertshootercom
license: 0
latitude: 28.473755
longitude: -81.467689
accuracy: 16
views: 8
interestingness: 60 out of 34

photo: 6434545207 bd93f2dd30 7004
owner: 42450712@N06
title: D.R.U.G.S (4)
originalsecret: null
originalformat: null
o_height: null
o_width: null
datetaken: 2011-11-17 19:06:27
dateupload: 1322713051
tags: canon orlando concert florida livemusic drugs 7d citywalk hardrocklive hrl wwwtheconcertshootercom
license: 0
latitude: 28.473755
longitude: -81.467689
accuracy: 16
views: 7
interestingness: 61 out of 34

photo: 6434544959 fa2fa5f03c 7008
owner: 42450712@N06
title: D.R.U.G.S (3)
originalsecret: null
originalformat: null
o_height: null
o_width: null
datetaken: 2011-11-17 19:06:09
dateupload: 1322713047
tags: canon orlando concert florida livemusic drugs 7d citywalk hardrocklive hrl wwwtheconcertshootercom
license: 0
latitude: 28.473755
longitude: -81.467689
accuracy: 16
views: 1
interestingness: 62 out of 34

photo: 6434544711 80276c70ee 7151
owner: 42450712@N06
title: D.R.U.G.S (2)
originalsecret: null
originalformat: null
o_height: null
o_width: null
datetaken: 2011-11-17 19:05:40
dateupload: 1322713044
tags: canon orlando concert florida livemusic drugs 7d citywalk hardrocklive hrl wwwtheconcertshootercom
license: 0
latitude: 28.473755
longitude: -81.467689
accuracy: 16
views: 0
interestingness: 63 out of 34

photo: 6457007703 8802bec757 7031
owner: 16767123@N08
title: Carson Drug
originalsecret: e924751c73
originalformat: jpg
o_height: 3456
o_width: 5184
datetaken: 2011-09-28 15:00:53
dateupload: 1323052680
tags: old west building southdakota blackhills historic plains custer carsondrug
license: 0
latitude: 43.766871
longitude: -103.598499
accuracy: 16
views: 1
interestingness: 64 out of 34

photo: 6447282289 ffacded0d7 7003
owner: 42089889@N03
title: Krokodil
originalsecret: null
originalformat: null
o_height: null
o_width: null
datetaken: 2011-12-02 15:46:21
dateupload: 1322929591
tags: russia drugs ekaterinburg krokodil ?????? 2011 ???????????? desomorphine
license: 0
latitude: 56.830198
longitude: 60.606529
accuracy: 15
views: 4
interestingness: 65 out of 34

photo: 6449392883 52426d8316 7011
owner: 13945055@N07
title: Drugs
originalsecret: null
originalformat: null
o_height: null
o_width: null
datetaken: 2011-12-04 00:47:52
dateupload: 1322956072
tags: holland netherlands amsterdam night fisheye drugs amstelveen zaandam
license: 0
latitude: 52.307796
longitude: 4.837074
accuracy: 12
views: 2
interestingness: 66 out of 34

photo: 6475447585 d77e771b6d 7149
owner: 34164478@N00
title: War On Drugs
originalsecret: null
originalformat: null
o_height: null
o_width: null
datetaken: 2011-12-07 23:57:44
dateupload: 1323323864
tags: square squareformat iphoneography instagramapp xproii uploaded:by=instagram foursquare:venue=4ad32558f964a5202fe320e3
license: 0
latitude: 41.925932
longitude: -87.649742
accuracy: 16
views: 3
interestingness: 67 out of 34

photo: 6475445395 38a8a01e28 7169
owner: 34164478@N00
title: War On Drugs at Lincoln Hall
originalsecret: null
originalformat: null
o_height: null
o_width: null
datetaken: 2011-12-07 23:57:00
dateupload: 1323323820
tags: square squareformat walden iphoneography instagramapp uploaded:by=instagram foursquare:venue=4ad32558f964a5202fe320e3
license: 0
latitude: 41.925932
longitude: -87.649742
accuracy: 16
views: 8
interestingness: 68 out of 34

photo: 6474738423 e471431010 7141
owner: 8348059@N02
title: P1260860
originalsecret: null
originalformat: null
o_height: null
o_width: null
datetaken: 2011-10-03 12:01:11
dateupload: 1323311704
tags: salzburg austria ?sterreich pharmacy apotheke drugstores hofapotheke
license: 0
latitude: 47.799434
longitude: 13.045202
accuracy: 16
views: 0
interestingness: 69 out of 34

photo: 6469661041 449c915f44 7160
owner: 68726754@N03
title: Howl (Extract)
originalsecret: null
originalformat: null
o_height: null
o_width: null
datetaken: 2011-09-27 00:00:00
dateupload: 1323230268
tags: san francisco allen ginsberg beats howl the
license: 0
latitude: 37.798229
longitude: -122.435685
accuracy: 15
views: 0
interestingness: 70 out of 34

photo: 6478545917 8e8030569f 7022
owner: 74153838@N00
title: treetop, kaziranga
originalsecret: null
originalformat: null
o_height: null
o_width: null
datetaken: 2011-01-02 22:20:33
dateupload: 1323377616
tags: india wildlife assam kaziranga wildlifereserve kaziranganationalpark
license: 0
latitude: 26.31011
longitude: 92.83374
accuracy: 11
views: 0
interestingness: 71 out of 34

photo: 6466357701 24dc12d613 7163
owner: 30010856@N05
title: Drugs
originalsecret: null
originalformat: null
o_height: null
o_width: null
datetaken: 2011-12-03 16:10:16
dateupload: 1323186713
tags: camera pharmacy drugs drugstore iphone iphoneography
license: 2
latitude: 40.793817
longitude: -74.197688
accuracy: 16
views: 17
interestingness: 72 out of 34

photo: 6435181055 312590960f 7161
owner: 35034347485@N01
title: World AIDS Day at Walgreens
originalsecret: 59d841093b
originalformat: jpg
o_height: 1146
o_width: 2048
datetaken: 2011-11-30 21:06:04
dateupload: 1322725097
tags: aids hiv worldaidsday testing drugstore walgreens
license: 6
latitude: 37.799622
longitude: -122.251989
accuracy: 16
views: 4
interestingness: 73 out of 34

photo: 6478111501 4b95a05e04 7152
owner: 62164357@N05
title: Fabio Londo?o
originalsecret: null
originalformat: null
o_height: null
o_width: null
datetaken: 2011-12-03 01:33:44
dateupload: 1323371650
tags: friends insane mind drugs handsface
license: 1
latitude: 6.619806
longitude: -75.683419
accuracy: 16
views: 5
interestingness: 74 out of 34

photo: 6468289399 10396fabb6 7014
owner: 55926463@N06
title: Lost Future
originalsecret: 994b566a10
originalformat: jpg
o_height: 2172
o_width: 3480
datetaken: 2011-12-04 12:46:38
dateupload: 1323210211
tags: drugs injection drogen spritze
license: 0
latitude: 50.732374
longitude: 7.097586
accuracy: 16
views: 19
interestingness: 75 out of 34

photo: 6443648319 3bb24512cb 7149
owner: 68559015@N03
title: Drug Addict
originalsecret: null
originalformat: null
o_height: null
o_width: null
datetaken: 2011-11-30 21:09:48
dateupload: 1322864074
tags: theater play theatre actress
license: 0
latitude: 40.12548
longitude: -82.931442
accuracy: 11
views: 1
interestingness: 76 out of 34

photo: 6476023143 e32cd607d9 7172
owner: 62111227@N08
title: Pakuranga, old matron (1)
originalsecret: c93de4871d
originalformat: jpg
o_height: 1074
o_width: 2186
datetaken: 2011-11-27 14:29:00
dateupload: 1323337201
tags: 
license: 0
latitude: -36.929705
longitude: 174.905734
accuracy: 15
views: 2
interestingness: 77 out of 34

photo: 6475320877 d955baea29 7148
owner: 10670887@N08
title: Sugar Cane Fields
originalsecret: null
originalformat: null
o_height: null
o_width: null
datetaken: 2011-12-04 07:33:17
dateupload: 1323321320
tags: sugarcane pharrtx sugarcanefieldspharrtx
license: 0
latitude: 26.087737
longitude: -98.218857
accuracy: 16
views: 36
interestingness: 78 out of 34

photo: 6473518183 9d370586a0 7008
owner: 62648925@N05
title: Crashed Planes Used In Ongoing Investigations
originalsecret: a20cf955a8
originalformat: jpg
o_height: 1600
o_width: 1068
datetaken: 2011-11-05 13:47:03
dateupload: 1323292562
tags: colombia medellin
license: 0
latitude: 6.235925
longitude: -75.575137
accuracy: 16
views: 0
interestingness: 79 out of 34

photo: 6473516231 4909a1628e 7156
owner: 62648925@N05
title: Crashed Planes Used In Ongoing Investigations
originalsecret: 54208cbc18
originalformat: jpg
o_height: 1068
o_width: 1600
datetaken: 2011-11-05 13:45:23
dateupload: 1323292532
tags: colombia medellin
license: 0
latitude: 6.235925
longitude: -75.575137
accuracy: 16
views: 0
interestingness: 80 out of 34

photo: 6469630671 5e10134fb1 7017
owner: 71575505@N03
title: Drug Related Bail Bonds Las Vegas
originalsecret: null
originalformat: null
o_height: null
o_width: null
datetaken: 2011-12-07 03:40:45
dateupload: 1323229792
tags: drugrelatedbailbondslasvegas drugsbailbondslasvegas
license: 4
latitude: 36.130638
longitude: -115.118537
accuracy: 16
views: 1
interestingness: 81 out of 34

photo: 6450521907 bee98054e7 7163
owner: 70851304@N04
title: 2011 Nov 26 Douglas Greenway Trail 026
originalsecret: null
originalformat: null
o_height: null
o_width: null
datetaken: 2011-11-26 18:11:32
dateupload: 1322972022
tags: 2011nov26douglasgreenwaytrail
license: 0
latitude: 31.510947
longitude: -82.85408
accuracy: 10
views: 3
interestingness: 82 out of 34

photo: 6476023423 a118d3be1a 7161
owner: 62111227@N08
title: Pakuranga, old matron (2)
originalsecret: 103b9bc77e
originalformat: jpg
o_height: 1307
o_width: 2135
datetaken: 2011-11-27 14:20:19
dateupload: 1323337208
tags: 
license: 0
latitude: -36.929731
longitude: 174.905884
accuracy: 15
views: 2
interestingness: 83 out of 34

photo: 6444153057 d5a76346b2 7005
owner: 62259440@N02
title: The defense attorney told child client, don't tell anyone you were doing drugs, it will get you a longer sentence. this is a murder case. is this attorney pimping bryce out for sex in prison?
originalsecret: null
originalformat: null
o_height: null
o_width: null
datetaken: 2011-12-02 19:30:22
dateupload: 1322872222
tags: 
license: 0
latitude: 40.421174
longitude: -80.047137
accuracy: 15
views: 2
interestingness: 84 out of 34

photo: 6444152165 25e849d302 7164
owner: 62259440@N02
title: Bryce's Mother
originalsecret: null
originalformat: null
o_height: null
o_width: null
datetaken: 2011-12-02 19:30:05
dateupload: 1322872205
tags: 
license: 0
latitude: 40.420569
longitude: -80.050098
accuracy: 15
views: 1
interestingness: 85 out of 34

photo: 6435096753 3684b89df2 7003
owner: 71087361@N03
title: DSC00857
originalsecret: null
originalformat: null
o_height: null
o_width: null
datetaken: 2011-03-05 07:23:03
dateupload: 1322723255
tags: 
license: 0
latitude: 30.352435
longitude: -87.603971
accuracy: 15
views: 0
interestingness: 86 out of 34

Total images queried: 34
