
mintime: 1322697600 maxtime: 1324512427.5
numimgs: 49
total pages: 1
visiting only 1 pages ( up to 250 images)
photo: 5211461215 f5c53571ea 4086
owner: 60738603@N00
title: Thanks for your wonderfully insightful speech tonight Enda!
originalsecret: null
originalformat: null
o_height: null
o_width: null
datetaken: 2010-11-27 13:55:10
dateupload: 1323038258
tags: nov wood november ireland people test dublin irish sign youth buildings demo march nikon election child euro walk budget brian dick daughter protest young eu bank parliament irland quay parade demonstration international impact sellout future socialist imf government unions elections 27 stress wicklow financial cuts crisis protesters placard 27th gpo ecb roche 2010 oconnellstreet fund fail debt monetary anglo cowen garda? fianna debts siptu europeancentralbank austerity ridden bailout ictu d700 ge11 sionnachlangan3yearsold
license: 0
latitude: 53.34943
longitude: -6.260308
accuracy: 15
views: 3147
interestingness: 1 out of 49

photo: 6448151453 a3cdee03c1 7152
owner: 11738433@N03
title: Swan, Grasmere, Lake District
originalsecret: 0d18b343a8
originalformat: jpg
o_height: 2458
o_width: 3601
datetaken: 2011-11-21 11:23:35
dateupload: 1322989020
tags: autumn trees england cloud mist lake bird leaves weather fog reflections landscape swan scenery photographer village grasmere lakedistrict shore cumbria dull elegance muteswan
license: 0
latitude: 54.448284
longitude: -3.026247
accuracy: 14
views: 194
interestingness: 2 out of 49

photo: 6441065261 9bdfb4d68d 7145
owner: 57369711@N07
title: Drop Out of Life
originalsecret: null
originalformat: null
o_height: null
o_width: null
datetaken: 2011-12-02 06:39:03
dateupload: 1322825943
tags: street camera light people urban music usa sun signs man color reflection art apple colors work vintage walking person photography this washingtondc photo dc washington lyrics lomo waiting punk nw december shadows time candid grunge year band streetshots streetphotography cellphone next reflect faded mobilephone fade allrightsreserved peoplewatching iphone pennsylvaniaave tiltshift newfoundglory 2011 streetcandid streetography chadgilbert michaelandrade iphoneography iphoneographer hipstamatic lifeinlofi instantdc dropoutoflife andradecobain
license: 0
latitude: 38.894565
longitude: -77.025908
accuracy: 15
views: 189
interestingness: 3 out of 49

photo: 6435996581 5e17b94110 7029
owner: 24763952@N08
title: Heavenly
originalsecret: null
originalformat: null
o_height: null
o_width: null
datetaken: 2011-12-01 06:01:01
dateupload: 1322743524
tags: sun green nature leaves lens 50mm nikon bokeh malaysia russian 58mm swirly aisha helios sunflare dalila f20 d7000 aishadalila
license: 0
latitude: 3.095839
longitude: 101.646797
accuracy: 11
views: 234
interestingness: 4 out of 49

photo: 6466479601 5829363dfb 7023
owner: 61593716@N07
title: Piccadilly Circus  London
originalsecret: null
originalformat: null
o_height: null
o_width: null
datetaken: 2011-11-27 17:00:59
dateupload: 1323188174
tags: red bus london circus piccadilly
license: 0
latitude: 51.509864
longitude: -0.134963
accuracy: 16
views: 134
interestingness: 5 out of 49

photo: 6449268365 8847974ec1 7012
owner: 63255278@N08
title: Tunnel Vision
originalsecret: 2ff60e7c80
originalformat: jpg
o_height: 1009
o_width: 1280
datetaken: 1999-11-26 21:36:22
dateupload: 1322954300
tags: china snow steam jitong 6110 qj jingpeng 7012 neimongol shangdian
license: 0
latitude: 43.220689
longitude: 117.581863
accuracy: 9
views: 103
interestingness: 6 out of 49

photo: 6435896101 0be9cff5ea 7027
owner: 26544477@N03
title: Nail Art - Nude Leaves (Konadcure)
originalsecret: dbabd1878d
originalformat: jpg
o_height: 768
o_width: 1024
datetaken: 2011-11-24 10:56:18
dateupload: 1322741556
tags: unhas nailart esmaltes colorama konad
license: 0
latitude: -28.46571
longitude: -49.026532
accuracy: 14
views: 726
interestingness: 7 out of 49

photo: 6441174449 8173bbbca3 7174
owner: 17327473@N00
title: Ploughing Through The Sky & The Water [EXPLORED]
originalsecret: null
originalformat: null
o_height: null
o_width: null
datetaken: 2011-11-24 22:21:36
dateupload: 1322828245
tags: longexposure nightphotography venice light italy rialtobridge stars italia shadows explore venetian canon5d lighttrails 24mm venezia ursamajor plough afterdark ponterialto 2x veneto greatbear explored 25secs esposizionelunga 1740mmusml 241111 largoexposici?n
license: 0
latitude: 45.437971
longitude: 12.335865
accuracy: 15
views: 610
interestingness: 8 out of 49

photo: 6472789093 b920c06cdb 7169
owner: 50105406@N02
title: Ferrari 599XX Reventon #20
originalsecret: aa8274639c
originalformat: jpg
o_height: 853
o_width: 1280
datetaken: 2011-11-05 16:41:46
dateupload: 1323282858
tags: red black cars car del racetrack matt rouge photography eos grey photographie 21 corse xx duo ferrari belly exotic 7d enzo passion programs 20 raphael groupe rb evo autodromo supercars combo clienti noire rapha?l mugello finali 599 2011 fxx reventon evoluzione grise programmes mondiali anciaux egarage 599xx egaragecom
license: 0
latitude: 43.996951
longitude: 11.371707
accuracy: 13
views: 144
interestingness: 9 out of 49

photo: 6441141245 2862fe96b7 7003
owner: 68792473@N04
title: PRANZO di NOZZE:in attesa degli sposi - WEDDING DINNER : waiting for the bride and groom
originalsecret: null
originalformat: null
o_height: null
o_width: null
datetaken: 1973-05-01 00:00:00
dateupload: 1322827556
tags: street socks 35mm bn seventies hp4 reportage anni70 pellicola castelliromani blackwhitephotos pranzonozzecalzettoniscarpebambinisposicastelliromaniannisettantaweddingshoes childrensspouseslunchseventies
license: 0
latitude: 41.706451
longitude: 12.68986
accuracy: 11
views: 52
interestingness: 10 out of 49

photo: 6465351745 46df1e8e7a 7006
owner: 41520324@N06
title: Inside of the Field - the way
originalsecret: null
originalformat: null
o_height: null
o_width: null
datetaken: 2011-01-30 08:50:07
dateupload: 1323171585
tags: flower tree nature vegetables field focus experiment mustard cultivation natureart incredibleindia
license: 0
latitude: 22.877598
longitude: 88.355827
accuracy: 11
views: 207
interestingness: 11 out of 49

photo: 6473434001 29ee91c84e 7019
owner: 31221015@N08
title: LOST
originalsecret: 81d4bcd190
originalformat: jpg
o_height: 2816
o_width: 4240
datetaken: 2011-03-12 16:51:57
dateupload: 1323291420
tags: park italy game amusement rust over greenland rollercoaster giostra hdr decadence desolation lombardy ottovolante limbiate neimon2
license: 0
latitude: 45.59967
longitude: 9.132129
accuracy: 11
views: 69
interestingness: 12 out of 49

photo: 6440855329 76c013dd39 7152
owner: 44731160@N02
title: 'Behave, Fry' [Explored 2nd Dec 2011!!]
originalsecret: null
originalformat: null
o_height: null
o_width: null
datetaken: 2011-12-02 14:12:57
dateupload: 1322821370
tags: christmas xmas dog pet tree shepherd canine terrier laugh picnik 2011
license: 0
latitude: 5.6563
longitude: 116.354911
accuracy: 16
views: 71
interestingness: 13 out of 49

photo: 6461905599 68bb34515d 7145
owner: 30548580@N04
title: Open your mind!
originalsecret: null
originalformat: null
o_height: null
o_width: null
datetaken: 2011-11-25 01:35:32
dateupload: 1323118768
tags: nature night stars landscape natura catalonia nocturna catalunya nit milkyway paisatge ripolles estels Astrometrydotnet:status=failed 5dmarkii vial?ctea Astrometrydotnet:id=alpha20111227343121
license: 0
latitude: 42.371988
longitude: 2.150848
accuracy: 10
views: 67
interestingness: 14 out of 49

photo: 6458268483 168feda04a 7024
owner: 26822472@N07
title: The Pier at Redcliffs
originalsecret: a33a71096d
originalformat: jpg
o_height: 1040
o_width: 1040
datetaken: 2011-12-05 19:45:31
dateupload: 1323069056
tags: fuji hasselblad ilford acros lc29 503cx bw110 60mmcf
license: 0
latitude: -43.556094
longitude: 172.734496
accuracy: 16
views: 81
interestingness: 15 out of 49

photo: 6443129329 d8de17480d 7146
owner: 52610918@N05
title: 48/52: chesterton windmill b&w
originalsecret: c275082a2b
originalformat: jpg
o_height: 1000
o_width: 763
datetaken: 2011-12-02 17:18:55
dateupload: 1322856646
tags: longexposure blackandwhite bw windmill long exposure sonya230dslr
license: 0
latitude: 52.231952
longitude: -1.488304
accuracy: 13
views: 64
interestingness: 16 out of 49

photo: 6472883881 ba75d61f30 7175
owner: 19214696@N04
title: 
originalsecret: null
originalformat: null
o_height: null
o_width: null
datetaken: 2011-12-07 14:00:00
dateupload: 1323284091
tags: street new york city nyc light people sun sunlight color 120 film brooklyn analog island glasses warm fuji natural candid scan outoffocus roller pro boardwalk epson medium format mf v600 coney coaster yashica unedited unprocessed fujicolor 635 160s vitaliyp
license: 0
latitude: 40.576068
longitude: -73.99221
accuracy: 13
views: 76
interestingness: 17 out of 49

photo: 6467804165 5179631823 7021
owner: 36425438@N04
title: Jacqueline, a 96 yo rosebud
originalsecret: null
originalformat: null
o_height: null
o_width: null
datetaken: 2011-12-03 13:30:23
dateupload: 1323246360
tags: old blue portrait eye lady grey necklace nikon year portraiture ans 135mm 96 wrink fabricedrevon
license: 0
latitude: 43.615572
longitude: 6.976286
accuracy: 16
views: 226
interestingness: 18 out of 49

photo: 6442638377 e4891ac1a3 7175
owner: 7933174@N07
title: [Project 1000 Strangers] #2 Vanessa
originalsecret: bd00295fa6
originalformat: jpg
o_height: 474
o_width: 800
datetaken: 2011-12-02 17:12:45
dateupload: 1322849920
tags: 
license: 0
latitude: 50.776255
longitude: 6.083292
accuracy: 14
views: 134
interestingness: 19 out of 49

photo: 6474149855 0d8a592631 7160
owner: 51298252@N04
title: The Olde Stump
originalsecret: null
originalformat: null
o_height: null
o_width: null
datetaken: 2011-12-07 17:51:00
dateupload: 1323301908
tags: park autumn lake snow fall nature grass reflections landscape outdoors wideangle stump oakopenings evergreenlake
license: 0
latitude: 41.535085
longitude: -83.830447
accuracy: 14
views: 77
interestingness: 20 out of 49

photo: 6473622931 802c6d13f9 7009
owner: 9019841@N08
title: Potlogi
originalsecret: null
originalformat: null
o_height: null
o_width: null
datetaken: 2011-12-07 13:58:46
dateupload: 1323293990
tags: potlogi palace palatul palat arhitectura architecture house casa conac manor valahia wallachia muntenia tararomaneasca bucure?ti bucuresti bucharest br?ncovenesc brincoveanustyle brancovenesc bucure?ti muzeul muzeu museum romania brancoveanu exterior constantinbr?ncoveanu constantin ?ararom?neasc? arc arch decay decayed ruin ruined ruina neglect history istorie heritage
license: 0
latitude: 44.562955
longitude: 25.590419
accuracy: 12
views: 74
interestingness: 21 out of 49

photo: 6445704461 f843192df6 7015
owner: 68278382@N06
title: Constructions
originalsecret: null
originalformat: null
o_height: null
o_width: null
datetaken: 2011-11-08 08:31:49
dateupload: 1322902408
tags: tower canon construction crane syria damascus nawar flickraward kouli flickraward5 flickrawardgallery
license: 0
latitude: 33.509625
longitude: 36.310501
accuracy: 10
views: 64
interestingness: 22 out of 49

photo: 6473566969 4ac758c567 7021
owner: 59758233@N02
title: Squashed Can
originalsecret: null
originalformat: null
o_height: null
o_width: null
datetaken: 2011-10-02 16:51:12
dateupload: 1323293215
tags: uk red england bw monochrome metal 35mm coke can tokina litter dorset rubbish gb cocacola wiltshire gravel squashed selectivecolor ringpull selectivecolour eastdorset edmondsham tokinaatxm35prodx35mmf28macro
license: 0
latitude: 50.908077
longitude: -1.93302
accuracy: 16
views: 44
interestingness: 23 out of 49

photo: 6438430981 93292d4b5f 7025
owner: 66964988@N03
title: Natural Light Black and White Portrait
originalsecret: null
originalformat: null
o_height: null
o_width: null
datetaken: 2011-12-01 13:09:04
dateupload: 1322777453
tags: shadow dark feather dramatic naturallight shades pearls africanamerican blinds
license: 0
latitude: 39.250733
longitude: -76.61848
accuracy: 11
views: 25
interestingness: 24 out of 49

photo: 6450631911 7d0d5d6704 7026
owner: 53064033@N04
title: Ava
originalsecret: null
originalformat: null
o_height: null
o_width: null
datetaken: 2011-12-03 23:42:22
dateupload: 1322973827
tags: leica friends light summer portrait tree green film silhouette analog scarf 50mm colours dof kodak bokeh summicron 400 f2 portra catchy m5 mcmaster sooc bokehstandard
license: 0
latitude: 43.261284
longitude: -79.919915
accuracy: 16
views: 138
interestingness: 25 out of 49

photo: 6459030471 e615038700 7003
owner: 62586117@N05
title: Get Lost !
originalsecret: b0a504c45b
originalformat: jpg
o_height: 1981
o_width: 2100
datetaken: 2011-11-30 14:16:21
dateupload: 1323083718
tags: old blackandwhite woman white black girl face fashion monster lady glasses somerset mature stare staring siren taunton fasion cruel shedevil neilmoralee
license: 3
latitude: 51.012904
longitude: -3.105804
accuracy: 14
views: 78
interestingness: 26 out of 49

photo: 6465889645 1035dd4519 7025
owner: 85387952@N00
title: Pied Shieldbug (Tritomegas bicolor)
originalsecret: null
originalformat: null
o_height: null
o_width: null
datetaken: 2011-04-17 08:49:29
dateupload: 1323180681
tags: uk england english nature insect britain insects british hertfordshire herts shieldbug shieldbugs hemiptera buzznbugz tritomegasbicolor piedshieldbug martindparr mdparr
license: 0
latitude: 51.640873
longitude: -0.437135
accuracy: 13
views: 52
interestingness: 27 out of 49

photo: 6447712049 30effe78f4 7172
owner: 38245356@N05
title: wendland im november 2011
originalsecret: null
originalformat: null
o_height: null
o_width: null
datetaken: 2011-12-03 18:48:12
dateupload: 1322934676
tags: blackandwhite bw white black deutschland protest schwarzweiss blockade proteste castor widerstand niedersachsen hitzacker wendland castortransport atomm?ll energiepolitik b?uerlichenotgemeinschaft betonpyramide schienenblockade castor2011 castoralarm wendland2011 castortransport2011 gegenatomkraftantiatom
license: 0
latitude: 53.152535
longitude: 11.044006
accuracy: 11
views: 69
interestingness: 28 out of 49

photo: 6442647185 d58be64737 7167
owner: 49511688@N04
title: CAERPHILLY CASTLE     >   CASTELL CAERFFILI
originalsecret: 10156883dd
originalformat: jpg
o_height: 1544
o_width: 3984
datetaken: 2011-12-02 11:29:01
dateupload: 1322850044
tags: castle wales moat caerphilly welshhistory
license: 0
latitude: 51.563412
longitude: -3.199768
accuracy: 10
views: 86
interestingness: 29 out of 49

photo: 6446856611 4d0e40bd49 7004
owner: 16377236@N02
title: Durlston Dartfords
originalsecret: null
originalformat: null
o_height: null
o_width: null
datetaken: 2011-12-03 12:44:42
dateupload: 1322924029
tags: uk cliff bird nature coast julian photographer sony dorset british alpha sawyer dslr swanage purbeck birdwatcher jurassiccoast 2011 isleofpurbeck dartfordwarbler durlston durlstoncountrypark dorsetcoastpath juliansawyer dorsetguidedwalks purbeckfootprints followthefootprints
license: 0
latitude: 50.593889
longitude: -1.955351
accuracy: 14
views: 62
interestingness: 30 out of 49

photo: 6453796581 a00b39b0d5 7164
owner: 51393599@N03
title: ~ BPC #42 Blythe's Just Desserts ~
originalsecret: f6b268e49c
originalformat: jpg
o_height: 768
o_width: 1024
datetaken: 2011-12-04 15:27:28
dateupload: 1323019874
tags: 
license: 0
latitude: -15.778459
longitude: -47.928661
accuracy: 11
views: 71
interestingness: 31 out of 49

photo: 6460104667 31ea2b5d5b 7154
owner: 72199305@N00
title: Santa Barbara (I need a better title!)
originalsecret: 75eac1eeee
originalformat: jpg
o_height: 1107
o_width: 1642
datetaken: 2011-10-30 18:18:09
dateupload: 1323098930
tags: ocean california longexposure pink sunset vacation sky seascape color reflection beach nature water lines rock santabarbara clouds landscape fun evening nikon pretty waves dusk pacificocean nebula orion hendrys hendrysbeach arroyoburro arroyoburrobeach aaronmeyersphotography
license: 0
latitude: 34.403244
longitude: -119.74677
accuracy: 16
views: 53
interestingness: 32 out of 49

photo: 6445539267 5b19aa2436 7032
owner: 15879717@N00
title: Response to the Autumn Statement 257/366
originalsecret: 7e0c2b4c28
originalformat: jpg
o_height: 1944
o_width: 2896
datetaken: 2011-11-30 14:03:36
dateupload: 1322898385
tags: panic mug strike economy freakout fail 1aday project365 georgeosbourne project366 epicfail november2011 torylies ppt3652011 autumnstatement hasntgotaclue osbournesamugaswell toryeconomics toryfail
license: 1
latitude: 52.625098
longitude: 1.295882
accuracy: 16
views: 30
interestingness: 33 out of 49

photo: 6465065887 7be13d3852 7029
owner: 7396920@N05
title: The heat is on
originalsecret: 42c2ed699c
originalformat: jpg
o_height: 2148
o_width: 3263
datetaken: 2000-03-25 15:00:00
dateupload: 1323165579
tags: italy mountain hot colors volcano lava 2000 sicily etna incandescent magma fumaroles sublimates
license: 0
latitude: 37.750813
longitude: 14.990575
accuracy: 15
views: 174
interestingness: 34 out of 49

photo: 6467454381 0e347d5bac 7033
owner: 7402726@N02
title: LP Nitrogen fail
originalsecret: 639d1c5b07
originalformat: jpg
o_height: 1060
o_width: 1600
datetaken: 2011-10-14 16:54:16
dateupload: 1323200088
tags: light lightpainting luz night painting children spiral la spain long exposure nocturnal orb asturias lp laser nocturna flashlight cod espiral nitrogen con multicolor pintar darklight larga esfera exposici?n felguera linterna linferno l?ser lightgraff nitrastur 200mw
license: 3
latitude: 43.313359
longitude: -5.701406
accuracy: 14
views: 97
interestingness: 35 out of 49

photo: 6444004713 d15a809a52 7002
owner: 32923741@N07
title: 67018 & 67013 @ Birmingham Moor Street 02.12.11
originalsecret: 88b1e8f744
originalformat: jpg
o_height: 1595
o_width: 2392
datetaken: 2011-12-02 20:04:29
dateupload: 1322869628
tags: passengertrain birminghammoorstreet chilternrailways class67 67018 67013
license: 0
latitude: 52.478722
longitude: -1.891343
accuracy: 16
views: 26
interestingness: 36 out of 49

photo: 6442153887 76367fd986 7163
owner: 10725258@N00
title: move toward the light
originalsecret: f14826c72d
originalformat: jpg
o_height: 3000
o_width: 4000
datetaken: 2011-11-22 16:27:25
dateupload: 1322843435
tags: geotagged utah moab corrugated brilliance culvert culvertcanyon jeeparch thanksgiving2011 fireflycanyon geo:lat=3857903958138968 geo:lon=1096354100330658
license: 0
latitude: 38.579039
longitude: -109.63541
accuracy: 16
views: 31
interestingness: 37 out of 49

photo: 6433624619 8406820231 7026
owner: 40755436@N04
title: Battle
originalsecret: 03c574d12f
originalformat: jpg
o_height: 768
o_width: 1024
datetaken: 2011-11-30 17:31:15
dateupload: 1322699475
tags: vegas comic strip convention conference ipad mobileart sketchbookpro benjaminrabe chrischeung fingerpainters mattconners au2011
license: 0
latitude: 36.122341
longitude: -115.168819
accuracy: 16
views: 219
interestingness: 38 out of 49

photo: 6439854433 afd2219041 7004
owner: 14419841@N00
title: 25 Days of Christmas - Day 1
originalsecret: null
originalformat: null
o_height: null
o_width: null
datetaken: 2011-12-01 20:59:43
dateupload: 1322799663
tags: christmas
license: 0
latitude: 40.4407
longitude: -79.994544
accuracy: 12
views: 27
interestingness: 39 out of 49

photo: 6436687869 a7644ba95e 7144
owner: 48921129@N02
title: The door on the tower of Woolton Reservoir.
originalsecret: null
originalformat: null
o_height: null
o_width: null
datetaken: 2011-11-23 12:46:34
dateupload: 1322754382
tags: england wales liverpool watertower snowdonia liverbird greendoor flooded merseyside woolton watersupply llanwddyn sandstonetower wooltonreservoir wooltonconservationarea
license: 0
latitude: 53.37977
longitude: -2.8758
accuracy: 13
views: 19
interestingness: 40 out of 49

photo: 6434361675 65444769c6 7171
owner: 35600217@N07
title: Self, Movember
originalsecret: 1925460382
originalformat: jpg
o_height: 770
o_width: 1024
datetaken: 2011-11-30 22:37:52
dateupload: 1322710366
tags: camera boy portrait man self mirror edinburgh lol movember moustache f18 tache fail ef50mmf18 2011 prostatecancer canoneos500d mrjaja
license: 0
latitude: 55.945041
longitude: -3.20348
accuracy: 16
views: 64
interestingness: 41 out of 49

photo: 6449734775 1d0bf85316 7161
owner: 28530821@N05
title: day forty six - hat
originalsecret: null
originalformat: null
o_height: null
o_width: null
datetaken: 2011-12-03 17:20:55
dateupload: 1322974211
tags: selfportrait me hat self 365 redhair ness blueyes catchlight 365days bochallenge manicpanicfushiashock
license: 0
latitude: 45.558974
longitude: -73.56814
accuracy: 16
views: 99
interestingness: 42 out of 49

photo: 6456703637 2ed0552c29 7154
owner: 45864885@N03
title: CITX 3056
originalsecret: 428efb043d
originalformat: jpg
o_height: 680
o_width: 1024
datetaken: 2011-12-04 14:30:50
dateupload: 1323049356
tags: 
license: 0
latitude: 44.240771
longitude: -96.29774
accuracy: 11
views: 62
interestingness: 43 out of 49

photo: 6465662103 872f601c00 7030
owner: 23170612@N05
title: Riding Off Into The Sunset
originalsecret: 25c6ef90bd
originalformat: jpg
o_height: 2736
o_width: 4288
datetaken: 2011-11-26 17:08:42
dateupload: 1323177280
tags: travel sunset tower birds silhouette photography geese nc nikon photographer waterfront pastel northcarolina hatteras v beaufort
license: 3
latitude: 34.715441
longitude: -76.663756
accuracy: 14
views: 50
interestingness: 44 out of 49

photo: 6447710803 72ee7f7e51 7147
owner: 38245356@N05
title: wendland im november 2011
originalsecret: null
originalformat: null
o_height: null
o_width: null
datetaken: 2011-12-03 18:27:24
dateupload: 1322934662
tags: blackandwhite bw white black deutschland protest schwarzweiss blockade proteste castor widerstand niedersachsen hitzacker wendland castortransport atomm?ll energiepolitik b?uerlichenotgemeinschaft betonpyramide schienenblockade castor2011 castoralarm wendland2011 castortransport2011 gegenatomkraftantiatom
license: 0
latitude: 53.152638
longitude: 11.042289
accuracy: 11
views: 46
interestingness: 45 out of 49

photo: 6439499705 1a70b88ed8 7156
owner: 11185080@N03
title: Incensed Heckler led away from  #n30 #strike Pensions Protest Preston Flag Market  - Too much of the  Daily Mail & that Murdoch comic The S** resulting in the long arm of the law
originalsecret: null
originalformat: null
o_height: null
o_width: null
datetaken: 2011-11-30 04:27:25
dateupload: 1322794060
tags: uk england bw english monochrome digital photoshop nikon zoom north wide sigma lancashire adobe 400 preston british 400asa lenses nikond1x black7white d1x alienskinexposure nikonsigma sigma1835mmf3545dasphericalautofocuszoom
license: 0
latitude: 53.758752
longitude: -2.699149
accuracy: 16
views: 81
interestingness: 46 out of 49

photo: 6443078349 c3ab26b206 7017
owner: 61856038@N03
title: Rope Swing Fail
originalsecret: null
originalformat: null
o_height: null
o_width: null
datetaken: 2011-08-19 04:20:30
dateupload: 1322855965
tags: trees summer cliff canada male fall water pine swimming swim river fun rockies person jump jumping agua nikon rocks eau bc crash britishcolumbia riviere rocky sigma wideangle bluesky cliffs falling biff swimmer rockymountains swinging trunks splash kootenays ultra roches crashing creston activities montagnes ropeswing fleuve fail actionsequence d90 rocheuse
license: 3
latitude: 49.092304
longitude: -116.426582
accuracy: 11
views: 66
interestingness: 47 out of 49

photo: 6443704981 b6011ecc0d 7143
owner: 10276398@N02
title: The Bridge
originalsecret: eddc003734
originalformat: jpg
o_height: 1759
o_width: 1188
datetaken: 2011-12-02 23:29:12
dateupload: 1322864952
tags: bridge bw film 35mm ponte analogue 135 exakta pellicola analogico exaktatl500 exaktar50mmf28
license: 3
latitude: 45.091974
longitude: 7.663629
accuracy: 15
views: 28
interestingness: 48 out of 49

photo: 6478724369 ca6f505a86 7149
owner: 54199003@N00
title: San Francisco Panorama
originalsecret: c849d88e94
originalformat: jpg
o_height: 574
o_width: 2000
datetaken: 2011-12-06 17:29:06
dateupload: 1323379999
tags: sanfrancisco california city sunset panorama water northerncalifornia skyline bay twilight cityscape pano panoramic
license: 3
latitude: 37.860806
longitude: -122.32346
accuracy: 16
views: 33
interestingness: 49 out of 49

photo: 6439895723 804520252d 7143
owner: 37871041@N02
title: [?] How to win a Photography Competition
originalsecret: null
originalformat: null
o_height: null
o_width: null
datetaken: 2011-09-16 06:03:30
dateupload: 1322800383
tags: international loupe awards insults professional editing clean photography panasonic gh2 canon fd lens 28mm f28 andy kaufman tony clifton win corrupt masters ford shelby cobra gt500 fake shonks unprofessional loopy westway
license: 0
latitude: -34.00749
longitude: 151.191959
accuracy: 13
views: 90
interestingness: 50 out of 49

photo: 6447711329 f54806e96c 7006
owner: 38245356@N05
title: wendland im november 2011
originalsecret: null
originalformat: null
o_height: null
o_width: null
datetaken: 2011-12-03 18:32:38
dateupload: 1322934668
tags: blackandwhite bw white black deutschland protest schwarzweiss blockade proteste castor widerstand niedersachsen hitzacker wendland castortransport atomm?ll energiepolitik b?uerlichenotgemeinschaft betonpyramide schienenblockade castor2011 castoralarm wendland2011 castortransport2011 gegenatomkraftantiatom
license: 0
latitude: 53.151917
longitude: 11.043319
accuracy: 11
views: 43
interestingness: 51 out of 49

photo: 6447711635 cfee178787 7014
owner: 38245356@N05
title: wendland im november 2011
originalsecret: null
originalformat: null
o_height: null
o_width: null
datetaken: 2011-12-03 18:49:36
dateupload: 1322934671
tags: blackandwhite bw white black deutschland protest schwarzweiss blockade proteste castor widerstand niedersachsen hitzacker wendland castortransport atomm?ll energiepolitik b?uerlichenotgemeinschaft betonpyramide schienenblockade castor2011 castoralarm wendland2011 castortransport2011 gegenatomkraftantiatom
license: 0
latitude: 53.152226
longitude: 11.043319
accuracy: 11
views: 47
interestingness: 52 out of 49

photo: 6472277287 976ddd9f2f 7030
owner: 14331809@N00
title: Tickle Me Pink
originalsecret: null
originalformat: null
o_height: null
o_width: null
datetaken: 2011-12-04 23:22:22
dateupload: 1323276240
tags: portrait girl face eyes hand human blonde libby hazeleyes 365 fairylights mybedroom 365days 3654 365days4 pinkfairylights featherfairylights pinkfeatherfairylights
license: 0
latitude: 51.489259
longitude: 0.338902
accuracy: 16
views: 74
interestingness: 53 out of 49

photo: 6470098015 62e7780f97 7016
owner: 45705116@N00
title: I will send my dancing beauties into the dreams of all.
originalsecret: null
originalformat: null
o_height: null
o_width: null
datetaken: 2010-03-12 21:50:42
dateupload: 1323237256
tags: money newmexico mouth war albuquerque lips dollar change seduction declarationofwar lloydthrap globaldream globalpeople globalfail
license: 0
latitude: 35.105427
longitude: -106.629352
accuracy: 14
views: 92
interestingness: 54 out of 49

photo: 6441894671 b7c5edf0fc 7021
owner: 48921129@N02
title: Woolton Reservoir.
originalsecret: null
originalformat: null
o_height: null
o_width: null
datetaken: 2011-11-23 12:46:09
dateupload: 1322839893
tags: trees england tower liverpool sandstone victorian railings merseyside listedbuilding woolton wooltonquarry wooltonreservoir wooltonconservationarea
license: 0
latitude: 53.379744
longitude: -2.875971
accuracy: 13
views: 41
interestingness: 55 out of 49

photo: 6452332811 a0f6ce8545 7008
owner: 69137106@N02
title: Love is
originalsecret: null
originalformat: null
o_height: null
o_width: null
datetaken: 2011-11-20 16:40:56
dateupload: 1323003417
tags: wedding love
license: 0
latitude: 22.282782
longitude: 114.173269
accuracy: 13
views: 28
interestingness: 56 out of 49

photo: 6447710279 a8b59cb86c 7020
owner: 38245356@N05
title: wendland im november 2011
originalsecret: null
originalformat: null
o_height: null
o_width: null
datetaken: 2011-12-03 18:39:45
dateupload: 1322934657
tags: blackandwhite bw white black deutschland protest schwarzweiss blockade proteste castor widerstand niedersachsen hitzacker wendland castortransport atomm?ll energiepolitik b?uerlichenotgemeinschaft betonpyramide schienenblockade castor2011 castoralarm wendland2011 castortransport2011 gegenatomkraftantiatom
license: 0
latitude: 53.151711
longitude: 11.038856
accuracy: 11
views: 41
interestingness: 57 out of 49

photo: 6438903671 df32025e1d 7008
owner: 28121598@N03
title: Queen Of The Ocean
originalsecret: 472a13b1c4
originalformat: jpg
o_height: 948
o_width: 723
datetaken: 2001-12-02 11:58:02
dateupload: 1322784160
tags: uk greatbritain england museum liverpool marine ship unitedkingdom navy maritime wreck naval worldwar1 liner merseyside whitestar oceanic
license: 3
latitude: 53.402828
longitude: -2.995061
accuracy: 13
views: 34
interestingness: 58 out of 49

photo: 6453111577 6e2cd05056 7171
owner: 7904868@N07
title: new "Gruss vom Krampus" poster
originalsecret: bff489f181
originalformat: jpg
o_height: 997
o_width: 650
datetaken: 2011-12-04 10:34:04
dateupload: 1323012844
tags: christmas print poster folklore alpine devil stnicholas kinky yuletide blackpeter stnick krampus germanic stnikolas prechristian krampusnacht copyrightprotected jamesmundie percht jamesgmundie profjasmundie copyright?jamesgmundieallrightsreserved krampustag grussvomkrampus krampuslaufphiladelphia2011 originaldesignbyjamesgmundie krampuslaufphiladelphia
license: 0
latitude: 39.933285
longitude: -75.164744
accuracy: 15
views: 43
interestingness: 59 out of 49

photo: 6449647943 b4f6fa652a 7014
owner: 36524915@N05
title: A Fine Place For A Kindergarten
originalsecret: null
originalformat: null
o_height: null
o_width: null
datetaken: 2011-06-16 09:24:39
dateupload: 1322959521
tags: school sculpture house signs mountains alps art beautiful cemetery grave metal kids bronze children dead death austria design weird crazy funny iron europe european catholic christ cross traditional religion jesus tomb tombstone crosses belief architectural christian creepy wrong badsign irony learning classical preschool christianity kindergarten tacky tradition ironic catholicism myth innsbruck funnysign zillertal austrian hintertux jesuschrist tasteless fail austrianalps
license: 0
latitude: 47.271775
longitude: 11.535644
accuracy: 6
views: 108
interestingness: 60 out of 49

photo: 6446095019 a52a93303f 7175
owner: 27204054@N07
title: Go North East 537 (NA52AWZ)
originalsecret: null
originalformat: null
o_height: null
o_width: null
datetaken: 2011-11-30 13:59:29
dateupload: 1322911163
tags: buses transport dennis coaches mpd gonortheast 537 dartslf buspictures gonorthern goaheadgroup minipointer na52awz
license: 0
latitude: 54.902314
longitude: -1.386272
accuracy: 16
views: 26
interestingness: 61 out of 49

photo: 6448435215 9aa2846f83 7150
owner: 15207126@N06
title: 111203 - N5 - 23 1
originalsecret: null
originalformat: null
o_height: null
o_width: null
datetaken: 2011-12-03 17:03:39
dateupload: 1322943724
tags: portrait toddler 85mm jez clissoldpark jezb
license: 0
latitude: 51.561117
longitude: -0.089006
accuracy: 13
views: 14
interestingness: 62 out of 49

photo: 6478355355 7d923d0094 7026
owner: 44055945@N06
title: The Strike
originalsecret: ce52b1a6e1
originalformat: jpg
o_height: 1000
o_width: 2000
datetaken: 2011-12-08 10:57:34
dateupload: 1323375010
tags: california bird alba great aves ardea martinez egret ardeidae ebrpd pelecaniformes martinezregionalshoreline contracostaco
license: 2
latitude: 38.024827
longitude: -122.14002
accuracy: 16
views: 18
interestingness: 63 out of 49

photo: 6467586673 f6c6e4f9db 7154
owner: 29648523@N05
title: National Museum of Naval Aviation - NAS Pensacola, Florida
originalsecret: da9f7e2bc1
originalformat: jpg
o_height: 2000
o_width: 3008
datetaken: 2011-10-02 18:03:16
dateupload: 1323201706
tags: usa museum warrington nikon fighter unitedstates florida f14 aircraft military navy usnavy pensacola tomcat grumman d40 nationalmuseumofnavalaviation f14a naspensacola escambiacounty blackaces vf41 fisherbray
license: 0
latitude: 30.3485
longitude: -87.303897
accuracy: 16
views: 15
interestingness: 64 out of 49

photo: 6459581245 1bd2bb3a3d 7145
owner: 65922230@N00
title: cut copy
originalsecret: 37534840e8
originalformat: jpg
o_height: 800
o_width: 634
datetaken: 2011-11-30 16:00:43
dateupload: 1323092515
tags: holland beach netherlands grass strand analog mediumformat iso100 sticker cut failure nederland slide zeeland dia velvia analogue 13 thirteen aufkleber niederlande fail pentaconsix domburg pentaconsixtl dreizehn mittelformat biometar8028 fujivelviarvp100
license: 3
latitude: 51.565845
longitude: 3.494253
accuracy: 16
views: 23
interestingness: 65 out of 49

photo: 6442205627 9234ce7b75 7025
owner: 10725258@N00
title: Tunneling Out
originalsecret: 5280dcc80c
originalformat: jpg
o_height: 3601
o_width: 2909
datetaken: 2011-11-22 16:29:54
dateupload: 1322844095
tags: geotagged utah moab corrugated culvert culvertcanyon jeeparch thanksgiving2011 fireflycanyon geo:lat=3857896451468254 geo:lon=10963540999999998
license: 0
latitude: 38.578964
longitude: -109.635409
accuracy: 16
views: 56
interestingness: 66 out of 49

photo: 6478973831 dfe8b2ee72 7016
owner: 32592412@N00
title: I'm holding the tripod down with both hands..
originalsecret: 151941d5cc
originalformat: jpg
o_height: 1993
o_width: 3000
datetaken: 2011-12-08 17:30:03
dateupload: 1323383488
tags: sea night clouds dark cloudy beachhut seafront southend shoeburyness shoebury
license: 0
latitude: 51.523103
longitude: 0.775136
accuracy: 15
views: 10
interestingness: 67 out of 49

photo: 6449648821 80428a609f 7171
owner: 48261539@N05
title: Fail! Gum Pop!
originalsecret: null
originalformat: null
o_height: null
o_width: null
datetaken: 2011-10-16 09:31:46
dateupload: 1322959533
tags: street leica white black london film photography kodak super 400tx m6ttl 21mm angulon potichaophotography
license: 0
latitude: 51.676788
longitude: -4.712049
accuracy: 16
views: 43
interestingness: 68 out of 49

photo: 6438430675 6f46ba1552 7152
owner: 66964988@N03
title: Natural Light Portrait
originalsecret: null
originalformat: null
o_height: null
o_width: null
datetaken: 2011-12-01 13:08:25
dateupload: 1322777449
tags: shadow dark feather dramatic naturallight shades pearls africanamerican blinds
license: 0
latitude: 39.252992
longitude: -76.61539
accuracy: 11
views: 7
interestingness: 69 out of 49

photo: 6428955987 d82cde6208 7169
owner: 28887921@N07
title: once was home
originalsecret: a181874b54
originalformat: jpg
o_height: 1168
o_width: 884
datetaken: 2011-11-29 21:43:01
dateupload: 1322776680
tags: negative1 imissmyoldhouse nokia6350 butidontmisshavingalandlord oncewashomeliterally ithinktherearenewtenantstherenow wonderifthedyingsepticsystemhasfailedyet
license: 0
latitude: 41.79396
longitude: -88.100513
accuracy: 16
views: 22
interestingness: 70 out of 49

photo: 6456705771 69e4253ecb 7143
owner: 14904010@N02
title: Northern Harrier 03-20111204
originalsecret: 95f346c956
originalformat: jpg
o_height: 1200
o_width: 1600
datetaken: 2011-12-04 08:59:36
dateupload: 1323049379
tags: florida raptors boyntonbeach harrier northernharrier greencay westpalmcounty
license: 1
latitude: 26.487422
longitude: -80.162027
accuracy: 16
views: 13
interestingness: 71 out of 49

photo: 6454406185 a30aa6108d 7012
owner: 62424671@N03
title: Old Glory Molly Dancers
originalsecret: bcfc3c279c
originalformat: jpg
o_height: 1488
o_width: 2240
datetaken: 2011-12-04 15:09:54
dateupload: 1323026118
tags: musicians suffolk market christmasmarket eastanglia oldglory bungay mollydancers
license: 0
latitude: 52.456571
longitude: 1.436392
accuracy: 16
views: 4
interestingness: 72 out of 49

photo: 6437313757 6236d4c633 7001
owner: 10725258@N00
title: We're being watched
originalsecret: 52f32288c7
originalformat: jpg
o_height: 3000
o_width: 4000
datetaken: 2011-11-22 13:08:59
dateupload: 1322762648
tags: geotagged utah sheep moab desertbighorn bighornsheep oviscanadensisnelsoni culvertcanyon jeeparch thanksgiving2011 fireflycanyon geo:lat=3859011347242255 geo:lon=10963606520901487
license: 0
latitude: 38.590113
longitude: -109.636065
accuracy: 16
views: 40
interestingness: 73 out of 49

photo: 6456712975 f9fcf54da6 7002
owner: 14904010@N02
title: Northern Harrier 09-20111204
originalsecret: a61122e938
originalformat: jpg
o_height: 2045
o_width: 2726
datetaken: 2011-12-04 10:18:25
dateupload: 1323049463
tags: florida raptors boyntonbeach harrier northernharrier greencay westpalmcounty
license: 1
latitude: 26.487422
longitude: -80.162027
accuracy: 16
views: 21
interestingness: 74 out of 49

photo: 6452978599 14e3338950 7001
owner: 47333265@N00
title: D_Sanssouci_Potsdam_08
originalsecret: null
originalformat: null
o_height: null
o_width: null
datetaken: 2011-07-19 15:41:40
dateupload: 1323011375
tags: sculpture berlin fountain gardens germany garden temple deutschland pagoda ruins pyramid antique terraces jardin palace historic vista grotto historical belvedere chinoiserie avenue sanssouci potsdam brandenburg garten axis folly wineyard pavillon follies giardino romanbaths landscapearchitecture orangerie storico orangery antik all?e historique historisch formalgarden rococogarden pattedoie anticando
license: 0
latitude: 52.406143
longitude: 13.02118
accuracy: 15
views: 25
interestingness: 75 out of 49

photo: 6445005895 f3e7b53765 7033
owner: 8767978@N04
title: Bourbon Theatre
originalsecret: b4271a94fa
originalformat: jpg
o_height: 6000
o_width: 6000
datetaken: 2011-11-10 21:19:43
dateupload: 1322887447
tags: street bar nebraska theater downtown theatre o ne lincoln statetheater bourbon sensesfail toubabkrewe manchesterorchestra zedsdead
license: 0
latitude: 40.813545
longitude: -96.700705
accuracy: 16
views: 17
interestingness: 76 out of 49

photo: 6443127913 ca560c780e 7014
owner: 46007633@N08
title: Day Five
originalsecret: null
originalformat: null
o_height: null
o_width: null
datetaken: 2011-12-02 10:56:48
dateupload: 1322856628
tags: selfportrait snow alaska scarf exotic brownhair 365days
license: 0
latitude: 61.185293
longitude: -149.85609
accuracy: 11
views: 27
interestingness: 77 out of 49

photo: 6454419651 504f16c785 7145
owner: 62424671@N03
title: Old Glory Molly Dancers
originalsecret: a9840d432c
originalformat: jpg
o_height: 1317
o_width: 1981
datetaken: 2011-12-04 15:18:24
dateupload: 1323026249
tags: musicians suffolk market christmasmarket eastanglia oldglory bungay mollydancers
license: 0
latitude: 52.456571
longitude: 1.436285
accuracy: 16
views: 3
interestingness: 78 out of 49

photo: 6441664333 72701708fd 7163
owner: 68641347@N08
title: Turban, Stranger 17 / 100
originalsecret: null
originalformat: null
o_height: null
o_width: null
datetaken: 2011-12-02 12:56:39
dateupload: 1322836643
tags: portrait 100strangers
license: 0
latitude: 48.136409
longitude: 11.57752
accuracy: 11
views: 50
interestingness: 79 out of 49

photo: 6460495881 e4bab14c83 7150
owner: 41597157@N00
title: speak out!
originalsecret: 7c9751b436
originalformat: jpg
o_height: 738
o_width: 1024
datetaken: 2011-11-05 00:31:38
dateupload: 1323103198
tags: political rally speaker megaphone mygearandme
license: 3
latitude: 37.44482
longitude: -122.169494
accuracy: 7
views: 7
interestingness: 80 out of 49

photo: 6461698687 2cd7a16399 7015
owner: 7432707@N03
title: Dark Ages
originalsecret: null
originalformat: null
o_height: null
o_width: null
datetaken: 2011-12-05 20:21:09
dateupload: 1323116469
tags: light dark darkness monotone rays anglesey ynysm?n cemlyn canong12
license: 0
latitude: 53.408943
longitude: -4.505467
accuracy: 13
views: 33
interestingness: 81 out of 49

photo: 6453017443 d0d1dd1a62 7032
owner: 8352316@N04
title: Manfred and Hunny contemplate the end of the pier
originalsecret: 1e28967968
originalformat: jpg
o_height: 566
o_width: 850
datetaken: 2011-12-03 15:55:25
dateupload: 1323011456
tags: thames twilight dusk estuary hunny essex southend manfred southendonsea
license: 0
latitude: 51.532414
longitude: 0.72014
accuracy: 15
views: 23
interestingness: 82 out of 49

photo: 6462774153 e6ee99f104 7006
owner: 57720908@N03
title: Poinsettia
originalsecret: d3a18fde7b
originalformat: jpg
o_height: 1612
o_width: 2146
datetaken: 2011-12-05 21:08:11
dateupload: 1323129402
tags: poinsettia d70s
license: 0
latitude: 44.729418
longitude: -65.591619
accuracy: 14
views: 24
interestingness: 83 out of 49

photo: 6458702433 d5a3ef24dd 7016
owner: 8755708@N07
title: 21-07-68 6023 Barry Scrapyard
originalsecret: null
originalformat: null
o_height: null
o_width: null
datetaken: 1968-07-21 00:00:00
dateupload: 1323077399
tags: steam woodhams scrapyard rust barryscrapyard scrap woodhambros barry britishrailways barrydocks railway gwr 460 6023 kingedwardii
license: 0
latitude: 51.396387
longitude: -3.279054
accuracy: 15
views: 12
interestingness: 84 out of 49

photo: 6456711133 8b1fe3ff23 7023
owner: 14904010@N02
title: Northern Harrier 07-20111204
originalsecret: ce5134f533
originalformat: jpg
o_height: 3431
o_width: 4575
datetaken: 2011-12-04 10:10:16
dateupload: 1323049441
tags: florida raptors boyntonbeach harrier northernharrier greencay westpalmcounty
license: 1
latitude: 26.487422
longitude: -80.162027
accuracy: 16
views: 10
interestingness: 85 out of 49

photo: 6442036261 ea30432a19 7168
owner: 10725258@N00
title: Water in the desert
originalsecret: 7ff0042e83
originalformat: jpg
o_height: 3715
o_width: 2603
datetaken: 2011-12-02 09:04:50
dateupload: 1322841890
tags: trees panorama water geotagged utah shadows moab pouroff culvertcanyon jeeparch thanksgiving2011 fireflycanyon geo:lat=3858175653702586 geo:lon=1096358065304413
license: 0
latitude: 38.581756
longitude: -109.635806
accuracy: 16
views: 39
interestingness: 86 out of 49

photo: 6461893759 6947608503 7169
owner: 29718324@N08
title: Why is there always one
originalsecret: 18ba667dfa
originalformat: jpg
o_height: 1348
o_width: 2190
datetaken: 2011-12-04 13:45:53
dateupload: 1323118641
tags: zoe sheep bordercollies
license: 0
latitude: 43.462787
longitude: -89.544631
accuracy: 16
views: 7
interestingness: 87 out of 49

photo: 6450104233 657955553e 7141
owner: 28887921@N07
title: one random moment
originalsecret: 6b6e00dc63
originalformat: jpg
o_height: 1238
o_width: 999
datetaken: 2011-12-03 15:34:56
dateupload: 1322948096
tags: sunset window negative1 nokia6350 stupidcellphonephotos
license: 0
latitude: 41.783077
longitude: -88.068219
accuracy: 16
views: 15
interestingness: 88 out of 49

photo: 6447926563 7755ccd844 7143
owner: 36216683@N00
title: West Ham 1, Burnley 2
originalsecret: null
originalformat: null
o_height: null
o_width: null
datetaken: 2011-12-03 15:31:04
dateupload: 1322937290
tags: life park santa christmas street xmas london costume football soccer ground east suit end fatherchristmas santaclaus claus sack bulging upton burnley samallardyce westham uptonpark boleyn boleynground davidgold footballxmas westhamvburnley
license: 0
latitude: 51.531787
longitude: 0.038709
accuracy: 13
views: 38
interestingness: 89 out of 49

photo: 6441235021 b2cf357ac7 7026
owner: 44488903@N00
title: IMG_7483
originalsecret: f6405eff02
originalformat: jpg
o_height: 2304
o_width: 3456
datetaken: 2011-11-13 15:36:23
dateupload: 1322829445
tags: road nationalpark texas desert valley bigbend vernonbaileytraverse
license: 3
latitude: 29.283997
longitude: -103.323184
accuracy: 16
views: 15
interestingness: 90 out of 49

photo: 6437193695 ce33f48d02 7013
owner: 10725258@N00
title: See the spire?
originalsecret: c28cf8f2bc
originalformat: jpg
o_height: 3000
o_width: 4000
datetaken: 2011-11-22 12:31:34
dateupload: 1322761064
tags: geotagged utah hiking spire moab hoodoo culvertcanyon jeeparch thanksgiving2011 fireflycanyon geo:lat=3858786615991168 geo:lon=10963338281349183
license: 0
latitude: 38.587866
longitude: -109.633382
accuracy: 16
views: 38
interestingness: 91 out of 49

photo: 6456712045 fecd564284 7149
owner: 14904010@N02
title: Northern Harrier 08-20111204
originalsecret: 441555b625
originalformat: jpg
o_height: 2179
o_width: 2905
datetaken: 2011-12-04 10:18:23
dateupload: 1323049452
tags: florida raptors boyntonbeach harrier northernharrier greencay westpalmcounty
license: 1
latitude: 26.487422
longitude: -80.162027
accuracy: 16
views: 11
interestingness: 92 out of 49

photo: 6456707985 e13deb204c 7029
owner: 14904010@N02
title: Northern Harrier 06-20111204
originalsecret: baa1f75853
originalformat: jpg
o_height: 1759
o_width: 2345
datetaken: 2011-12-04 10:10:15
dateupload: 1323049404
tags: florida raptors boyntonbeach harrier northernharrier greencay westpalmcounty
license: 1
latitude: 26.487422
longitude: -80.162027
accuracy: 16
views: 9
interestingness: 93 out of 49

photo: 6456707265 e08a648bb3 7159
owner: 14904010@N02
title: Northern Harrier 05-20111204
originalsecret: 3e5c433c13
originalformat: jpg
o_height: 1531
o_width: 2041
datetaken: 2011-12-04 09:56:18
dateupload: 1323049396
tags: florida raptors boyntonbeach harrier northernharrier greencay westpalmcounty
license: 1
latitude: 26.487422
longitude: -80.162027
accuracy: 16
views: 12
interestingness: 94 out of 49

photo: 6456706489 3b39169c35 7152
owner: 14904010@N02
title: Northern Harrier 04-20111204
originalsecret: 99bd687f80
originalformat: jpg
o_height: 2236
o_width: 2981
datetaken: 2011-12-04 09:56:13
dateupload: 1323049387
tags: florida raptors boyntonbeach harrier northernharrier greencay westpalmcounty
license: 1
latitude: 26.487422
longitude: -80.162027
accuracy: 16
views: 8
interestingness: 95 out of 49

photo: 6456705419 1a6b25d23b 7002
owner: 14904010@N02
title: Northern Harrier 02-20111204
originalsecret: 9a6c54f6c8
originalformat: jpg
o_height: 1600
o_width: 2133
datetaken: 2011-12-04 08:24:06
dateupload: 1323049375
tags: florida raptors boyntonbeach harrier northernharrier greencay westpalmcounty
license: 1
latitude: 26.487422
longitude: -80.162027
accuracy: 16
views: 9
interestingness: 96 out of 49

photo: 6456704797 7980c6bf6e 7027
owner: 14904010@N02
title: Northern Harrier 20111204
originalsecret: 602b5940c0
originalformat: jpg
o_height: 1149
o_width: 1532
datetaken: 2011-12-04 08:23:56
dateupload: 1323049368
tags: florida raptors boyntonbeach harrier northernharrier greencay westpalmcounty
license: 1
latitude: 26.487422
longitude: -80.162027
accuracy: 16
views: 15
interestingness: 97 out of 49

photo: 6449805343 1ac0be2d37 7143
owner: 35034347485@N01
title: Boca burger & fries at Rudy's Can't Fail Cafe
originalsecret: 95434fc73e
originalformat: jpg
o_height: 1228
o_width: 2048
datetaken: 2011-12-03 13:24:42
dateupload: 1322961786
tags: vegan burger frenchfries fries emeryville boca rudyscantfailcafe
license: 6
latitude: 37.831352
longitude: -122.285962
accuracy: 16
views: 55
interestingness: 98 out of 49

photo: 6446705277 9504458cdb 7163
owner: 55741712@N03
title: Good Morning
originalsecret: null
originalformat: null
o_height: null
o_width: null
datetaken: 2011-11-16 08:24:24
dateupload: 1322921805
tags: lake garden taiping of
license: 0
latitude: 4.852129
longitude: 100.740989
accuracy: 11
views: 7
interestingness: 99 out of 49

photo: 6433934235 e98a439130 7006
owner: 62855149@N00
title: Don't just stand there
originalsecret: 4b29414ce6
originalformat: jpg
o_height: 2303
o_width: 2125
datetaken: 2011-11-26 15:16:16
dateupload: 1322704092
tags: london canon poster funny humorous camden candid streetphotography shopwindow camdenhighstreet 40d 1755mmf28is
license: 0
latitude: 51.539228
longitude: -0.142822
accuracy: 16
views: 20
interestingness: 100 out of 49

photo: 6474834023 be1e44835b 7029
owner: 69295994@N00
title: Office Xmas party secret Santa fail #antswtf
originalsecret: 12225c9ab5
originalformat: jpg
o_height: 2448
o_width: 3264
datetaken: 2011-12-07 18:58:00
dateupload: 1323313249
tags: cameraphone iphone4s
license: 1
latitude: 49.187333
longitude: -122.800167
accuracy: 16
views: 113
interestingness: 101 out of 49

photo: 6461929861 431c751ed0 7029
owner: 69556878@N06
title: This could have been a great shot!
originalsecret: null
originalformat: null
o_height: null
o_width: null
datetaken: 2011-12-05 11:15:42
dateupload: 1323119030
tags: 
license: 0
latitude: 53.148906
longitude: -6.06265
accuracy: 14
views: 18
interestingness: 102 out of 49

photo: 6465277881 e32a57395c 7161
owner: 37286997@N03
title: 'Did you count them before we left?' 'No! Did you?'
originalsecret: 90cf88cf60
originalformat: jpg
o_height: 2228
o_width: 3245
datetaken: 2009-05-12 11:55:33
dateupload: 1323170035
tags: 
license: 0
latitude: 50.133784
longitude: -5.079803
accuracy: 10
views: 22
interestingness: 103 out of 49

photo: 6440046171 e3c4e30a67 7169
owner: 16696923@N00
title: The view from the bridge.
originalsecret: null
originalformat: null
o_height: null
o_width: null
datetaken: 2011-11-13 17:11:20
dateupload: 1322803188
tags: newyork skyline bronx nighttime pj photowalk crapcam whitestone iphone worldofpj fauxloroid
license: 0
latitude: 40.800913
longitude: -73.82894
accuracy: 15
views: 1
interestingness: 104 out of 49

photo: 6478924797 532dc60964 7014
owner: 59755673@N04
title: Failed Welsh lineout
originalsecret: dc84d574eb
originalformat: jpg
o_height: 1926
o_width: 1800
datetaken: 2011-12-03 16:19:09
dateupload: 1323382776
tags: wales rugby stadium cymru cardiff australia millenium caerdydd welsh lineout nau milleniumstadium polota ianevans rugbyunion scottandrews tatafu willgenia salesimaafu danlydiate tatafupolotanau
license: 3
latitude: 51.478269
longitude: -3.182816
accuracy: 14
views: 1
interestingness: 105 out of 49

photo: 6478422121 d6208d7406 7027
owner: 27745058@N05
title: SDC10197
originalsecret: null
originalformat: null
o_height: null
o_width: null
datetaken: 2011-10-24 17:39:09
dateupload: 1323375939
tags: dog stpetersburg walking yellowlab florida neighborhood stroll dailyroutine ramble christmasornaments wwwwillknotdicom
license: 0
latitude: 27.83227
longitude: -82.677354
accuracy: 12
views: 0
interestingness: 106 out of 49

photo: 6476445073 a96dc96939 7144
owner: 53240306@N07
title: GB.PAK.09.0044
originalsecret: 95173eab3a
originalformat: jpg
o_height: 808
o_width: 1200
datetaken: 2011-12-08 17:32:40
dateupload: 1323346507
tags: pakistan trash garbage health wash karachi sewer hygiene sanitation shantytown extremepoverty fwc sewege migrantworkers macharcolony balazsgardi safedrinkingwater facingwatercrisis slumsettlement
license: 3
latitude: 24.861041
longitude: 66.982215
accuracy: 15
views: 3
interestingness: 107 out of 49

photo: 6475117223 aa2dfc6a7c 7017
owner: 67151927@N00
title: (331/358)
originalsecret: 86dcfe4dce
originalformat: jpg
o_height: 728
o_width: 1092
datetaken: 2011-12-05 19:51:04
dateupload: 1323317919
tags: life food me its like days be teh what bryant epic scannell fail
license: 0
latitude: 45.031953
longitude: -93.360571
accuracy: 13
views: 21
interestingness: 108 out of 49

photo: 6474254245 696050d553 7155
owner: 26978304@N08
title: Crooked Parking In Malaysia
originalsecret: null
originalformat: null
o_height: null
o_width: null
datetaken: 2011-12-04 12:34:00
dateupload: 1323303668
tags: windows cars lines yellow sedan silver lights back traffic parking rear poor bad crosses tires vehicles malaysia kotakinabalu boxes selfish carpark sabah crooked tilted spaces headlamps fail irresponsible toyotacorolla karamunsing thienzieyung
license: 4
latitude: 5.970518
longitude: 116.075652
accuracy: 16
views: 15
interestingness: 109 out of 49

photo: 6474251429 5da1ec561c 7156
owner: 26978304@N08
title: Toyota Land Cruiser Parking Fail
originalsecret: null
originalformat: null
o_height: null
o_width: null
datetaken: 2011-12-04 12:20:08
dateupload: 1323303617
tags: windows cars lines yellow silver lights traffic parking poor bad crosses 4wd tires vehicles malaysia kotakinabalu boxes selfish carpark luxury sabah spaces headlamps luxurious fail toyotalandcruiser irresponsible karamunsing thienzieyung
license: 4
latitude: 5.970518
longitude: 116.075652
accuracy: 16
views: 11
interestingness: 110 out of 49

photo: 6474250491 7d41f69308 7001
owner: 26978304@N08
title: Parking Fail - A Little Too Forward
originalsecret: null
originalformat: null
o_height: null
o_width: null
datetaken: 2011-12-04 12:18:54
dateupload: 1323303602
tags: windows black cars lines yellow truck lights traffic parking poor bad crosses 4wd pickup tires vehicles malaysia kotakinabalu boxes selfish carpark sabah spaces headlamps fail irresponsible toyotahilux karamunsing thienzieyung
license: 4
latitude: 5.970518
longitude: 116.075652
accuracy: 16
views: 21
interestingness: 111 out of 49

photo: 6472049811 c714c0e475 7001
owner: 23032926@N05
title: 130419 Savage United States Navy
originalsecret: null
originalformat: null
o_height: null
o_width: null
datetaken: 1955-05-01 00:00:00
dateupload: 1323273393
tags: ohio aviation united north navy american patterson states wright naval usn savage afb navair aj2 130419
license: 0
latitude: 39.77754
longitude: -84.095535
accuracy: 11
views: 48
interestingness: 112 out of 49

photo: 6469472313 c96271d6cf 7157
owner: 66307628@N03
title: Majestic FAIL
originalsecret: null
originalformat: null
o_height: null
o_width: null
datetaken: 2011-12-06 21:49:16
dateupload: 1323227439
tags: 
license: 0
latitude: 40.7038
longitude: -73.83168
accuracy: 11
views: 19
interestingness: 113 out of 49

photo: 6463255295 53dfcf0fd4 7147
owner: 8353973@N06
title: Fuel
originalsecret: null
originalformat: null
o_height: null
o_width: null
datetaken: 2011-12-05 17:42:17
dateupload: 1323135911
tags: life sanfrancisco coffee work advertising interactive bourbon fuel fail fml bulleit kourig
license: 2
latitude: 37.793333
longitude: -122.383889
accuracy: 16
views: 33
interestingness: 114 out of 49

photo: 6463050083 469524ee96 7019
owner: 92156325@N00
title: ? la Mort Subite
originalsecret: d62d626fb3
originalformat: jpg
o_height: 2736
o_width: 3648
datetaken: 2011-05-12 10:20:19
dateupload: 1323133072
tags: brussels bike geotagged belgium belgique belgi? bruxelles boris brussel villo geo:lat=50848654 geo:long=4356193
license: 0
latitude: 50.848654
longitude: 4.356193
accuracy: 16
views: 5
interestingness: 115 out of 49

photo: 6462837553 f6e3d10726 7035
owner: 26978304@N08
title: Parking Trolls In Malaysia!
originalsecret: null
originalformat: null
o_height: null
o_width: null
datetaken: 2011-12-04 12:08:37
dateupload: 1323130252
tags: cars lines back crazy view traffic parking rear poor bad 4wd problem vehicles madness malaysia terrible arrows kotakinabalu trucks selfish fails issues mayhem sabah birdseye lanes sedans inconsiderate choas karamunsing thienzieyung
license: 4
latitude: 5.970518
longitude: 116.075652
accuracy: 16
views: 13
interestingness: 116 out of 49

photo: 6461979677 d0c2f4daab 7017
owner: 28924985@N04
title: Traffic Trails
originalsecret: null
originalformat: null
o_height: null
o_width: null
datetaken: 2011-11-30 21:59:17
dateupload: 1323119579
tags: longexposure red white night lights movement long exposure traffic fife trails places dunfermline masterton traffictrails inverkeithing photographicdreams nov2011
license: 0
latitude: 56.04714
longitude: -3.39941
accuracy: 15
views: 0
interestingness: 117 out of 49

photo: 6460599127 d6d54ce0b9 7173
owner: 55691305@N08
title: surrealist
originalsecret: 88bf4c75e5
originalformat: jpg
o_height: 1372
o_width: 3965
datetaken: 2011-08-07 14:15:57
dateupload: 1323104328
tags: museum one boulevard spanish surrealist dali picnik
license: 1
latitude: 27.766114
longitude: -82.634525
accuracy: 16
views: 20
interestingness: 118 out of 49

photo: 6458490911 a4bbb82410 7034
owner: 60411418@N08
title: Sneller; Almost
originalsecret: null
originalformat: null
o_height: null
o_width: null
datetaken: 2011-10-09 05:02:10
dateupload: 1323073231
tags: bike wall mi canon bmx action crash michigan cycle 5d grandrapids wally mkii fail schooloffun
license: 0
latitude: 42.959186
longitude: -85.656967
accuracy: 10
views: 35
interestingness: 119 out of 49

photo: 6457636227 ac81c4fa4c 7002
owner: 43489439@N00
title: Demo fail
originalsecret: b1f9a9aff9
originalformat: jpg
o_height: 2848
o_width: 4288
datetaken: 2011-12-04 13:23:22
dateupload: 1323059803
tags: london 2011 musichackday
license: 4
latitude: 51.519999
longitude: -0.094048
accuracy: 15
views: 100
interestingness: 120 out of 49

photo: 6457153709 ec6366f321 7149
owner: 40243520@N02
title: General Cleburne Statue
originalsecret: 8868393213
originalformat: jpg
o_height: 3872
o_width: 2592
datetaken: 2011-11-23 00:14:56
dateupload: 1323054263
tags: atlanta statue georgia 1 war general civil marker wpa campaign cleburne ringgold
license: 1
latitude: 34.909555
longitude: -85.102812
accuracy: 16
views: 0
interestingness: 121 out of 49

photo: 6457052971 60cc851581 7005
owner: 26978304@N08
title: Absolute Parking Fail In Malaysia
originalsecret: null
originalformat: null
o_height: null
o_width: null
datetaken: 2011-12-04 09:17:21
dateupload: 1323053181
tags: road shadow brown building cars lines truck lights back box space parking rear poor bad 4wd pickup vehicles malaysia kotakinabalu brake selfish sabah tyres fail irresponsible stingy mitsubishistorm thienzieyung
license: 4
latitude: 5.950376
longitude: 116.09211
accuracy: 16
views: 15
interestingness: 122 out of 49

photo: 6453948557 5939155657 7151
owner: 47418811@N04
title: English Quiz
originalsecret: f249dcf2d0
originalformat: jpg
o_height: 3240
o_width: 4320
datetaken: 2011-12-03 23:46:55
dateupload: 1323021403
tags: sign hotel engrish badsign signage westin fail hotelsign youryoure signfail
license: 0
latitude: 29.781773
longitude: -95.537281
accuracy: 13
views: 17
interestingness: 123 out of 49

photo: 6447995205 ef913e0982 7169
owner: 12608538@N03
title: Abi Harper fails to intercept Aileen Davis's pass to George Twigg
originalsecret: null
originalformat: null
o_height: null
o_width: null
datetaken: 2011-12-03 13:53:09
dateupload: 1322938133
tags: reading raw berkshire fieldhockey ehb actionsport sonninglane femalesport d3s girlsplayingsport walkingwithmynikon nikkorafs500f4 readinghockeyclub investecwomenshockeyleague investecwomenspremierleague readingvsclifton womenselitesport
license: 0
latitude: 51.466333
longitude: -0.9135
accuracy: 16
views: 23
interestingness: 124 out of 49

photo: 6443158665 9d8cc243a3 7034
owner: 61117155@N06
title: Trouble at mill - 1
originalsecret: 7c1c0711a1
originalformat: jpg
o_height: 2736
o_width: 3648
datetaken: 2011-11-28 12:59:58
dateupload: 1322857104
tags: windmill denmark decay ruin danmark vindm?lle hadsten galten nrgalten n?rregalten
license: 0
latitude: 56.350262
longitude: 10.056599
accuracy: 16
views: 2
interestingness: 125 out of 49

photo: 6437120237 d759b2b4bd 7034
owner: 68044702@N06
title: 54
originalsecret: null
originalformat: null
o_height: null
o_width: null
datetaken: 2011-03-20 11:38:45
dateupload: 1322760127
tags: uk london station st architecture hotel pancras renaissance stpancreas canon550d
license: 0
latitude: 51.529571
longitude: -0.125731
accuracy: 16
views: 21
interestingness: 126 out of 49

photo: 6471585981 dbb44003cb 7017
owner: 8815585@N03
title: something went awry
originalsecret: 00e5279fa7
originalformat: jpg
o_height: 473
o_width: 650
datetaken: 2011-12-07 09:10:50
dateupload: 1323267050
tags: florida miamibeach southflorida digitalholga plasticsurgeryfail
license: 0
latitude: 25.792317
longitude: -80.139083
accuracy: 11
views: 16
interestingness: 127 out of 49

photo: 6459457081 5afaa687fc 7031
owner: 51048079@N00
title: Forest Adventure Obstacle Course
originalsecret: ebe33f1faf
originalformat: jpg
o_height: 4000
o_width: 6000
datetaken: 2011-12-03 18:59:13
dateupload: 1323090758
tags: kid singapore child course event obstacle tampines tampinesmall forestadventureobstaclecourse
license: 3
latitude: 1.3526
longitude: 103.944533
accuracy: 16
views: 11
interestingness: 128 out of 49

photo: 6442338203 e19d6bf51f 7174
owner: 33734254@N03
title: Kafue Flats Lechwe
originalsecret: null
originalformat: null
o_height: null
o_width: null
datetaken: 2011-12-02 17:10:58
dateupload: 1322845858
tags: england bw animal zoo cornwall newquay flats lechwe kafue
license: 0
latitude: 50.419675
longitude: -5.07019
accuracy: 11
views: 6
interestingness: 129 out of 49

photo: 6467429161 1fb3381702 7008
owner: 19179765@N02
title: Jacaranda Library's Friday Film Fail Registration Form
originalsecret: null
originalformat: null
o_height: null
o_width: null
datetaken: 2011-12-06 14:29:43
dateupload: 1323199783
tags: venice florida library teens publiclibrary sarasotacounty sarasotacountylibraries jacarandalibrary
license: 0
latitude: 27.055418
longitude: -82.393426
accuracy: 14
views: 3
interestingness: 130 out of 49

photo: 6454415267 5f14d6cd4e 7024
owner: 62424671@N03
title: Old Glory Molly Dancers
originalsecret: cac43ea67a
originalformat: jpg
o_height: 1488
o_width: 2240
datetaken: 2011-12-04 15:18:14
dateupload: 1323026207
tags: musicians suffolk market christmasmarket eastanglia oldglory bungay mollydancers
license: 0
latitude: 52.456568
longitude: 1.436285
accuracy: 16
views: 3
interestingness: 131 out of 49

photo: 6454408799 9851a30aa6 7173
owner: 62424671@N03
title: Old Glory Molly Dancers
originalsecret: 6bea408ef1
originalformat: jpg
o_height: 2240
o_width: 1488
datetaken: 2011-12-04 15:11:19
dateupload: 1323026144
tags: musicians suffolk market christmasmarket eastanglia oldglory bungay mollydancers
license: 0
latitude: 52.456581
longitude: 1.436263
accuracy: 16
views: 2
interestingness: 132 out of 49

photo: 6454391573 0ceea0bf96 7174
owner: 62424671@N03
title: Old Glory Molly Dancers
originalsecret: 1cd487df94
originalformat: jpg
o_height: 1394
o_width: 2098
datetaken: 2011-12-04 15:19:40
dateupload: 1323025969
tags: musicians suffolk market christmasmarket eastanglia oldglory bungay mollydancers
license: 0
latitude: 52.456581
longitude: 1.436371
accuracy: 16
views: 2
interestingness: 133 out of 49

photo: 6454389513 e9bfb44314 7005
owner: 62424671@N03
title: Old Glory Molly Dancers
originalsecret: a523f43d97
originalformat: jpg
o_height: 1488
o_width: 2240
datetaken: 2011-12-04 15:17:49
dateupload: 1323025950
tags: musicians suffolk market christmasmarket eastanglia oldglory bungay mollydancers
license: 0
latitude: 52.45661
longitude: 1.436156
accuracy: 16
views: 0
interestingness: 134 out of 49

photo: 6454386585 2c7eaa15dd 7001
owner: 62424671@N03
title: Old Glory Molly Dancers
originalsecret: f220a1641a
originalformat: jpg
o_height: 1488
o_width: 2240
datetaken: 2011-12-04 15:17:43
dateupload: 1323025920
tags: musicians suffolk market christmasmarket eastanglia oldglory bungay mollydancers
license: 0
latitude: 52.456601
longitude: 1.436328
accuracy: 16
views: 1
interestingness: 135 out of 49

photo: 6454384073 178ac467f7 7028
owner: 62424671@N03
title: Old Glory Molly Dancers
originalsecret: c63444eb50
originalformat: jpg
o_height: 1488
o_width: 2240
datetaken: 2011-12-04 15:17:38
dateupload: 1323025897
tags: musicians suffolk market christmasmarket eastanglia oldglory bungay mollydancers
license: 0
latitude: 52.456571
longitude: 1.436392
accuracy: 16
views: 0
interestingness: 136 out of 49

photo: 6454378007 bfd041e430 7167
owner: 62424671@N03
title: Old Glory Molly Dancers - the Musicians
originalsecret: b54af45d13
originalformat: jpg
o_height: 1488
o_width: 2240
datetaken: 2011-12-04 15:13:52
dateupload: 1323025837
tags: musicians suffolk market christmasmarket eastanglia oldglory bungay mollydancers
license: 0
latitude: 52.456623
longitude: 1.43621
accuracy: 16
views: 1
interestingness: 137 out of 49

photo: 6454374777 6df537fac0 7165
owner: 62424671@N03
title: Old Glory Molly Dancers
originalsecret: 078d3cf07d
originalformat: jpg
o_height: 2240
o_width: 1488
datetaken: 2011-12-04 15:12:53
dateupload: 1323025806
tags: musicians suffolk market christmasmarket eastanglia oldglory bungay mollydancers
license: 0
latitude: 52.456587
longitude: 1.436199
accuracy: 16
views: 0
interestingness: 138 out of 49

photo: 6452799049 7473560739 7165
owner: 16054928@N07
title: Notocactus magnificus 3
originalsecret: 80d0db3dfa
originalformat: jpg
o_height: 1000
o_width: 1056
datetaken: 2010-08-12 08:38:01
dateupload: 1323009388
tags: cactus flower notocactusmagnificus
license: 0
latitude: 50.737568
longitude: -1.883897
accuracy: 13
views: 10
interestingness: 139 out of 49

photo: 6442232467 8afdd075bb 7025
owner: 33734254@N03
title: Kafue Flats Lechwe
originalsecret: null
originalformat: null
o_height: null
o_width: null
datetaken: 2011-12-02 16:47:26
dateupload: 1322844446
tags: england animal zoo cornwall newquay flats lechwe kafue
license: 0
latitude: 50.419565
longitude: -5.07122
accuracy: 11
views: 10
interestingness: 140 out of 49

photo: 6441256447 b4a8343dc4 7019
owner: 44488903@N00
title: IMG_7397
originalsecret: d8f27af2ef
originalformat: jpg
o_height: 2304
o_width: 3456
datetaken: 2011-11-12 12:34:33
dateupload: 1322829840
tags: nationalpark texas desert canyon geology arroyo bigbend devilsden
license: 3
latitude: 29.607413
longitude: -103.114623
accuracy: 16
views: 9
interestingness: 141 out of 49

photo: 6481009373 67276831b7 7010
owner: 23471159@N06
title: La nuova app di #twitter si perde la gestione liste e la verifica del #following da parte di un contatto. Non male un bel #fail due fondamentali funzioni perse in un sol colpo. Per? la grafica ? molto pi? bella e fluida di prima, Sapevatelo!
originalsecret: ff6e855bab
originalformat: jpg
o_height: 612
o_width: 612
datetaken: 2011-12-09 10:22:45
dateupload: 1323422565
tags: square squareformat sutro iphoneography instagramapp uploaded:by=instagram foursquare:venue=4cfb9e1734c1a093720f470e
license: 1
latitude: 46.316094
longitude: 10.860639
accuracy: 16
views: 0
interestingness: 142 out of 49

photo: 6471336431 7163888e60 7163
owner: 9167196@N07
title: James Madison Keck
originalsecret: b5327f57ea
originalformat: jpg
o_height: 2597
o_width: 1915
datetaken: 2011-12-07 03:44:41
dateupload: 1323263232
tags: pennsylvania union photograph obituary civilwarveteran companya105thpennsylvaniainfantry jamesmadisonkeck
license: 6
latitude: 37.440621
longitude: -95.687141
accuracy: 15
views: 16
interestingness: 143 out of 49

photo: 6462494007 8bd3bf0a2e 7028
owner: 26395922@N00
title: Trinity Coulmn
originalsecret: null
originalformat: null
o_height: null
o_width: null
datetaken: 2011-09-10 11:51:39
dateupload: 1323125677
tags: d50 austria baroque mainsquare hauptplatz trinitycolumn badebbeiwien
license: 0
latitude: 48.007625
longitude: 16.234316
accuracy: 16
views: 5
interestingness: 144 out of 49

photo: 6451233361 a14754cccb 7167
owner: 36284883@N00
title: Lights On A Gurdwara Dome
originalsecret: null
originalformat: null
o_height: null
o_width: null
datetaken: 2011-11-10 18:46:52
dateupload: 1322984025
tags: gurdwara dslr gurudwara picnik chandigarh gurpurb nexgetset
license: 0
latitude: 30.742462
longitude: 76.794755
accuracy: 16
views: 5
interestingness: 145 out of 49

photo: 6449642781 0a10d1d949 7016
owner: 66428466@N00
title: 
originalsecret: 57c94d3363
originalformat: jpg
o_height: 2448
o_width: 3264
datetaken: 2011-12-03 15:00:38
dateupload: 1322959456
tags: 
license: 0
latitude: 41.966167
longitude: -87.6915
accuracy: 16
views: 11
interestingness: 146 out of 49

photo: 6446262333 48a808e78a 7150
owner: 51265696@N03
title: IMG_3779copy2
originalsecret: 37c34b565e
originalformat: jpg
o_height: 2736
o_width: 4251
datetaken: 2011-12-02 13:22:18
dateupload: 1322914599
tags: wcml
license: 0
latitude: 51.938656
longitude: -0.694885
accuracy: 11
views: 14
interestingness: 147 out of 49

photo: 6463611471 07c7b1b116 7034
owner: 51035555243@N01
title: Monkey Got Your Tongue
originalsecret: a43e6a8858
originalformat: jpg
o_height: 2912
o_width: 2912
datetaken: 2008-06-19 21:49:58
dateupload: 1323140490
tags: monkey restaurant eastbay emeryville cantfailcafe rudyscantfailcafe
license: 2
latitude: 37.830405
longitude: -122.28532
accuracy: 16
views: 38
interestingness: 148 out of 49

photo: 6445361261 999f06c01f 7024
owner: 66142667@N00
title: Seattle and area during SC11
originalsecret: 96121f679b
originalformat: jpg
o_height: 960
o_width: 1280
datetaken: 2011-11-18 02:27:27
dateupload: 1322894375
tags: seattle washington spaceneedle exclusive fail sc11
license: 4
latitude: 47.620527
longitude: -122.34932
accuracy: 16
views: 2
interestingness: 149 out of 49

photo: 6445346537 3e4c70eee7 7005
owner: 66142667@N00
title: Seattle and area during SC11
originalsecret: 62d94df736
originalformat: jpg
o_height: 960
o_width: 1280
datetaken: 2011-11-17 22:30:46
dateupload: 1322894027
tags: seattle washington sad exclusive fail sc11
license: 4
latitude: 47.61171
longitude: -122.332398
accuracy: 16
views: 2
interestingness: 150 out of 49

photo: 6438464631 df3d195803 7027
owner: 92418454@N00
title: LOVE, failed
originalsecret: null
originalformat: null
o_height: null
o_width: null
datetaken: 2011-12-01 17:18:26
dateupload: 1322777906
tags: square toaster squareformat iphoneography instagramapp uploaded:by=instagram
license: 0
latitude: 40.69469
longitude: -73.99371
accuracy: 16
views: 0
interestingness: 151 out of 49

photo: 6462929441 7f91ef0fa0 7168
owner: 36524915@N05
title: Advice 2 AM
originalsecret: null
originalformat: null
o_height: null
o_width: null
datetaken: 2011-12-06 08:30:12
dateupload: 1323131449
tags: africa school strange sex mom death weird newspaper am crazy education funny dad african mommy father mother evil rape wrong headline headlines dating advice disturbing uganda wtf straight sick twisted abuse tabloid members advise fail incest straighttalk girlsschool harassment kasese funnyenglish funnyafrica textbookcover advicecolumn kilembe trueboy kilembevalley
license: 0
latitude: 0.20135
longitude: 30.017539
accuracy: 11
views: 26
interestingness: 152 out of 49

photo: 6454675645 90270b99b7 7022
owner: 10426926@N02
title: Hash Browns @ Waffle Square
originalsecret: 45b0b21b3e
originalformat: jpg
o_height: 5184
o_width: 3456
datetaken: 2011-12-04 08:37:43
dateupload: 1323028772
tags: hashbrowns wafflesquare foodspotting foodspotting:place=299904 foodspotting:review=1101723
license: 0
latitude: 38.746872
longitude: -121.271787
accuracy: 16
views: 0
interestingness: 153 out of 49

photo: 6454098595 f3281bcbb3 7164
owner: 26395922@N00
title: West Station Facade
originalsecret: null
originalformat: null
o_height: null
o_width: null
datetaken: 2011-09-09 13:55:56
dateupload: 1323022930
tags: d50 hungary budapest nyugatip?lyaudvar westrailwaystation
license: 0
latitude: 47.510309
longitude: 19.05658
accuracy: 16
views: 6
interestingness: 154 out of 49

photo: 6453628797 67121163eb 7014
owner: 75745103@N00
title: OUT OF\r\ORDER
originalsecret: null
originalformat: null
o_height: null
o_width: null
datetaken: 2011-11-30 17:13:06
dateupload: 1323018187
tags: sign parking machine formatting fail
license: 0
latitude: 51.319446
longitude: -0.740518
accuracy: 16
views: 16
interestingness: 155 out of 49

photo: 6451685545 a4ccc0b3c9 7141
owner: 30055226@N08
title: Cannon by Canon 20
originalsecret: null
originalformat: null
o_height: null
o_width: null
datetaken: 2011-11-09 13:36:52
dateupload: 1322992814
tags: gun australia cannon canberra australianwarmemorial
license: 0
latitude: -35.279784
longitude: 149.148674
accuracy: 13
views: 0
interestingness: 156 out of 49

photo: 6435180819 9ed8606884 7011
owner: 35034347485@N01
title: Rudy's Can't Fail Cafe
originalsecret: 54f8c5f967
originalformat: jpg
o_height: 1536
o_width: 1536
datetaken: 2011-11-29 22:57:40
dateupload: 1322725092
tags: oakland uptown telegraphavenue rudyscantfailcafe rcfc
license: 6
latitude: 37.807561
longitude: -122.270217
accuracy: 16
views: 2
interestingness: 157 out of 49

photo: 6435026457 7eb6df49b9 7163
owner: 72934342@N00
title: sacred geometry
originalsecret: 364b9d86c6
originalformat: jpg
o_height: 2048
o_width: 3072
datetaken: 2011-07-09 13:45:28
dateupload: 1322721693
tags: church architecture washingtondc lookingup washingtonnationalcathedral
license: 1
latitude: 38.931175
longitude: -77.070862
accuracy: 16
views: 14
interestingness: 158 out of 49

photo: 6469187061 fa000a3e64 7009
owner: 63175942@N00
title: Foot pedal label
originalsecret: 854d1a7a4f
originalformat: jpg
o_height: 1332
o_width: 2535
datetaken: 2011-12-06 20:57:04
dateupload: 1323223216
tags: controls weaver footpedal 35mmprojector
license: 1
latitude: 42.279833
longitude: -83.7415
accuracy: 16
views: 2
interestingness: 159 out of 49

photo: 6460884403 efed062edb 7012
owner: 43288221@N03
title: IMG_2282
originalsecret: 300f70b42e
originalformat: jpg
o_height: 2432
o_width: 4320
datetaken: 2011-12-03 15:07:55
dateupload: 1323107483
tags: 
license: 0
latitude: 39.89207
longitude: -75.234985
accuracy: 15
views: 50
interestingness: 160 out of 49

photo: 6453515021 6ec68a4c27 7166
owner: 70943797@N02
title: 2011 12 04 little house
originalsecret: null
originalformat: null
o_height: null
o_width: null
datetaken: 2011-12-04 11:52:16
dateupload: 1323017037
tags: nantes litlehouse ruedesdervalli?res folieschaillou
license: 0
latitude: 47.220981
longitude: -1.576173
accuracy: 14
views: 4
interestingness: 161 out of 49

photo: 6447249677 a241841f84 7028
owner: 51843931@N07
title: Goldikova - 2011 BC Mile
originalsecret: 4a61057f83
originalformat: jpg
o_height: 2477
o_width: 4272
datetaken: 2011-11-05 18:17:27
dateupload: 1322929184
tags: horseracing churchilldowns thoroughbred breederscup
license: 0
latitude: 38.203638
longitude: -85.770993
accuracy: 14
views: 2
interestingness: 162 out of 49

photo: 6443938615 43ed8f375d 7031
owner: 12273918@N04
title: When words fail, the guitar speaks...
originalsecret: null
originalformat: null
o_height: null
o_width: null
datetaken: 2011-12-03 00:26:16
dateupload: 1322868521
tags: composition guitar barrel blackandwhiteonly
license: 0
latitude: 45.735801
longitude: 11.861789
accuracy: 3
views: 34
interestingness: 163 out of 49

photo: 6438408293 2b6a25ff61 7031
owner: 24141292@N02
title: Failing North East Corner, Pershore Abbey
originalsecret: 6fb54ea6ab
originalformat: jpg
o_height: 2272
o_width: 1704
datetaken: 2011-11-24 00:00:01
dateupload: 1322777143
tags: church abbey worcestershire pershore
license: 0
latitude: 52.110491
longitude: -2.078186
accuracy: 16
views: 10
interestingness: 164 out of 49

photo: 6434631963 40cf529f0a 7166
owner: 95071949@N00
title: Failed Handstand
originalsecret: 15c500b78f
originalformat: jpg
o_height: 800
o_width: 647
datetaken: 2011-11-25 12:34:04
dateupload: 1322714315
tags: peru machupicchu headstand
license: 1
latitude: -8.811966
longitude: -74.726257
accuracy: 12
views: 5
interestingness: 165 out of 49

photo: 6474137065 0ef2f187fd 7152
owner: 24141292@N02
title: Old & New Churches, Ticknall
originalsecret: dc0f25dbf8
originalformat: jpg
o_height: 1704
o_width: 2272
datetaken: 2011-06-03 00:00:06
dateupload: 1323301692
tags: church derbyshire ticknall
license: 0
latitude: 52.812969
longitude: -1.480343
accuracy: 15
views: 4
interestingness: 166 out of 49

photo: 6474135215 c3032620e1 7144
owner: 24141292@N02
title: Steeple, Ticknall
originalsecret: c60ef9e32d
originalformat: jpg
o_height: 2272
o_width: 1704
datetaken: 2011-06-03 00:00:04
dateupload: 1323301661
tags: church derbyshire ticknall
license: 0
latitude: 52.812969
longitude: -1.480343
accuracy: 15
views: 4
interestingness: 167 out of 49

photo: 6474134331 d07e3b2c4a 7034
owner: 24141292@N02
title: St George's, Ticknall
originalsecret: 28a332e3c7
originalformat: jpg
o_height: 2272
o_width: 1704
datetaken: 2011-06-03 00:00:03
dateupload: 1323301646
tags: church derbyshire ticknall
license: 0
latitude: 52.812969
longitude: -1.480343
accuracy: 15
views: 5
interestingness: 168 out of 49

photo: 6474132583 e60bcb36f3 7157
owner: 24141292@N02
title: St George's, Ticknall
originalsecret: dd7ca707e5
originalformat: jpg
o_height: 2272
o_width: 1704
datetaken: 2011-06-03 00:00:01
dateupload: 1323301615
tags: church derbyshire ticknall
license: 0
latitude: 52.812969
longitude: -1.480343
accuracy: 15
views: 3
interestingness: 169 out of 49

photo: 6474131679 9b9b1c2092 7012
owner: 24141292@N02
title: New & Old Churches, Ticknall
originalsecret: cb5bf46b29
originalformat: jpg
o_height: 1704
o_width: 2272
datetaken: 2011-06-03 00:00:00
dateupload: 1323301600
tags: church derbyshire ticknall
license: 0
latitude: 52.812969
longitude: -1.480343
accuracy: 15
views: 3
interestingness: 170 out of 49

photo: 6469955011 373582f3de 7026
owner: 19451080@N00
title: Mauna Kea
originalsecret: e9b5c625fa
originalformat: jpg
o_height: 3240
o_width: 4320
datetaken: 2011-12-04 09:33:46
dateupload: 1323234737
tags: usa hawaii thebigisland
license: 4
latitude: 19.748609
longitude: -155.497741
accuracy: 8
views: 4
interestingness: 171 out of 49

photo: 6461521215 54d1781148 7022
owner: 55803440@N08
title: APT
originalsecret: null
originalformat: null
o_height: null
o_width: null
datetaken: 2011-12-05 19:30:28
dateupload: 1323114568
tags: 
license: 0
latitude: 54.630268
longitude: -1.64538
accuracy: 11
views: 10
interestingness: 172 out of 49

photo: 6450447557 4a3a42077d 7169
owner: 30683917@N07
title: Chase 3
originalsecret: e0136934ae
originalformat: jpg
o_height: 2274
o_width: 3183
datetaken: 2011-12-03 13:54:01
dateupload: 1322970953
tags: eagle conowingo 2011
license: 1
latitude: 39.654407
longitude: -76.172933
accuracy: 14
views: 14
interestingness: 173 out of 49

photo: 6438466039 cf0e4014f8 7007
owner: 66964988@N03
title: Dramatic Shadow Blue Lit Portrait
originalsecret: null
originalformat: null
o_height: null
o_width: null
datetaken: 2011-12-01 12:42:45
dateupload: 1322777925
tags: blue shadow silhouette dark square pearls cleavage bsquare
license: 0
latitude: 39.251131
longitude: -76.617107
accuracy: 11
views: 33
interestingness: 174 out of 49

photo: 6477451277 3f0eeedd21 7149
owner: 38869431@N00
title: Skype + headphone fails. And fashion fail.
originalsecret: 407d509bf6
originalformat: jpg
o_height: 960
o_width: 1280
datetaken: 2011-12-07 13:34:25
dateupload: 1323362379
tags: sonin juhan
license: 4
latitude: 42.416166
longitude: -71.154167
accuracy: 16
views: 3
interestingness: 175 out of 49

photo: 6476846775 97d75b8e8e 7162
owner: 16058170@N07
title: N40SZ SF.340A (msn 340A-040)
originalsecret: 7666c7c3bb
originalformat: jpg
o_height: 681
o_width: 1024
datetaken: 2005-06-04 17:29:33
dateupload: 1323353647
tags: kiad washingtondulles
license: 0
latitude: 38.947
longitude: -77.46
accuracy: 16
views: 0
interestingness: 176 out of 49

photo: 6464196493 773e4f27dc 7146
owner: 7336367@N02
title: Mission to get cheese sandwich with @pemullen failed. They were closed.
originalsecret: null
originalformat: null
o_height: null
o_width: null
datetaken: 2011-12-05 21:17:45
dateupload: 1323148665
tags: picplz foursquare:venue=4e4566b4d164155c0dd6e52e
license: 0
latitude: 37.787414
longitude: -122.400421
accuracy: 16
views: 2
interestingness: 177 out of 49

photo: 6462544319 ed1e35ff9c 7146
owner: 50576141@N03
title: 96-120 EPS/Eurostar Class 37s at Clapham Junction
originalsecret: c2c636b607
originalformat: jpg
o_height: 1296
o_width: 2000
datetaken: 2011-12-05 23:06:27
dateupload: 1323126387
tags: claphamjunction class37
license: 6
latitude: 51.463405
longitude: -0.169987
accuracy: 14
views: 42
interestingness: 178 out of 49

photo: 6462510975 633696efec 7146
owner: 56321543@N00
title: Si el piso se mueve FAIL @chilefail
originalsecret: null
originalformat: null
o_height: null
o_width: null
datetaken: 2011-12-05 19:54:30
dateupload: 1323125904
tags: letreros fail
license: 0
latitude: -20.206334
longitude: -70.136334
accuracy: 16
views: 11
interestingness: 179 out of 49

photo: 6461621745 8824956cfb 7141
owner: 50576141@N03
title: 96-114 Andrew Barclay Diesel Mechanical 0-4-0 No. 15 at Isfield
originalsecret: 270088d1e0
originalformat: jpg
o_height: 1680
o_width: 2592
datetaken: 2011-12-05 20:07:35
dateupload: 1323115655
tags: isfield lavenderline
license: 6
latitude: 50.941393
longitude: 0.061368
accuracy: 13
views: 5
interestingness: 180 out of 49

photo: 6463404075 612d910eef 7150
owner: 77945684@N00
title: Failing Grades
originalsecret: 41f1b5f6df
originalformat: jpg
o_height: 2581
o_width: 3442
datetaken: 2011-12-04 20:15:51
dateupload: 1323137871
tags: crack2011dec
license: 2
latitude: 38.917147
longitude: -77.022722
accuracy: 16
views: 35
interestingness: 181 out of 49

photo: 6451539127 d75f804055 7156
owner: 25141936@N02
title: 2011-11-12 Suzhou Shi Zi Lin. The name of this Garden Shi Zi Lin coming from this famous stone - Nine lovely lions hiden inside. Can you find all of them. I tried and failed
originalsecret: null
originalformat: null
o_height: null
o_width: null
datetaken: 2011-11-12 15:36:41
dateupload: 1322990040
tags: suzhou
license: 0
latitude: 31.302608
longitude: 120.625076
accuracy: 9
views: 1
interestingness: 182 out of 49

photo: 6449035891 0a44d12956 7145
owner: 60751522@N04
title: 99% too big to fail
originalsecret: null
originalformat: null
o_height: null
o_width: null
datetaken: 2011-12-02 20:48:31
dateupload: 1322951212
tags: 
license: 0
latitude: 37.79839
longitude: -122.397437
accuracy: 13
views: 12
interestingness: 183 out of 49

photo: 6473604645 c5ab2265b4 7166
owner: 60874949@N07
title: Class122 and 47428
originalsecret: 07e48c2967
originalformat: jpg
o_height: 1031
o_width: 1466
datetaken: 2011-12-06 20:44:26
dateupload: 1323293739
tags: 
license: 0
latitude: 55.951602
longitude: -3.193298
accuracy: 15
views: 0
interestingness: 184 out of 49

photo: 6464306307 99f753d133 7024
owner: 27302237@N00
title: &quot;Get in the Game&quot; Sticker Remains at Former Blockbuster Canada Co. Store
originalsecret: 8920d02aa2
originalformat: jpg
o_height: 1944
o_width: 2592
datetaken: 2011-12-05 10:54:33
dateupload: 1323150492
tags: 
license: 0
latitude: 52.114722
longitude: -106.634445
accuracy: 16
views: 8
interestingness: 185 out of 49

photo: 6461849071 e876caa7d2 7019
owner: 53510649@N06
title: Waiting on a Dart
originalsecret: 77d40f9344
originalformat: jpg
o_height: 3159
o_width: 4735
datetaken: 2011-12-03 18:26:30
dateupload: 1323118148
tags: 
license: 0
latitude: 53.347477
longitude: -6.248817
accuracy: 11
views: 4
interestingness: 186 out of 49

photo: 6457686237 ab770cd70e 7006
owner: 12577732@N03
title: Failed Shadow Puppets
originalsecret: fc8892a643
originalformat: jpg
o_height: 3264
o_width: 4928
datetaken: 2011-12-02 17:38:15
dateupload: 1323060380
tags: 
license: 1
latitude: 39.887907
longitude: -75.178048
accuracy: 16
views: 879
interestingness: 187 out of 49

photo: 6443388809 903273f7fa 7174
owner: 22879685@N02
title: Unsuccessful Transplant
originalsecret: d2904d27a4
originalformat: jpg
o_height: 2072
o_width: 2072
datetaken: 2011-12-01 09:16:51
dateupload: 1322860332
tags: 
license: 0
latitude: 37.437833
longitude: -79.162501
accuracy: 16
views: 3
interestingness: 188 out of 49

photo: 6438950311 86ebb81b73 7026
owner: 66335386@N02
title: 2008-07-21 South Rim Maher Point
originalsecret: a5c1b7983c
originalformat: jpg
o_height: 2592
o_width: 1728
datetaken: 2008-07-21 12:51:08
dateupload: 1322784868
tags: 
license: 0
latitude: 36.056523
longitude: -112.138051
accuracy: 13
views: 0
interestingness: 189 out of 49

photo: 6438186221 06eb2b509a 7158
owner: 51802421@N08
title: NSX Fail
originalsecret: 2dc78478e0
originalformat: jpg
o_height: 2448
o_width: 3264
datetaken: 2011-12-01 19:52:35
dateupload: 1322774297
tags: 
license: 0
latitude: 50.7485
longitude: -1.823667
accuracy: 16
views: 27
interestingness: 190 out of 49

photo: 6438179915 5f8ee0612c 7022
owner: 51802421@N08
title: NSX Fail
originalsecret: 2749c520a7
originalformat: jpg
o_height: 2448
o_width: 3264
datetaken: 2011-12-01 19:52:26
dateupload: 1322774223
tags: 
license: 0
latitude: 50.748333
longitude: -1.823667
accuracy: 16
views: 31
interestingness: 191 out of 49

photo: 6459286347 f38e60862c 7023
owner: 74153838@N00
title: pink peony, kashmir
originalsecret: null
originalformat: null
o_height: null
o_width: null
datetaken: 2011-05-15 17:10:15
dateupload: 1323088111
tags: pink india flower peony kashmir srinagar paeoniaceae paeoniaofficinalis roseaplena peonyfamily
license: 0
latitude: 34.118626
longitude: 74.808998
accuracy: 11
views: 11
interestingness: 192 out of 49

photo: 6474136103 64b26234b7 7029
owner: 24141292@N02
title: Church Ruin, Ticknall
originalsecret: 0a296f49ca
originalformat: jpg
o_height: 2272
o_width: 1704
datetaken: 2011-06-03 00:00:05
dateupload: 1323301676
tags: church derbyshire ruin ticknall
license: 0
latitude: 52.812969
longitude: -1.480343
accuracy: 15
views: 7
interestingness: 193 out of 49

photo: 6456871697 fe978a9f65 7026
owner: 43489439@N00
title: Demo fail
originalsecret: b179e331fd
originalformat: jpg
o_height: 2848
o_width: 4288
datetaken: 2011-12-04 12:31:44
dateupload: 1323051217
tags: london 2011 musichackday
license: 4
latitude: 51.519999
longitude: -0.094048
accuracy: 15
views: 16
interestingness: 194 out of 49

photo: 6457558669 27ce919f98 7149
owner: 43489439@N00
title: InstantMash demo fail
originalsecret: 35be587b76
originalformat: jpg
o_height: 2848
o_width: 4288
datetaken: 2011-12-04 13:19:38
dateupload: 1323058867
tags: london 2011 musichackday
license: 4
latitude: 51.519999
longitude: -0.094048
accuracy: 15
views: 16
interestingness: 195 out of 49

photo: 6461966507 679258d180 7143
owner: 22224184@N00
title: Sisters
originalsecret: 62101743ae
originalformat: jpg
o_height: 2304
o_width: 3072
datetaken: 2011-11-05 13:47:24
dateupload: 1323119430
tags: florida mary carol tarponsprings
license: 0
latitude: 28.15498
longitude: -82.760594
accuracy: 16
views: 6
interestingness: 196 out of 49

photo: 6454403481 12e0f867d5 7003
owner: 62424671@N03
title: Old Glory Molly Dancers
originalsecret: e86458a4fd
originalformat: jpg
o_height: 1488
o_width: 2240
datetaken: 2011-12-04 15:09:50
dateupload: 1323026091
tags: musicians suffolk market christmasmarket eastanglia oldglory bungay mollydancers
license: 0
latitude: 52.456502
longitude: 1.436671
accuracy: 16
views: 4
interestingness: 197 out of 49

photo: 6465518551 1a20543c34 7166
owner: 28315618@N05
title: #fail stamp
originalsecret: dd7ca7bbe9
originalformat: jpg
o_height: 612
o_width: 612
datetaken: 2011-12-06 12:34:19
dateupload: 1323174859
tags: square squareformat earlybird iphoneography instagramapp uploaded:by=instagram foursquare:venue=4b7bf8a3f964a52068762fe3
license: 0
latitude: 51.522402
longitude: -0.103254
accuracy: 16
views: 2
interestingness: 198 out of 49

photo: 6452343455 53f280b31a 7008
owner: 48889054224@N01
title: Parenting #fail no. 27: Coloring pencils in bed
originalsecret: null
originalformat: null
o_height: null
o_width: null
datetaken: 2011-12-04 20:59:26
dateupload: 1323003566
tags: square squareformat iphoneography instagramapp xproii uploaded:by=instagram foursquare:venue=4d26c849068e8cfa8015b44c
license: 1
latitude: -8.524358
longitude: 115.256026
accuracy: 16
views: 2
interestingness: 199 out of 49

photo: 6453357475 eb180218a9 7027
owner: 40305917@N00
title: Pea Fails As Flight Director
originalsecret: 3bbc693b14
originalformat: jpg
o_height: 3650
o_width: 5475
datetaken: 2011-11-23 21:20:46
dateupload: 1323015411
tags: usa museum america dc washington airandspacemuseum
license: 1
latitude: 38.888343
longitude: -77.019696
accuracy: 14
views: 3
interestingness: 200 out of 49

photo: 6451065039 1ab5dbaeed 7023
owner: 56619626@N05
title: 1993 section, 9/11 Memorial
originalsecret: e411861b63
originalformat: jpg
o_height: 928
o_width: 1600
datetaken: 2011-10-31 17:01:04
dateupload: 1322980960
tags: newyork manhattan worldtradecenter 911memorial 2011
license: 5
latitude: 40.712496
longitude: -74.013519
accuracy: 12
views: 8
interestingness: 201 out of 49

photo: 6474133505 8a4c3d2df6 7017
owner: 24141292@N02
title: Interior Glimpse, St George's, Ticknall
originalsecret: a8eeac8616
originalformat: jpg
o_height: 1643
o_width: 2191
datetaken: 2011-06-03 00:00:02
dateupload: 1323301630
tags: church derbyshire ticknall
license: 0
latitude: 52.812969
longitude: -1.480343
accuracy: 15
views: 3
interestingness: 202 out of 49

Total images queried: 49
