
mintime: 1322697600 maxtime: 1322803772.58
numimgs: 243
total pages: 1
visiting only 1 pages ( up to 250 images)
photo: 6435951557 63e569d8b7 7163
owner: 21608855@N03
title: I am a boy
originalsecret: 6806d7017c
originalformat: jpg
o_height: 3264
o_width: 2448
datetaken: 2011-11-19 21:50:32
dateupload: 1322742673
tags: old red party portrait fashion hair ginger tv cd mini skirt transgender mature tranny transvestite heels nylon trannie mtf m2f feminized enfemme xdresser tgurl transsisters julieb85
license: 0
latitude: 51.99765
longitude: -0.713274
accuracy: 15
views: 645
interestingness: 1 out of 243

photo: 6424079087 ba78b21977 7160
owner: 33062170@N08
title: iPod Shuffle2 - Because The Night
originalsecret: null
originalformat: null
o_height: null
o_width: null
datetaken: 2011-11-26 18:10:23
dateupload: 1322745900
tags: street camera uk winter portrait woman white girl smile fashion st lady female night dark hair manchester 50mm evening claire hands women focus soft dof bokeh box circles f14 coat teeth flash style smith off tony ring leopard blond shallow softbox tib hotpix tonysmith strobist bokehbokeh tonysmithhotpix
license: 0
latitude: 53.483251
longitude: -2.23583
accuracy: 15
views: 944
interestingness: 2 out of 243

photo: 6435501371 efdc43d7c7 7173
owner: 40220836@N03
title: Stefanie
originalsecret: null
originalformat: null
o_height: null
o_width: null
datetaken: 2011-11-12 13:50:10
dateupload: 1322732807
tags: portrait woman girl beauty face fashion model glamour photoshoot redhair stefanie nikond700 nikonafd85mmf14
license: 0
latitude: 52.292174
longitude: 5.64311
accuracy: 15
views: 383
interestingness: 3 out of 243

photo: 6438893541 ce0b5fc970 7004
owner: 41584113@N02
title: Call in Nottingham
originalsecret: null
originalformat: null
o_height: null
o_width: null
datetaken: 2011-11-23 02:38:34
dateupload: 1322784001
tags: street city nottingham people urban woman stockings fashion walking nikon path candid style tights skirt brunette tamron d7000 gjkerr
license: 0
latitude: 52.950499
longitude: -1.147613
accuracy: 11
views: 522
interestingness: 4 out of 243

photo: 6433997833 3b066c4e2c 7023
owner: 45397516@N06
title: 
originalsecret: null
originalformat: null
o_height: null
o_width: null
datetaken: 2011-09-28 14:30:53
dateupload: 1322705015
tags: street city nyc newyorkcity wild people blackandwhite bw usa ny newyork streets men strange fashion america portraits canon lost weird insane crazy interesting intense scary manhattan unique f14 united unitedstatesofamerica streetphotography sigma style eerie creepy odd confused deranged characters gothamist states scared awkward headshots newyorkers frightening 30mm nycpeople oddballs srh hazlett 60d stevenhazlett stevenrhazlett
license: 0
latitude: 40.867168
longitude: -73.922628
accuracy: 15
views: 206
interestingness: 5 out of 243

photo: 6435466013 7983d3f38c 7008
owner: 50061827@N00
title: Rough Night
originalsecret: null
originalformat: null
o_height: null
o_width: null
datetaken: 2011-12-01 03:32:12
dateupload: 1322731932
tags: red fashion dark model smoke grunge smoking alienbee girlsmoking canon5dmarkii nettieharris
license: 0
latitude: 32.95308
longitude: -96.730499
accuracy: 11
views: 614
interestingness: 6 out of 243

photo: 6435458057 4a35866e6f 7002
owner: 23156203@N08
title: Karina
originalsecret: eb11f315c4
originalformat: jpg
o_height: 1000
o_width: 1000
datetaken: 2011-12-01 12:29:02
dateupload: 1322731742
tags: girl beautiful fashion canon photo eyes women moscow amir ??????? ?????? 2011 kurbanov amirkurbanov
license: 5
latitude: 55.763343
longitude: 37.612552
accuracy: 13
views: 154
interestingness: 7 out of 243

photo: 6437256863 c4f9833985 7162
owner: 20906312@N05
title: En el Palacio
originalsecret: null
originalformat: null
o_height: null
o_width: null
datetaken: 2011-10-09 14:40:14
dateupload: 1322761883
tags: woman beauty fashion model palace alhambra carlosv charlesv
license: 0
latitude: 37.176609
longitude: -3.58979
accuracy: 13
views: 266
interestingness: 8 out of 243

photo: 6437153743 fcf1ceec8c 7010
owner: 40962351@N00
title: leopard leggins in cardiff
originalsecret: null
originalformat: null
o_height: null
o_width: null
datetaken: 2011-11-29 14:22:44
dateupload: 1322760559
tags: street portrait feet girl fashion lady female person beige funny legs pair cardiff cream human leopard matching leggins legins leopardlegins file:name=111129eos5d4459
license: 0
latitude: 51.479044
longitude: -3.178546
accuracy: 16
views: 511
interestingness: 9 out of 243

photo: 6435679471 5e19aa1215 7170
owner: 41584113@N02
title: Fitters of Nottingham
originalsecret: null
originalformat: null
o_height: null
o_width: null
datetaken: 2011-11-23 02:36:34
dateupload: 1322737080
tags: street city nottingham people urban woman stockings fashion walking nikon path candid style tights skirt brunette tamron d7000 gjkerr
license: 0
latitude: 52.951637
longitude: -1.147613
accuracy: 11
views: 380
interestingness: 10 out of 243

photo: 6435366393 0ee4f7b2f9 7029
owner: 22195068@N04
title: Series:  Jubilant Jaime
originalsecret: bfd3df6692
originalformat: jpg
o_height: 2888
o_width: 3850
datetaken: 2011-07-25 17:57:04
dateupload: 1322762641
tags: street portrait woman cute girl beautiful beauty smile fashion lady female pose asian model pretty chinese lifestyle style skirt linda belle em hermosa manis maganda cantik gadis ?? ??p cewek ???? xinh ????? ?????? g?i? ????? ?c?
license: 0
latitude: 22.293315
longitude: 114.169771
accuracy: 15
views: 901
interestingness: 11 out of 243

photo: 6435357265 493a57d605 7162
owner: 22195068@N04
title: Series:  Jubilant Jaime
originalsecret: 2a6212b7f0
originalformat: jpg
o_height: 3850
o_width: 2567
datetaken: 2011-07-25 17:54:20
dateupload: 1322762638
tags: street portrait woman cute girl beautiful beauty fashion lady female pose asian model pretty chinese lifestyle style skirt linda belle em hermosa manis maganda cantik gadis ?? ??p cewek ???? xinh ????? ?????? g?i? ????? ?c?
license: 0
latitude: 22.293315
longitude: 114.169771
accuracy: 15
views: 601
interestingness: 12 out of 243

photo: 6435346183 0276181c52 7013
owner: 22195068@N04
title: Series:  Jubilant Jaime
originalsecret: d66764044d
originalformat: jpg
o_height: 3500
o_width: 2333
datetaken: 2011-07-25 17:54:04
dateupload: 1322762632
tags: street portrait woman cute girl beautiful beauty smile fashion lady female pose asian model pretty chinese lifestyle style skirt linda belle em hermosa manis maganda cantik gadis ?? ??p cewek ???? xinh ????? ?????? g?i? ????? ?c?
license: 0
latitude: 22.293315
longitude: 114.169771
accuracy: 15
views: 505
interestingness: 13 out of 243

photo: 6439005149 77e1a9cdee 7034
owner: 41584113@N02
title: Sandy in Nottingham
originalsecret: null
originalformat: null
o_height: null
o_width: null
datetaken: 2011-11-23 02:43:21
dateupload: 1322785713
tags: street city nottingham people urban woman stockings fashion walking nikon path candid style tights skirt brunette tamron d7000 gjkerr
license: 0
latitude: 52.950396
longitude: -1.149673
accuracy: 11
views: 311
interestingness: 14 out of 243

photo: 6435327665 6d49cd1cf8 7159
owner: 22195068@N04
title: Series:  Jubilant Jaime
originalsecret: f0aea0bb78
originalformat: jpg
o_height: 2406
o_width: 3850
datetaken: 2011-07-25 17:56:35
dateupload: 1322728550
tags: asian chinese girl woman female lady em beauty beautiful pretty cute maganda cantik cewek gadis manis hermosa linda fashion style lifestyle model portrait pose street skirt smile ????? ????? ???? ?? ?c? g?i? xinh ??p ?????? belle
license: 0
latitude: 22.293315
longitude: 114.169771
accuracy: 15
views: 295
interestingness: 15 out of 243

photo: 6436420711 4219af27b7 7021
owner: 63778701@N03
title: Camino a la Pe?ita
originalsecret: 5b5cc0cf40
originalformat: jpg
o_height: 2848
o_width: 4272
datetaken: 2011-08-17 07:16:52
dateupload: 1322750536
tags: blancoynegro beauty fashion night walking noche drama dise?o belleza met?lico
license: 0
latitude: 25.955829
longitude: -100.165863
accuracy: 11
views: 95
interestingness: 16 out of 243

photo: 6435350265 45a6292b48 7004
owner: 22195068@N04
title: Series:  Jubilant Jaime
originalsecret: 29966bfc97
originalformat: jpg
o_height: 3500
o_width: 2626
datetaken: 2011-07-25 17:56:45
dateupload: 1322762635
tags: asian chinese girl woman female lady em beauty beautiful pretty cute maganda cantik cewek gadis manis hermosa linda fashion style lifestyle model portrait pose street ????? ????? ???? ?? ?c? g?i? xinh ??p ?????? belle
license: 0
latitude: 22.293315
longitude: 114.169771
accuracy: 15
views: 343
interestingness: 17 out of 243

photo: 6433512093 605e65114c 7145
owner: 41584113@N02
title: Inspired in Nottingham
originalsecret: null
originalformat: null
o_height: null
o_width: null
datetaken: 2011-11-23 00:54:23
dateupload: 1322697708
tags: street city nottingham people urban woman stockings girl fashion walking nikon path candid style tights skirt brunette tamron d7000 gjkerr
license: 0
latitude: 52.959289
longitude: -1.155509
accuracy: 11
views: 296
interestingness: 18 out of 243

photo: 6439349343 56444b2bb7 7014
owner: 50626444@N05
title: NX-Nardcotix Innocence Claude Retro'd & Riva Red Coat Dress by Nardya Rousselot
originalsecret: null
originalformat: null
o_height: null
o_width: null
datetaken: 2011-12-01 21:00:09
dateupload: 1322791270
tags: fashion events secondlife curio everglow fashism slfashion vintagefair nxnardcotix ortae
license: 0
latitude: 40.784293
longitude: -73.980431
accuracy: 16
views: 95
interestingness: 19 out of 243

photo: 6437814837 32f9ce008f 7166
owner: 32833276@N08
title: Tags fall winter 11/12
originalsecret: null
originalformat: null
o_height: null
o_width: null
datetaken: 2011-12-01 20:59:16
dateupload: 1322769556
tags: italy rome roma fashion glamour italia moda tags negozio linea catalogo lazio collezione terni lookbook abbigliamento wwwalessandromarinet www2photographersit
license: 0
latitude: 42.571655
longitude: 12.642766
accuracy: 15
views: 119
interestingness: 20 out of 243

photo: 6435341605 d34e8e86c5 7033
owner: 22195068@N04
title: Series:  Jubilant Jaime
originalsecret: 4eaa470471
originalformat: jpg
o_height: 3850
o_width: 2406
datetaken: 2011-07-25 17:52:53
dateupload: 1322762629
tags: street portrait woman cute girl beautiful beauty fashion lady female pose asian model pretty chinese lifestyle style skirt linda belle em hermosa manis maganda cantik gadis ?? ??p cewek ???? xinh ????? ?????? g?i? ????? ?c?
license: 0
latitude: 22.293315
longitude: 114.169771
accuracy: 15
views: 311
interestingness: 21 out of 243

photo: 6438272059 de00bc4dcb 7027
owner: 31846825@N04
title: Hat fashions at the Roney Plaza Hotel
originalsecret: 7715fe0799
originalformat: jpg
o_height: 775
o_width: 600
datetaken: 1939-01-06 13:36:49
dateupload: 1322775409
tags: fashion female florida hats hotels miamibeach roneyplazahotel statelibraryandarchivesofflorida
license: 7
latitude: 25.79309
longitude: -80.134902
accuracy: 11
views: 332
interestingness: 22 out of 243

photo: 6317521574 eb139ab278 6059
owner: 82047426@N00
title: Thai girl fashion - Part 5
originalsecret: 0a40c0e6bc
originalformat: jpg
o_height: 3866
o_width: 2898
datetaken: 2011-11-06 11:09:28
dateupload: 1322717990
tags: woman girl fashion canon bangkok femme thai 7d mode fille slippers thailande sukhumvit tonglor thailandaise canon135mmf2
license: 0
latitude: 13.724939
longitude: 100.577931
accuracy: 14
views: 230
interestingness: 23 out of 243

photo: 6439438147 9e4478473d 7145
owner: 33599008@N03
title: 336
originalsecret: null
originalformat: null
o_height: null
o_width: null
datetaken: 2011-12-01 20:31:37
dateupload: 1322793097
tags: holiday fashion mexico supermodel avatar moda modelo blogs zapatos avatars beaut? secondlife virtual second glam hautecouture fashionista couture belleza philo classy chelle holidayseason avatares tangles 2011 diktator themagazine heckroth papercouture secondlifefashion virtualfashion thaliaheckroth costaricasims fashioninsecondlife modaensecondlife trasognoerealta modanosecondlife
license: 0
latitude: 19.4319
longitude: -99.13285
accuracy: 11
views: 114
interestingness: 24 out of 243

photo: 6438978087 14243a490a 7031
owner: 26084125@N08
title: Kay Fairey ~ BOSL Christmas Greetings
originalsecret: null
originalformat: null
o_height: null
o_width: null
datetaken: 2011-11-13 22:21:00
dateupload: 1322785287
tags: christmas xmas bosl bestofsecondlife
license: 0
latitude: -31.900714
longitude: 115.775899
accuracy: 14
views: 70
interestingness: 25 out of 243

photo: 6434231917 c2ee4c9fac 7024
owner: 41304880@N05
title: The Night Is Not Over Yet
originalsecret: 368905db48
originalformat: jpg
o_height: 4288
o_width: 2848
datetaken: 2011-11-28 20:35:14
dateupload: 1322708449
tags: portrait girl fashion night model dress x100 nightonearth strobist
license: 0
latitude: 30.249762
longitude: -97.750082
accuracy: 16
views: 347
interestingness: 26 out of 243

photo: 6439359257 a033e15c05 7009
owner: 54350048@N02
title: Carlos Nass
originalsecret: null
originalformat: null
o_height: null
o_width: null
datetaken: 2011-06-25 14:16:32
dateupload: 1322791552
tags: portrait woman sexy valencia girl beauty fashion female studio mujer model glamour chica modeling retrato venezuela modelos carlos estudio modelo sensual retratos bella latina portfolio sensuality hermosa belleza joven fotografo holywood portafolio fotograf?a nass modelaje carabobo modelfashion nikond90 bestportraitsaoi elitegalleryaoi mygearandme carlosnass estudioimagenes estudioim?genes imagenass wwwcarlosnasscom estudioimagenass
license: 0
latitude: 10.201765
longitude: -67.997775
accuracy: 16
views: 462
interestingness: 27 out of 243

photo: 6440056769 c19af47568 7029
owner: 35645381@N02
title: Nothingness
originalsecret: null
originalformat: null
o_height: null
o_width: null
datetaken: 2011-12-02 12:22:54
dateupload: 1322803374
tags: girls fashion yellow nude photography highheel falling jeans rainy nothingness asiangirls
license: 0
latitude: 10.444597
longitude: 107.006835
accuracy: 3
views: 114
interestingness: 28 out of 243

photo: 6438000227 0f9d288fac 7152
owner: 49023748@N02
title: finding her roots (version 3)
originalsecret: 2567aaf7df
originalformat: jpg
o_height: 3445
o_width: 5167
datetaken: 2011-10-29 10:47:50
dateupload: 1322772020
tags: woman tree nature floral beautiful fashion contrast photoshop dark dress teen faded canon5d canon5dmarkii photoshopcs5
license: 0
latitude: 43.466171
longitude: -79.689582
accuracy: 11
views: 74
interestingness: 29 out of 243

photo: 6437375025 642f00c9a7 7026
owner: 29490425@N04
title: Cool Breeze (330/365)
originalsecret: null
originalformat: null
o_height: null
o_width: null
datetaken: 2011-12-01 12:10:19
dateupload: 1322763498
tags: street man black male fashion outdoors glasses dallas flash style shades jacket mens africanamerican project365
license: 0
latitude: 32.779048
longitude: -96.800193
accuracy: 11
views: 125
interestingness: 30 out of 243

photo: 6435300073 e845e7b41d 7014
owner: 42084014@N02
title: Stars and stripes
originalsecret: null
originalformat: null
o_height: null
o_width: null
datetaken: 2011-11-26 16:26:22
dateupload: 1322727861
tags: lighting portrait fashion studio stars model photoshoot amy stripes tights shorts strobist
license: 0
latitude: 51.458405
longitude: -1.056618
accuracy: 14
views: 189
interestingness: 31 out of 243

photo: 6437802219 0a7b859d04 7026
owner: 55724731@N08
title: Amor
originalsecret: null
originalformat: null
o_height: null
o_width: null
datetaken: 2011-11-21 22:55:40
dateupload: 1322769400
tags: staged stagedphotography line36 canoneos7d advertisementphotography inszeniertefotografie inszeniertes matthiasgrauwinkel grauwinkelphotography linie36 linie36bymatthiasgrauwinkel directoryphotography
license: 0
latitude: 52.499918
longitude: 13.303874
accuracy: 16
views: 56
interestingness: 32 out of 243

photo: 6436576429 a272e33c05 7171
owner: 46971645@N03
title: Making off
originalsecret: 09a4f26076
originalformat: jpg
o_height: 1200
o_width: 1800
datetaken: 2010-10-29 19:20:15
dateupload: 1322752820
tags: woman beauty fashion canon pose grey gris maria 1750 tamron camiseta realmadrid dodgeburn 50d
license: 6
latitude: 39.890441
longitude: -5.537509
accuracy: 11
views: 138
interestingness: 33 out of 243

photo: 6439990461 df784750e8 7035
owner: 66025415@N03
title: Model: Monreudy
originalsecret: fe9e03f84f
originalformat: jpg
o_height: 3408
o_width: 4168
datetaken: 2011-11-19 13:52:40
dateupload: 1322802149
tags: fashion model modeling rocker rockband
license: 0
latitude: 33.644349
longitude: -112.322845
accuracy: 11
views: 81
interestingness: 34 out of 243

photo: 6439122601 0534c6f493 7005
owner: 50626444@N05
title: VF - NX-Nardcotix Innocence Claude Kelp & Riva Teal Coat Dress by Nardya Rousselot
originalsecret: null
originalformat: null
o_height: null
o_width: null
datetaken: 2011-12-01 20:27:00
dateupload: 1322787567
tags: fashion events secondlife e league curio orta everglow fashism slfashion vintagefair nxnardcotix
license: 0
latitude: 40.784522
longitude: -73.980238
accuracy: 16
views: 52
interestingness: 35 out of 243

photo: 6438704849 1c009e2775 7033
owner: 50626444@N05
title: VF ~*INDIE ROSE*~ Vintage 40s Pencil Suit {Blue} by Angelina Eizenberg
originalsecret: null
originalformat: null
o_height: null
o_width: null
datetaken: 2011-12-01 18:11:27
dateupload: 1322781141
tags: fashion events secondlife e league ncore fleshtone mstyle fashism vintagefair ~indierose~ larahurley labelmotion everglowslfashion
license: 0
latitude: 40.784785
longitude: -73.980021
accuracy: 16
views: 46
interestingness: 36 out of 243

photo: 6438449551 e93e6883c2 7019
owner: 50626444@N05
title: VF - Izzie's - Lila Dress - black by Izzie Button
originalsecret: null
originalformat: null
o_height: null
o_width: null
datetaken: 2011-12-01 17:11:22
dateupload: 1322777707
tags: fashion events secondlife league izzies mstyle vintagefair vanityhair lagyo labelmotion larahurlley everglowslfashion
license: 0
latitude: 40.785024
longitude: -73.979729
accuracy: 16
views: 31
interestingness: 37 out of 243

photo: 6438796321 25f0811ee0 7146
owner: 11155634@N07
title: Paris - France
originalsecret: 1cf4bca420
originalformat: jpg
o_height: 1895
o_width: 2828
datetaken: 2010-09-07 08:28:34
dateupload: 1322782500
tags: paris france
license: 0
latitude: 48.856918
longitude: 2.341209
accuracy: 11
views: 70
interestingness: 38 out of 243

photo: 6439307735 4e20aed0c2 7161
owner: 88645555@N00
title: Attitude p6
originalsecret: null
originalformat: null
o_height: null
o_width: null
datetaken: 2011-12-01 22:49:50
dateupload: 1322790590
tags: blackandwhite man male faces young attitude session sesion andreheredia fashionandreheredia
license: 0
latitude: -33.431244
longitude: -70.592758
accuracy: 14
views: 32
interestingness: 39 out of 243

photo: 6438826511 bde46e3236 7020
owner: 50626444@N05
title: VF - Lara Hurley-Mary/Tan by Lara Hurley
originalsecret: null
originalformat: null
o_height: null
o_width: null
datetaken: 2011-12-01 18:42:11
dateupload: 1322782963
tags: fashion yummy skin events secondlife e fashism slfashion vintagefair ~indierose~ larahurley
license: 0
latitude: 40.784797
longitude: -73.980098
accuracy: 16
views: 44
interestingness: 40 out of 243

photo: 6435475833 aaccf10c3f 7025
owner: 32833276@N08
title: Tags fall winter 11/12
originalsecret: null
originalformat: null
o_height: null
o_width: null
datetaken: 2011-12-01 10:36:17
dateupload: 1322732177
tags: portrait italy rome roma fashion canon 50mm design glamour moda tags ritratto umbria catalogo lazio 135mm 2photographers terni abiti lookbook vestiti abbigliamento iyalia studiofotografico wwwalessandromarinet www2photographersit studiofotograficoterni
license: 0
latitude: 42.571655
longitude: 12.642766
accuracy: 15
views: 57
interestingness: 41 out of 243

photo: 6435315565 4a6ae5e2f2 7158
owner: 22195068@N04
title: Series:  Jubilant Jaime
originalsecret: 9a8b2c3986
originalformat: jpg
o_height: 3850
o_width: 2566
datetaken: 2011-07-25 17:51:02
dateupload: 1322728243
tags: street portrait woman cute girl beautiful beauty fashion lady female pose asian model pretty chinese lifestyle style skirt linda belle em hermosa manis maganda cantik gadis ?? ??p cewek ???? xinh ????? ?????? g?i? ????? ?c?
license: 0
latitude: 22.293315
longitude: 114.169771
accuracy: 15
views: 228
interestingness: 42 out of 243

photo: 6434696471 a5c9e1925e 7030
owner: 35870491@N02
title: I'm Walking Out that Door...
originalsecret: null
originalformat: null
o_height: null
o_width: null
datetaken: 2011-11-30 14:10:21
dateupload: 1322715332
tags: color feet shoes canvas splash ankles indiekids musicaddicts indiefashion mysexylegs retrofeel seattleeveryday portraitswithoutaface lovelifeandbeauty
license: 0
latitude: 47.601533
longitude: -122.336883
accuracy: 11
views: 75
interestingness: 43 out of 243

photo: 6439311849 c9d1d1517e 7012
owner: 88645555@N00
title: Attitude p3
originalsecret: null
originalformat: null
o_height: null
o_width: null
datetaken: 2011-12-01 22:51:00
dateupload: 1322790660
tags: blackandwhite man male faces young attitude session sesion andreheredia fashionandreheredia
license: 0
latitude: -33.431244
longitude: -70.592758
accuracy: 14
views: 54
interestingness: 44 out of 243

photo: 6434697217 70fa5814f1 7006
owner: 35870491@N02
title: What a Swanky Life
originalsecret: null
originalformat: null
o_height: null
o_width: null
datetaken: 2011-11-30 20:50:48
dateupload: 1322715345
tags: color feet collage shoes canvas splash ankles indiekids musicaddicts indiefashion mysexylegs retrofeel seattleeveryday portraitswithoutaface lovelifeandbeauty
license: 0
latitude: 47.601301
longitude: -122.33551
accuracy: 11
views: 94
interestingness: 45 out of 243

photo: 6438977647 b50de24359 7030
owner: 49431171@N00
title: VG3
originalsecret: null
originalformat: null
o_height: null
o_width: null
datetaken: 2011-11-28 21:32:03
dateupload: 1322785280
tags: fashion vintage fun model glamour nikon katy retro 1940s 1950s tamron banbury d5000
license: 0
latitude: 52.061178
longitude: -1.337767
accuracy: 16
views: 40
interestingness: 46 out of 243

photo: 6435476815 e7232edb9e 7147
owner: 55724731@N08
title: Achilles
originalsecret: null
originalformat: null
o_height: null
o_width: null
datetaken: 2011-11-05 09:02:41
dateupload: 1322732205
tags: staged stagedphotography line36 canoneos7d advertisementphotography inszeniertefotografie inszeniertes matthiasgrauwinkel grauwinkelphotography linie36 linie36bymatthiasgrauwinkel directoryphotography
license: 0
latitude: 52.516217
longitude: 13.376938
accuracy: 16
views: 38
interestingness: 47 out of 243

photo: 6435473621 46c35fa2d9 7158
owner: 32833276@N08
title: Tags fall winter 11/12
originalsecret: null
originalformat: null
o_height: null
o_width: null
datetaken: 2011-12-01 10:35:17
dateupload: 1322732117
tags: portrait italy rome roma fashion canon 50mm design glamour moda tags ritratto umbria catalogo lazio 135mm 2photographers terni abiti lookbook vestiti abbigliamento iyalia studiofotografico wwwalessandromarinet www2photographersit studiofotograficoterni
license: 0
latitude: 42.571655
longitude: 12.642766
accuracy: 15
views: 78
interestingness: 48 out of 243

photo: 6439991161 d262fe3b90 7026
owner: 66025415@N03
title: Model: Monreudy
originalsecret: ec0f8601ca
originalformat: jpg
o_height: 3000
o_width: 2000
datetaken: 2011-11-19 11:02:00
dateupload: 1322802164
tags: fashion model modeling rocker rockband
license: 0
latitude: 33.63861
longitude: -112.326942
accuracy: 11
views: 94
interestingness: 49 out of 243

photo: 6438573705 442ef98eb3 7173
owner: 50626444@N05
title: VF - Izzie's - Lila Dress - black by Izzie Button (close)
originalsecret: null
originalformat: null
o_height: null
o_width: null
datetaken: 2011-12-01 17:38:41
dateupload: 1322779301
tags: fashion events secondlife league everglow izzies fashism slfashion vintagefair vanityhair lagyo larahurley
license: 0
latitude: 40.784773
longitude: -73.980337
accuracy: 16
views: 23
interestingness: 50 out of 243

photo: 6437277207 38097d4615 7168
owner: 25877284@N04
title: Midnight in Montparnasse
originalsecret: null
originalformat: null
o_height: null
o_width: null
datetaken: 2011-11-20 18:07:38
dateupload: 1322762154
tags: pictures uk wedding portrait white black colour sexy london girl fashion lady studio photography book design high model women shoot photographer post image low creative event commercial agency subject retouch cheap retouching thebest expencive usman affordable ervin verygood fashionphotographer alltypes potrfolio photographerinlondon commercialphotographerinlondon ervinusmancom wwwervinusmancouk wwwervinusmancom ervinusman centrelondonstudio testshootportfoilo eventphotographerinlondon fashionphotographerinlondon portfoliophotographerinlondon catalogphotographerinlondon
license: 0
latitude: 51.519558
longitude: -0.098426
accuracy: 15
views: 80
interestingness: 51 out of 243

photo: 6439250111 3f2e2ed4a5 7164
owner: 50626444@N05
title: NX-Nardcotix Esther Vintage Pump - Red by Nardya Rousselot
originalsecret: null
originalformat: null
o_height: null
o_width: null
datetaken: 2011-12-01 20:26:19
dateupload: 1322789646
tags: fashion shoes secondlife slfashion vintagefair nxnardcotix
license: 0
latitude: 40.784358
longitude: -73.980352
accuracy: 16
views: 47
interestingness: 52 out of 243

photo: 6438303207 4a5f111802 7020
owner: 58824546@N08
title: Elena
originalsecret: null
originalformat: null
o_height: null
o_width: null
datetaken: 2011-11-17 17:55:18
dateupload: 1322775810
tags: girl fashion book dof bokeh
license: 0
latitude: 45.698631
longitude: 8.462459
accuracy: 11
views: 60
interestingness: 53 out of 243

photo: 6437553891 33691197a6 7026
owner: 49378954@N04
title: Fashion style
originalsecret: null
originalformat: null
o_height: null
o_width: null
datetaken: 2011-02-25 06:03:02
dateupload: 1322765987
tags: ??? ??????
license: 0
latitude: 24.154219
longitude: 47.30076
accuracy: 11
views: 127
interestingness: 54 out of 243

photo: 6434696875 17387f720c 7167
owner: 35870491@N02
title: Tongue Tied
originalsecret: null
originalformat: null
o_height: null
o_width: null
datetaken: 2011-11-30 19:51:55
dateupload: 1322715338
tags: selfportrait color feet fun lyrics shoes floor legs angles canvas splash dailyphoto ankles indiekids musicaddicts imemine indiefashion blipfoto mysexylegs retrofeel seattleeveryday showusyourbest portraitswithoutaface lovelifeandbeauty tonguetiedbygrouplove
license: 0
latitude: 47.601417
longitude: -122.334823
accuracy: 11
views: 97
interestingness: 55 out of 243

photo: 6434223685 02bda3f9f8 7032
owner: 49301380@N05
title: pink glove
originalsecret: 871d3d76e4
originalformat: jpg
o_height: 2064
o_width: 2580
datetaken: 2011-11-26 06:54:46
dateupload: 1322708316
tags: street uk travel portrait england people woman london fashion female person candid style tweed ralphlauren tweedrun vintagemafia tweedrun2011
license: 0
latitude: 51.51193
longitude: -0.123424
accuracy: 16
views: 45
interestingness: 56 out of 243

photo: 6433990687 1072fd4135 7151
owner: 54811937@N03
title: Ensaio ClickSP Paranapiacaba - Cindy Porto
originalsecret: null
originalformat: null
o_height: null
o_width: null
datetaken: 2011-11-20 14:28:53
dateupload: 1322704906
tags: white black cindy make up fashion branco brasil ensaio modelos may wb maquiagem pb preto porto sp paulo s?o paranapiacaba verena coletivo clicksp
license: 0
latitude: -23.776086
longitude: -46.302781
accuracy: 15
views: 43
interestingness: 57 out of 243

photo: 6437812561 3d684d766c 7154
owner: 32833276@N08
title: Tags fall winter 11/12
originalsecret: null
originalformat: null
o_height: null
o_width: null
datetaken: 2011-12-01 20:58:49
dateupload: 1322769529
tags: italy rome roma fashion glamour italia moda tags negozio linea catalogo lazio collezione terni lookbook abbigliamento wwwalessandromarinet www2photographersit
license: 0
latitude: 42.571655
longitude: 12.642766
accuracy: 15
views: 59
interestingness: 58 out of 243

photo: 4970679884 19ec48ea01 4092
owner: 38837659@N06
title: A Spy Like You
originalsecret: 608cf6a129
originalformat: jpg
o_height: 4217
o_width: 3441
datetaken: 2010-08-30 11:15:21
dateupload: 1322735670
tags: china city original light portrait people blackandwhite bw italy baby white black hot cute sexy art love girl beautiful beauty fashion pen pencil ink comics painting hair paper fun toy james sketch war europe paint gun artist comic italia peace dress symbol artistic drawing iraq babe east jacket strip short pistol painter spy bond draw brunette lovely middle iraqi hotty
license: 3
latitude: 43.771361
longitude: 11.25428
accuracy: 16
views: 128
interestingness: 59 out of 243

photo: 6435264705 0c96f399af 7148
owner: 44048553@N03
title: Maniqu?
originalsecret: 05989f3b5a
originalformat: jpg
o_height: 1067
o_width: 800
datetaken: 2011-10-12 11:45:29
dateupload: 1322727087
tags: mannequin fashion clothes tienda ropa maniqui comercio 12deoctubre
license: 4
latitude: 43.359993
longitude: -5.846056
accuracy: 16
views: 10
interestingness: 60 out of 243

photo: 6439313161 95f0905cef 7149
owner: 88645555@N00
title: Attitude p2
originalsecret: null
originalformat: null
o_height: null
o_width: null
datetaken: 2011-12-01 22:51:22
dateupload: 1322790682
tags: blackandwhite man male faces young attitude session sesion andreheredia fashionandreheredia
license: 0
latitude: -33.431244
longitude: -70.592758
accuracy: 14
views: 37
interestingness: 61 out of 243

photo: 6434308121 c58db710c3 7027
owner: 65101801@N06
title: Missing Summer
originalsecret: null
originalformat: null
o_height: null
o_width: null
datetaken: 2011-09-07 15:20:56
dateupload: 1322709582
tags: travel summer fashion
license: 0
latitude: 38.464778
longitude: 14.95435
accuracy: 11
views: 24
interestingness: 62 out of 243

photo: 6439314827 9b13e17ed8 7162
owner: 88645555@N00
title: Attitude p1
originalsecret: null
originalformat: null
o_height: null
o_width: null
datetaken: 2011-12-01 22:51:50
dateupload: 1322790710
tags: blackandwhite man male faces young attitude session sesion andreheredia fashionandreheredia
license: 0
latitude: -33.431244
longitude: -70.592758
accuracy: 14
views: 41
interestingness: 63 out of 243

photo: 6435472225 027cf87b8a 7022
owner: 32833276@N08
title: Tags fall winter 11/12
originalsecret: null
originalformat: null
o_height: null
o_width: null
datetaken: 2011-12-01 10:34:43
dateupload: 1322732083
tags: portrait italy rome roma fashion canon 50mm design glamour moda tags ritratto umbria catalogo lazio 135mm 2photographers terni abiti lookbook vestiti abbigliamento iyalia studiofotografico wwwalessandromarinet www2photographersit studiofotograficoterni
license: 0
latitude: 42.571655
longitude: 12.642766
accuracy: 15
views: 49
interestingness: 64 out of 243

photo: 6439989507 6fe93f3abe 7008
owner: 66025415@N03
title: Hard Rocker
originalsecret: fec694e098
originalformat: jpg
o_height: 5184
o_width: 3456
datetaken: 2011-11-19 13:27:29
dateupload: 1322802128
tags: fashion model modeling rocker rockband
license: 0
latitude: 33.639204
longitude: -112.331085
accuracy: 11
views: 40
interestingness: 65 out of 243

photo: 6433746113 b596a6c35e 7153
owner: 41584113@N02
title: Christmas Wonderment in Nottingham
originalsecret: null
originalformat: null
o_height: null
o_width: null
datetaken: 2011-11-23 02:36:57
dateupload: 1322701285
tags: street city nottingham people urban woman stockings fashion walking nikon path candid style tights skirt brunette tamron d7000 gjkerr
license: 0
latitude: 52.950499
longitude: -1.145896
accuracy: 11
views: 215
interestingness: 66 out of 243

photo: 6436939007 696bb79e44 7016
owner: 67998622@N05
title: Kimono Girl in Alley,Tokyo,Japan
originalsecret: null
originalformat: null
o_height: null
o_width: null
datetaken: 2011-11-15 14:53:40
dateupload: 1322757697
tags: street red people beauty japan vertical mystery outdoors photography tokyo ginza women dress adult parasol kimono females copyspace lookingdown youngadult hairstyle japaneseculture oneperson oldfashioned traditionalculture lifestyles selectivefocus eastasia traditionalclothing colorimage onewomanonly oneyoungwomanonly onlywomen flaminghead onlyjapanese japaneseethnicity
license: 0
latitude: 35.67194
longitude: 139.763603
accuracy: 11
views: 20
interestingness: 67 out of 243

photo: 6437175685 8936caea8e 7023
owner: 25877284@N04
title: Somewhere Else
originalsecret: null
originalformat: null
o_height: null
o_width: null
datetaken: 2011-11-20 18:53:19
dateupload: 1322760842
tags: pictures uk wedding portrait white black colour sexy london girl fashion lady studio photography book design high model women shoot photographer post image low creative event commercial agency subject retouch cheap retouching thebest expencive usman affordable ervin verygood fashionphotographer alltypes potrfolio photographerinlondon commercialphotographerinlondon ervinusmancom wwwervinusmancouk wwwervinusmancom ervinusman centrelondonstudio testshootportfoilo eventphotographerinlondon fashionphotographerinlondon portfoliophotographerinlondon catalogphotographerinlondon
license: 0
latitude: 51.519558
longitude: -0.098426
accuracy: 15
views: 51
interestingness: 68 out of 243

photo: 6439310777 e5d23bcc19 7028
owner: 88645555@N00
title: Attitude p4
originalsecret: null
originalformat: null
o_height: null
o_width: null
datetaken: 2011-12-01 22:50:42
dateupload: 1322790642
tags: blackandwhite man male faces young attitude session sesion andreheredia fashionandreheredia
license: 0
latitude: -33.431244
longitude: -70.592758
accuracy: 14
views: 30
interestingness: 69 out of 243

photo: 6437811131 3887ef6f36 7021
owner: 32833276@N08
title: Tags fall winter 11/12
originalsecret: null
originalformat: null
o_height: null
o_width: null
datetaken: 2011-12-01 20:58:31
dateupload: 1322769511
tags: italy rome roma fashion glamour italia moda tags negozio linea catalogo lazio collezione terni lookbook abbigliamento wwwalessandromarinet www2photographersit
license: 0
latitude: 42.571655
longitude: 12.642766
accuracy: 15
views: 67
interestingness: 70 out of 243

photo: 6437138441 b6916fa54d 7033
owner: 48896557@N00
title: Hot Air Balloon Flight over the Southwest Desert Fine Art Print
originalsecret: cf5d9aff0b
originalformat: jpg
o_height: 533
o_width: 800
datetaken: 2011-11-23 08:56:38
dateupload: 1322760368
tags: arizona cactus texture nature balloons landscape photography fly flying photo colorful desert stock balloon az images transportation prints saguaro hotairballoons oldfashioned stockphoto fineartprint canvasart
license: 3
latitude: 33.789562
longitude: -112.10329
accuracy: 11
views: 18
interestingness: 71 out of 243

photo: 6437299717 53dac0a969 7165
owner: 58287639@N02
title: Velvet Lily with hair comb
originalsecret: 272f049ee6
originalformat: jpg
o_height: 1200
o_width: 1200
datetaken: 2011-12-01 09:15:34
dateupload: 1322762464
tags: art fashion handmade style textiles hautecouture headband hairpiece hairaccessories artisancrafts cocktailhat hairwear bridalcouture tracyholcomb customhairwear charmeusepetalsandleaves silkcutvelvetpetals
license: 0
latitude: 37.774887
longitude: -122.441225
accuracy: 13
views: 6
interestingness: 72 out of 243

photo: 6435424547 ffc15bf646 7012
owner: 8135192@N04
title: MODEL
originalsecret: null
originalformat: null
o_height: null
o_width: null
datetaken: 2011-11-12 15:21:27
dateupload: 1322730943
tags: bali model designer pr whotel seminyak paulroppfashionshow2011
license: 0
latitude: -8.709831
longitude: 115.167274
accuracy: 11
views: 21
interestingness: 73 out of 243

photo: 6434248991 b6c7239d56 7010
owner: 49301380@N05
title: tweeds & 'staches
originalsecret: 2d6e676cbe
originalformat: jpg
o_height: 2246
o_width: 2807
datetaken: 2011-11-26 07:01:04
dateupload: 1322708703
tags: uk travel england people london fashion person style tweed ralphlauren tweedrun tweedrun2011
license: 0
latitude: 51.51193
longitude: -0.123424
accuracy: 16
views: 8
interestingness: 74 out of 243

photo: 6437809599 082a2810a9 7011
owner: 32833276@N08
title: Tags fall winter 11/12
originalsecret: null
originalformat: null
o_height: null
o_width: null
datetaken: 2011-12-01 20:58:14
dateupload: 1322769494
tags: italy rome roma fashion glamour italia moda tags negozio linea catalogo lazio collezione terni lookbook abbigliamento wwwalessandromarinet www2photographersit
license: 0
latitude: 42.571655
longitude: 12.642766
accuracy: 15
views: 61
interestingness: 75 out of 243

photo: 6434272637 a792d9d923 7015
owner: 49301380@N05
title: Tweed Run 2011
originalsecret: a2caef1026
originalformat: jpg
o_height: 3196
o_width: 2282
datetaken: 2011-11-26 07:08:56
dateupload: 1322709056
tags: uk travel england people london fashion person style tweed ralphlauren tweedrun tweedrun2011
license: 0
latitude: 51.51193
longitude: -0.123424
accuracy: 16
views: 43
interestingness: 76 out of 243

photo: 6437807733 bf20b2c67f 7165
owner: 32833276@N08
title: Tags fall winter 11/12
originalsecret: null
originalformat: null
o_height: null
o_width: null
datetaken: 2011-12-01 20:57:51
dateupload: 1322769471
tags: abbigliamento linea collezione fashion moda glamour negozio tags roma rome italy italia terni lazio www2photographersit wwwalessandromarinet lookbook catalogo
license: 0
latitude: 42.571655
longitude: 12.642766
accuracy: 15
views: 53
interestingness: 77 out of 243

photo: 6434222863 3a85a0968e 7001
owner: 49301380@N05
title: Tweed Run 2011
originalsecret: 0b3967882d
originalformat: jpg
o_height: 2900
o_width: 2320
datetaken: 2011-11-26 06:54:02
dateupload: 1322708302
tags: uk travel england people london fashion person style tweed ralphlauren tweedrun tweedrun2011
license: 0
latitude: 51.51193
longitude: -0.123424
accuracy: 16
views: 40
interestingness: 78 out of 243

photo: 6438996625 d023bbca7c 7163
owner: 49431171@N00
title: VG1
originalsecret: null
originalformat: null
o_height: null
o_width: null
datetaken: 2011-11-28 21:18:28
dateupload: 1322785570
tags: fashion vintage fun model glamour nikon katy retro 1940s 1950s tamron banbury d5000
license: 0
latitude: 52.061178
longitude: -1.337767
accuracy: 16
views: 35
interestingness: 79 out of 243

photo: 6434236991 ba613dfaa2 7035
owner: 49301380@N05
title: Tweed Run 2011
originalsecret: 42a3876fe4
originalformat: jpg
o_height: 3081
o_width: 2466
datetaken: 2011-11-26 06:57:44
dateupload: 1322708528
tags: uk travel england people london fashion person style tweed ralphlauren tweedrun tweedrun2011
license: 0
latitude: 51.51193
longitude: -0.123424
accuracy: 16
views: 14
interestingness: 80 out of 243

photo: 6435474941 706fefbfa3 7174
owner: 32833276@N08
title: Tags fall winter 11/12
originalsecret: null
originalformat: null
o_height: null
o_width: null
datetaken: 2011-12-01 10:35:53
dateupload: 1322732153
tags: portrait italy rome roma fashion canon 50mm design glamour moda tags ritratto umbria catalogo lazio 135mm 2photographers terni abiti lookbook vestiti abbigliamento iyalia studiofotografico wwwalessandromarinet www2photographersit studiofotograficoterni
license: 0
latitude: 42.571655
longitude: 12.642766
accuracy: 15
views: 51
interestingness: 81 out of 243

photo: 6435474333 c4a2eedfec 7023
owner: 32833276@N08
title: Tags fall winter 11/12
originalsecret: null
originalformat: null
o_height: null
o_width: null
datetaken: 2011-12-01 10:35:35
dateupload: 1322732135
tags: portrait italy rome roma fashion canon 50mm design glamour moda tags ritratto umbria catalogo lazio 135mm 2photographers terni abiti lookbook vestiti abbigliamento iyalia studiofotografico wwwalessandromarinet www2photographersit studiofotograficoterni
license: 0
latitude: 42.571655
longitude: 12.642766
accuracy: 15
views: 47
interestingness: 82 out of 243

photo: 6435334307 893ff053a2 7014
owner: 22195068@N04
title: Series:  Jubilant Jaime
originalsecret: a0485a1cb1
originalformat: jpg
o_height: 1688
o_width: 2700
datetaken: 2011-07-25 17:54:27
dateupload: 1322728726
tags: street portrait woman cute girl beautiful beauty smile fashion lady female pose asian model pretty chinese lifestyle style linda belle em hermosa manis maganda cantik gadis ?? ??p cewek ???? xinh ????? ?????? g?i? ????? ?c?
license: 0
latitude: 22.293315
longitude: 114.169771
accuracy: 15
views: 241
interestingness: 83 out of 243

photo: 6434229059 2d9af108c7 7174
owner: 49301380@N05
title: Tweed Run 2011
originalsecret: 86cb57cd8c
originalformat: jpg
o_height: 1711
o_width: 1141
datetaken: 2011-11-26 06:55:51
dateupload: 1322708405
tags: uk travel england people london fashion person style tweed ralphlauren tweedrun tweedrun2011
license: 0
latitude: 51.51193
longitude: -0.123424
accuracy: 16
views: 7
interestingness: 84 out of 243

photo: 6434057447 167ebf843c 7144
owner: 58287639@N02
title: Purple and Gold Headband
originalsecret: bdaf67ca06
originalformat: jpg
o_height: 1200
o_width: 1200
datetaken: 2011-11-30 18:12:17
dateupload: 1322705862
tags: art fashion handmade style textiles hautecouture headband hairpiece hairaccessories vintagebutton artisancrafts cocktailhat hairwear bridalcouture tracyholcomb customhairwear metallicfabricflower silkstenciledvelvet moldedsilkleaves
license: 0
latitude: 37.774717
longitude: -122.44071
accuracy: 13
views: 4
interestingness: 85 out of 243

photo: 6437270653 d279f5e873 7151
owner: 25877284@N04
title: Latte Mocha
originalsecret: null
originalformat: null
o_height: null
o_width: null
datetaken: 2011-11-20 18:04:23
dateupload: 1322762066
tags: pictures uk wedding portrait white black colour sexy london girl fashion lady studio photography book design high model women shoot photographer post image low creative event commercial agency subject retouch cheap retouching thebest expencive usman affordable ervin verygood fashionphotographer alltypes potrfolio photographerinlondon commercialphotographerinlondon ervinusmancom wwwervinusmancouk wwwervinusmancom ervinusman centrelondonstudio testshootportfoilo eventphotographerinlondon fashionphotographerinlondon portfoliophotographerinlondon catalogphotographerinlondon
license: 0
latitude: 51.519558
longitude: -0.098426
accuracy: 15
views: 42
interestingness: 86 out of 243

photo: 6435776023 555f532dba 7002
owner: 41967161@N03
title: Felted Scarf Wrap
originalsecret: 3261082ee7
originalformat: jpg
o_height: 3744
o_width: 5616
datetaken: 2011-12-01 12:55:28
dateupload: 1322739076
tags: wool fallcolor felting silk felt merino cobweb textile scarves fiber nuno feltscarf nunofelt feltedscarf fashionscarf earthycolor nunofeltedscarf womenscarf feltedpleasure marinashkolnik
license: 0
latitude: 55.610256
longitude: 37.579421
accuracy: 12
views: 27
interestingness: 87 out of 243

photo: 6434268985 3ae6789ae2 7156
owner: 49301380@N05
title: Tweed Run 2011
originalsecret: 66ea6e68fe
originalformat: jpg
o_height: 3557
o_width: 2540
datetaken: 2011-11-26 07:08:08
dateupload: 1322708998
tags: uk travel england people london fashion person style tweed ralphlauren tweedrun tweedrun2011
license: 0
latitude: 51.51193
longitude: -0.123424
accuracy: 16
views: 29
interestingness: 88 out of 243

photo: 6433757539 62b631e27d 7143
owner: 44752000@N05
title: Jem the holograms up & rockin fashions flip side hasbro
originalsecret: null
originalformat: null
o_height: null
o_width: null
datetaken: 2011-11-30 21:04:18
dateupload: 1322701458
tags: up doll side flip shana jem roxy kimber 1986 aja jerrica rockin hasbro fashions benton stormer holograms
license: 0
latitude: -33.461186
longitude: -70.641002
accuracy: 11
views: 18
interestingness: 89 out of 243

photo: 6439995963 d8dcc21ed7 7155
owner: 72098626@N00
title: Central Park Dance Skaters, Oct 2011 - 22
originalsecret: 8f0583cda4
originalformat: jpg
o_height: 4928
o_width: 3264
datetaken: 2011-10-23 15:32:28
dateupload: 1322802260
tags: newyork sunglasses dancers centralpark manhattan tights skate ponytail centralparkdanceskaters danceskaters
license: 1
latitude: 40.773333
longitude: -73.971334
accuracy: 16
views: 47
interestingness: 90 out of 243

photo: 6437447779 5b295de59f 7027
owner: 25877284@N04
title: Gift Has a Potential
originalsecret: null
originalformat: null
o_height: null
o_width: null
datetaken: 2011-11-20 18:03:34
dateupload: 1322764495
tags: pictures uk wedding portrait white black colour sexy london girl fashion lady studio photography book design high model women shoot photographer post image low creative event commercial agency subject retouch cheap retouching thebest expencive usman affordable ervin verygood fashionphotographer alltypes potrfolio photographerinlondon commercialphotographerinlondon ervinusmancom wwwervinusmancouk wwwervinusmancom ervinusman centrelondonstudio testshootportfoilo eventphotographerinlondon fashionphotographerinlondon portfoliophotographerinlondon catalogphotographerinlondon
license: 0
latitude: 51.519558
longitude: -0.098426
accuracy: 15
views: 49
interestingness: 91 out of 243

photo: 6435228049 1ec76315bd 7169
owner: 58628677@N00
title: Mia Lopez 04
originalsecret: null
originalformat: null
o_height: null
o_width: null
datetaken: 2011-11-30 14:03:18
dateupload: 1322726243
tags: rio model mia gma7 germanmoreno tinayuzuki mialopez canoneoskissx4 dwarfina walangtulugan
license: 0
latitude: 14.500229
longitude: 120.992912
accuracy: 11
views: 85
interestingness: 92 out of 243

photo: 6434679259 81514718e1 7030
owner: 25112341@N06
title: Indian Fashion Show
originalsecret: null
originalformat: null
o_height: null
o_width: null
datetaken: 2011-11-26 22:42:21
dateupload: 1322715048
tags: fashion runway indianfashionshow modeols
license: 0
latitude: 43.702947
longitude: -79.638433
accuracy: 16
views: 20
interestingness: 93 out of 243

photo: 6069183791 915cbdbb7c 6066
owner: 27383466@N02
title: Ponder
originalsecret: null
originalformat: null
o_height: null
o_width: null
datetaken: 2011-08-18 14:16:48
dateupload: 1322753570
tags: park portrait heritage girl fashion forest photography photo shot florida head sydney headshot shoots plaid duy truong poder duys duysphotoshoots duytruongphotography
license: 0
latitude: 26.107585
longitude: -80.224807
accuracy: 15
views: 60
interestingness: 94 out of 243

photo: 6439160163 5f9872cb73 7152
owner: 54402050@N00
title: Editiorial
originalsecret: null
originalformat: null
o_height: null
o_width: null
datetaken: 2011-10-30 17:16:13
dateupload: 1322788166
tags: robert fashion aberdeen gordon works broadford editiorial rgu universty
license: 0
latitude: 57.152444
longitude: -2.105813
accuracy: 14
views: 27
interestingness: 95 out of 243

photo: 6438172013 cc72c039e4 7156
owner: 57521193@N08
title: Uta Levan
originalsecret: null
originalformat: null
o_height: null
o_width: null
datetaken: 2011-12-02 01:15:24
dateupload: 1322774124
tags: show film fashion canon butterfly eos rebel lights model 2000 kodak bokeh week catwalk tbilisi 2012 2011
license: 0
latitude: 41.722514
longitude: 44.78302
accuracy: 11
views: 57
interestingness: 96 out of 243

photo: 6438983065 6994fef417 7165
owner: 49431171@N00
title: VG2
originalsecret: null
originalformat: null
o_height: null
o_width: null
datetaken: 2011-11-28 21:33:46
dateupload: 1322785365
tags: fashion vintage fun model glamour nikon katy telephone retro 1940s 1950s tamron banbury d5000
license: 0
latitude: 52.061178
longitude: -1.337767
accuracy: 16
views: 29
interestingness: 97 out of 243

photo: 6438795061 476576ae84 7145
owner: 71124079@N07
title: Olga 1
originalsecret: d03f024f29
originalformat: jpg
o_height: 602
o_width: 400
datetaken: 2011-07-28 14:50:51
dateupload: 1322782481
tags: girls portrait hot beauty fashion lady model posing commercial stunning editorial femalemodel fashionshoot nexttopmodel
license: 0
latitude: 53.340303
longitude: -8.948192
accuracy: 12
views: 3
interestingness: 98 out of 243

photo: 6437719669 8d1ae9c8aa 7147
owner: 50382637@N02
title: G?k?e
originalsecret: null
originalformat: null
o_height: null
o_width: null
datetaken: 2011-06-26 18:03:59
dateupload: 1322768263
tags: model moda cyprus mop gizemkinel mysteryofphotos gokcegucveren dismekan
license: 0
latitude: 35.066699
longitude: 33.7667
accuracy: 11
views: 53
interestingness: 99 out of 243

photo: 6435321017 54274d0f4c 7174
owner: 22195068@N04
title: Series:  Jubilant Jaime
originalsecret: 390eab3595
originalformat: jpg
o_height: 3850
o_width: 2567
datetaken: 2011-07-25 17:51:40
dateupload: 1322728370
tags: street portrait woman cute girl beautiful beauty fashion lady female pose asian model pretty chinese lifestyle style skirt linda belle em hermosa manis maganda cantik gadis ?? ??p cewek ???? xinh ????? ?????? g?i? ????? ?c?
license: 0
latitude: 22.293315
longitude: 114.169771
accuracy: 15
views: 124
interestingness: 100 out of 243

photo: 6434701937 bf8b2cbeb5 7160
owner: 58628677@N00
title: Mia Lopez 02
originalsecret: null
originalformat: null
o_height: null
o_width: null
datetaken: 2011-11-30 15:30:56
dateupload: 1322715421
tags: model mia gma7 germanmoreno mastershowman mialopez canoneoskissx4 walangtulugan
license: 0
latitude: 14.500229
longitude: 120.992912
accuracy: 11
views: 120
interestingness: 101 out of 243

photo: 6434279603 11482cfd41 7169
owner: 49301380@N05
title: Tweed Run 2011
originalsecret: 37ecb3ce78
originalformat: jpg
o_height: 3239
o_width: 2591
datetaken: 2011-11-26 07:10:22
dateupload: 1322709161
tags: uk travel england people london fashion person style tweed ralphlauren tweedrun tweedrun2011
license: 0
latitude: 51.51193
longitude: -0.123424
accuracy: 16
views: 28
interestingness: 102 out of 243

photo: 6434253881 e170510812 7143
owner: 49301380@N05
title: Tweed Run 2011
originalsecret: 0d1f7be61f
originalformat: jpg
o_height: 3065
o_width: 2452
datetaken: 2011-11-26 07:02:56
dateupload: 1322708775
tags: uk travel england people london fashion person style tweed ralphlauren tweedrun tweedrun2011
license: 0
latitude: 51.51193
longitude: -0.123424
accuracy: 16
views: 15
interestingness: 103 out of 243

photo: 6433532639 942f802cbe 7021
owner: 58177022@N06
title: Fotografica#1
originalsecret: null
originalformat: null
o_height: null
o_width: null
datetaken: 2011-11-30 19:50:46
dateupload: 1322698042
tags: canon models workshop fashiondistrict nikond90 ann? fotografica2011
license: 0
latitude: 45.452629
longitude: 9.165619
accuracy: 16
views: 53
interestingness: 104 out of 243

photo: 6435767935 f260830b6f 7034
owner: 41967161@N03
title: Felted Scarf Wrap
originalsecret: d35d8a9d92
originalformat: jpg
o_height: 5616
o_width: 3744
datetaken: 2011-12-01 13:15:20
dateupload: 1322738901
tags: wool fallcolor felting silk felt merino cobweb textile scarves fiber nuno feltscarf nunofelt feltedscarf fashionscarf earthycolor nunofeltedscarf womenscarf feltedpleasure marinashkolnik
license: 0
latitude: 55.610256
longitude: 37.579421
accuracy: 12
views: 25
interestingness: 105 out of 243

photo: 6434270961 18d559a1fb 7003
owner: 49301380@N05
title: Tweed Run 2011
originalsecret: ddc5b4f6cc
originalformat: jpg
o_height: 1940
o_width: 2715
datetaken: 2011-11-26 07:08:11
dateupload: 1322709029
tags: uk travel england people london fashion person style tweed ralphlauren tweedrun tweedrun2011
license: 0
latitude: 51.51193
longitude: -0.123424
accuracy: 16
views: 53
interestingness: 106 out of 243

photo: 6434239001 bbd3469e8e 7025
owner: 49301380@N05
title: Tweed Run 2011
originalsecret: 9d4046941d
originalformat: jpg
o_height: 3017
o_width: 2415
datetaken: 2011-11-26 06:57:45
dateupload: 1322708557
tags: uk travel england people london fashion person style tweed ralphlauren tweedrun tweedrun2011
license: 0
latitude: 51.51193
longitude: -0.123424
accuracy: 16
views: 18
interestingness: 107 out of 243

photo: 6434975539 95a2c4d776 7035
owner: 58628677@N00
title: Mia Lopez 03
originalsecret: null
originalformat: null
o_height: null
o_width: null
datetaken: 2011-11-30 15:25:03
dateupload: 1322720580
tags: model mia gma7 mariaozawa germanmoreno mialopez canoneoskissx4 dwarfina walangtulugan
license: 0
latitude: 14.500229
longitude: 120.992912
accuracy: 11
views: 92
interestingness: 108 out of 243

photo: 6433749683 a5415cf907 7024
owner: 72098626@N00
title: Central Park Dance Skaters, Oct 2011 - 17
originalsecret: 6ca27a978d
originalformat: jpg
o_height: 3957
o_width: 2639
datetaken: 2011-10-23 15:28:04
dateupload: 1322701338
tags: newyork bottle dancers centralpark manhattan skate centralparkdanceskaters danceskaters
license: 1
latitude: 40.773277
longitude: -73.971356
accuracy: 16
views: 27
interestingness: 109 out of 243

photo: 6439044871 f65177396d 7017
owner: 37708304@N05
title: Sarah Prom
originalsecret: null
originalformat: null
o_height: null
o_width: null
datetaken: 2011-12-02 00:39:11
dateupload: 1322786351
tags: uk pink portrait people woman cute girl beauty face fashion female portraits photography interesting model eyes nikon pretty dress emotion young prom photograph blonde potrait chesterfield studio1
license: 0
latitude: 53.217906
longitude: -1.422107
accuracy: 15
views: 44
interestingness: 110 out of 243

photo: 6438737321 5118ac84fb 7006
owner: 42539973@N00
title: Help required
originalsecret: null
originalformat: null
o_height: null
o_width: null
datetaken: 2011-11-25 19:47:57
dateupload: 1322781616
tags: city party smile smart fashion flash thecity masks drinks lawcourts captive thestrand royalcourtsofjustice elaborate wc2 bankers financiers traders squaremile maskedball canon28mmf18 canoneos5dmarkii canon5dmkii canonspeedliteex430mkii squaremilemagazine
license: 0
latitude: 51.514403
longitude: -0.113463
accuracy: 16
views: 18
interestingness: 111 out of 243

photo: 6438725595 79cd01d323 7035
owner: 42539973@N00
title: Red top hat
originalsecret: null
originalformat: null
o_height: null
o_width: null
datetaken: 2011-11-25 19:23:20
dateupload: 1322781439
tags: city red party smile smart fashion flash thecity masks drinks tophat lawcourts royalcourtsofjustice elaborate wc2 bankers financiers traders squaremile maskedball canon28mmf18 canoneos5dmarkii canon5dmkii canonspeedliteex430mkii squaremilemagazine
license: 0
latitude: 51.514353
longitude: -0.113474
accuracy: 16
views: 57
interestingness: 112 out of 243

photo: 6434834227 aa4b5f2169 7016
owner: 30904871@N06
title: Bamboo
originalsecret: 3cf7a867b9
originalformat: jpg
o_height: 1770
o_width: 2769
datetaken: 2011-12-01 00:02:25
dateupload: 1322717834
tags: red cactus ontario canada green bottle focus ottawa lightbox
license: 0
latitude: 45.374492
longitude: -75.732568
accuracy: 16
views: 14
interestingness: 113 out of 243

photo: 6439990909 30984b1f51 7175
owner: 66025415@N03
title: Model: Monreudy
originalsecret: d345308b03
originalformat: jpg
o_height: 3456
o_width: 5184
datetaken: 2011-11-19 13:50:22
dateupload: 1322802159
tags: fashion model modeling rocker rockband
license: 0
latitude: 33.64392
longitude: -112.323532
accuracy: 11
views: 91
interestingness: 114 out of 243

photo: 6437037469 91f5d19a31 7150
owner: 58628677@N00
title: Mia Lopez 07
originalsecret: null
originalformat: null
o_height: null
o_width: null
datetaken: 2011-11-30 12:17:41
dateupload: 1322759018
tags: model mia gma7 germanmoreno mialopez canoneoskissx4 dwarfina walangtulugan
license: 0
latitude: 14.500229
longitude: 120.992912
accuracy: 11
views: 49
interestingness: 115 out of 243

photo: 6437216661 efb901b95a 7031
owner: 25877284@N04
title: Time to Skip a Day
originalsecret: null
originalformat: null
o_height: null
o_width: null
datetaken: 2011-11-20 18:55:58
dateupload: 1322761344
tags: pictures uk wedding portrait white black colour sexy london girl fashion lady studio photography book design high model women shoot photographer post image low creative event commercial agency subject retouch cheap retouching thebest expencive usman affordable ervin verygood fashionphotographer alltypes potrfolio photographerinlondon commercialphotographerinlondon ervinusmancom wwwervinusmancouk wwwervinusmancom ervinusman centrelondonstudio testshootportfoilo eventphotographerinlondon fashionphotographerinlondon portfoliophotographerinlondon catalogphotographerinlondon
license: 0
latitude: 51.519558
longitude: -0.098426
accuracy: 15
views: 39
interestingness: 116 out of 243

photo: 6437193993 5b41f5ee52 7008
owner: 58628677@N00
title: Mia Lopez 08
originalsecret: null
originalformat: null
o_height: null
o_width: null
datetaken: 2011-11-30 14:26:01
dateupload: 1322761068
tags: model mia gma7 germanmoreno mialopez canoneoskissx4 dwarfina walangtulugan
license: 0
latitude: 14.500229
longitude: 120.992912
accuracy: 11
views: 43
interestingness: 117 out of 243

photo: 6437096535 06e6c642af 7001
owner: 25877284@N04
title: Softnoise Dark Revolution
originalsecret: null
originalformat: null
o_height: null
o_width: null
datetaken: 2011-11-20 17:25:20
dateupload: 1322759812
tags: pictures uk wedding portrait white black colour sexy london girl fashion lady studio photography book design high model women shoot photographer post image low creative event commercial agency subject retouch cheap retouching thebest expencive usman affordable ervin verygood fashionphotographer alltypes potrfolio photographerinlondon commercialphotographerinlondon ervinusmancom wwwervinusmancouk wwwervinusmancom ervinusman centrelondonstudio testshootportfoilo eventphotographerinlondon fashionphotographerinlondon portfoliophotographerinlondon catalogphotographerinlondon
license: 0
latitude: 51.519558
longitude: -0.098426
accuracy: 15
views: 27
interestingness: 118 out of 243

photo: 6437028323 b246b97965 7168
owner: 68392564@N02
title: imagesCA3WYP0S
originalsecret: null
originalformat: null
o_height: null
o_width: null
datetaken: 2011-12-01 09:01:30
dateupload: 1322758890
tags: fashion glamour budapest odessa vip miss kiev sotto balaton malcesine rivoli nasdaq dax banca grandefratello povegliano lazise moskow veronese belfiore sanbonifacio negrar monselice oppeano minerbe pal? roverchiara isolarizza radauti rover? legnago pastrengo pescantina nogara monteforte montecchia mozzecane mezzane lavagno ronc? maranodivalpolicella almigio crosara dalpone pressana salizzole nogarolerocca roveredodigua roncoalladige giorgionegri
license: 0
latitude: 45.195102
longitude: 11.206054
accuracy: 10
views: 4
interestingness: 119 out of 243

photo: 6436954795 019a78cc12 7004
owner: 68004347@N07
title: 
originalsecret: null
originalformat: null
o_height: null
o_width: null
datetaken: 2011-11-22 19:15:48
dateupload: 1322757893
tags: sun buildings freedom photoshoot lateafternoon fashionphotoshoot
license: 0
latitude: -34.501605
longitude: -58.482713
accuracy: 14
views: 9
interestingness: 120 out of 243

photo: 6436672087 6aba13a530 7154
owner: 58628677@N00
title: Mia Lopez 06
originalsecret: null
originalformat: null
o_height: null
o_width: null
datetaken: 2011-11-30 12:51:02
dateupload: 1322754168
tags: model mia gma7 germanmoreno mialopez canoneoskissx4 dwarfina walangtulugan
license: 0
latitude: 14.500229
longitude: 120.992912
accuracy: 11
views: 43
interestingness: 121 out of 243

photo: 6435796897 8dc70bf049 7146
owner: 39959787@N06
title: M?dling, Lower Austria, Waisenhauskirche St. Josef, la chiesa d?orfanotrofio di San Josef, la iglesia de orfanato de Santo Josef, l??glise de l?orphelinat de Saint Josef, orphanage church of Saint Joseph, Sierociniec-Ko?ci??
originalsecret: ce35016fb6
originalformat: jpg
o_height: 1980
o_width: 2640
datetaken: 2010-11-25 16:30:16
dateupload: 1322739513
tags: 
license: 0
latitude: 48.086166
longitude: 16.299526
accuracy: 15
views: 9
interestingness: 122 out of 243

photo: 6440017755 fb56ff267c 7018
owner: 72098626@N00
title: Central Park Dance Skaters, Oct 2011 - 28
originalsecret: b71f1ed397
originalformat: jpg
o_height: 4432
o_width: 2954
datetaken: 2011-10-23 15:40:24
dateupload: 1322802674
tags: newyork ipod dancers centralpark manhattan helmet skate earphone shorts centralparkdanceskaters danceskaters
license: 1
latitude: 40.773333
longitude: -73.971334
accuracy: 16
views: 31
interestingness: 123 out of 243

photo: 6439968707 8772db856f 7018
owner: 72098626@N00
title: Central Park Dance Skaters, Oct 2011 - 26
originalsecret: f46c898e63
originalformat: jpg
o_height: 3264
o_width: 4928
datetaken: 2011-10-23 15:37:36
dateupload: 1322801717
tags: newyork dancers mayor centralpark manhattan skate pointing centralparkdanceskaters themayor danceskaters
license: 1
latitude: 40.773333
longitude: -73.971334
accuracy: 16
views: 7
interestingness: 124 out of 243

photo: 6439309305 bca22ae743 7014
owner: 88645555@N00
title: Attitude p5
originalsecret: null
originalformat: null
o_height: null
o_width: null
datetaken: 2011-12-01 22:50:16
dateupload: 1322790616
tags: blackandwhite man male faces young attitude session sesion andreheredia fashionandreheredia
license: 0
latitude: -33.431244
longitude: -70.592758
accuracy: 14
views: 27
interestingness: 125 out of 243

photo: 6439306909 a38c29501a 7154
owner: 88645555@N00
title: Attitude p7
originalsecret: null
originalformat: null
o_height: null
o_width: null
datetaken: 2011-12-01 22:49:36
dateupload: 1322790576
tags: blackandwhite man male faces young attitude session sesion andreheredia fashionandreheredia
license: 0
latitude: -33.431244
longitude: -70.592758
accuracy: 14
views: 32
interestingness: 126 out of 243

photo: 6439305733 d46f2cffc5 7154
owner: 88645555@N00
title: Attitude p8
originalsecret: null
originalformat: null
o_height: null
o_width: null
datetaken: 2011-12-01 22:49:15
dateupload: 1322790555
tags: blackandwhite man male faces young attitude session sesion andreheredia fashionandreheredia
license: 0
latitude: -33.431244
longitude: -70.592758
accuracy: 14
views: 60
interestingness: 127 out of 243

photo: 6439242581 67f8c8db77 7171
owner: 36443769@N06
title: paris
originalsecret: 09bdafd2d5
originalformat: jpg
o_height: 1296
o_width: 1296
datetaken: 2011-12-01 13:55:02
dateupload: 1322789516
tags: autumn friends paris france fashion square women coat squarecrop fashionable nikond90
license: 0
latitude: 48.855669
longitude: 2.333618
accuracy: 16
views: 15
interestingness: 128 out of 243

photo: 6439134373 9fe225d8c8 7156
owner: 71159954@N04
title: Dries Van Noten - Paris Fashion Week
originalsecret: null
originalformat: null
o_height: null
o_width: null
datetaken: 2007-02-28 15:36:35
dateupload: 1322787757
tags: show fashion james models style edward van catwalk dries noten
license: 0
latitude: 48.856918
longitude: 2.341209
accuracy: 11
views: 0
interestingness: 129 out of 243

photo: 6438751471 fb111be16f 7032
owner: 57198423@N02
title: #GIF Tennessee State Capitol Pass Dillon Bakke Artist
originalsecret: 3f114fb7f6
originalformat: gif
o_height: 450
o_width: 600
datetaken: 2011-12-01 15:23:57
dateupload: 1322781837
tags: fashion tn nashville state tennessee pass free style confederate capitol jacket visitor find winning fashionstyle tennesseestatecapitol visitorpass 12012011 confederatejacket
license: 0
latitude: 36.165287
longitude: -86.783241
accuracy: 16
views: 56
interestingness: 130 out of 243

photo: 6438571279 7802da1e73 7014
owner: 28863643@N06
title: Queens Arms Bakewell Derbyshire.
originalsecret: 00f1e631ac
originalformat: jpg
o_height: 3144
o_width: 4251
datetaken: 2011-11-30 12:31:02
dateupload: 1322779269
tags: old two england brick hotel pub arms britain good district derbyshire united peak kingdom peacock queens fashioned
license: 0
latitude: 53.213981
longitude: -1.673629
accuracy: 16
views: 0
interestingness: 131 out of 243

photo: 6438378573 0756708064 7010
owner: 49812479@N00
title: Modernist buildings on Karl-Marx-Allee, Berlin
originalsecret: 09493037bd
originalformat: jpg
o_height: 3677
o_width: 2461
datetaken: 2011-09-16 11:59:59
dateupload: 1322776754
tags: building berlin architecture germany deutschland communist communism ddr bauhaus eastgermany karlmarxallee hansscharoun stalinallee friedrichshein
license: 0
latitude: 52.515979
longitude: 13.44998
accuracy: 16
views: 17
interestingness: 132 out of 243

photo: 6438375183 5d182e1ed2 7018
owner: 49812479@N00
title: Modernist buildings on Karl-Marx-Allee, Berlin
originalsecret: 1fb0e6e707
originalformat: jpg
o_height: 3741
o_width: 2504
datetaken: 2011-09-16 11:59:06
dateupload: 1322776709
tags: building berlin architecture germany deutschland communist communism ddr bauhaus eastgermany karlmarxallee hansscharoun stalinallee friedrichshein
license: 0
latitude: 52.515979
longitude: 13.44998
accuracy: 16
views: 20
interestingness: 133 out of 243

photo: 6438371569 46f0d13f33 7168
owner: 49812479@N00
title: Modernist buildings on Karl-Marx-Allee, Berlin
originalsecret: b9299ef481
originalformat: jpg
o_height: 2592
o_width: 3872
datetaken: 2011-09-16 11:57:21
dateupload: 1322776661
tags: building berlin architecture germany deutschland communist communism ddr bauhaus eastgermany karlmarxallee hansscharoun stalinallee friedrichshein
license: 0
latitude: 52.515979
longitude: 13.44998
accuracy: 16
views: 20
interestingness: 134 out of 243

photo: 6438367869 aa4e375a26 7169
owner: 49812479@N00
title: Modernist buildings on Karl-Marx-Allee, Berlin
originalsecret: a37f1bb69a
originalformat: jpg
o_height: 3705
o_width: 2480
datetaken: 2011-09-16 11:57:06
dateupload: 1322776613
tags: building berlin architecture germany deutschland communist communism ddr bauhaus eastgermany karlmarxallee hansscharoun stalinallee friedrichshein
license: 0
latitude: 52.515979
longitude: 13.44998
accuracy: 16
views: 10
interestingness: 135 out of 243

photo: 6438331537 57efa8ac38 7143
owner: 23020095@N02
title: IMG_6437
originalsecret: null
originalformat: null
o_height: null
o_width: null
datetaken: 2011-11-27 15:31:53
dateupload: 1322776162
tags: park portrait people castle fashion places marion schloss innsbruck ambras
license: 0
latitude: 47.256536
longitude: 11.434117
accuracy: 16
views: 13
interestingness: 136 out of 243

photo: 6438330633 4c09f78124 7145
owner: 23020095@N02
title: IMG_6429
originalsecret: null
originalformat: null
o_height: null
o_width: null
datetaken: 2011-11-27 15:27:05
dateupload: 1322776151
tags: park portrait people castle fashion places marion schloss innsbruck ambras
license: 0
latitude: 47.256536
longitude: 11.434117
accuracy: 16
views: 9
interestingness: 137 out of 243

photo: 6438330079 069c0afab7 7021
owner: 23020095@N02
title: IMG_6409
originalsecret: null
originalformat: null
o_height: null
o_width: null
datetaken: 2011-11-27 15:18:53
dateupload: 1322776144
tags: park portrait people castle fashion places marion schloss innsbruck ambras
license: 0
latitude: 47.256536
longitude: 11.434117
accuracy: 16
views: 9
interestingness: 138 out of 243

photo: 6438329409 6b721caf80 7021
owner: 23020095@N02
title: IMG_6405
originalsecret: null
originalformat: null
o_height: null
o_width: null
datetaken: 2011-11-27 15:11:36
dateupload: 1322776136
tags: park portrait people castle fashion places marion schloss innsbruck ambras
license: 0
latitude: 47.256536
longitude: 11.434117
accuracy: 16
views: 10
interestingness: 139 out of 243

photo: 6438328681 4b3ef3c6b2 7011
owner: 23020095@N02
title: IMG_6383
originalsecret: null
originalformat: null
o_height: null
o_width: null
datetaken: 2011-11-27 14:37:21
dateupload: 1322776127
tags: park portrait people castle fashion places marion schloss innsbruck ambras
license: 0
latitude: 47.256536
longitude: 11.434117
accuracy: 16
views: 10
interestingness: 140 out of 243

photo: 6437203261 6683e15a21 7168
owner: 25877284@N04
title: Somewhere Else Black
originalsecret: null
originalformat: null
o_height: null
o_width: null
datetaken: 2011-11-20 18:53:19
dateupload: 1322761177
tags: pictures uk wedding portrait white black colour sexy london girl fashion lady studio photography book design high model women shoot photographer post image low creative event commercial agency subject retouch cheap retouching thebest expencive usman affordable ervin verygood fashionphotographer alltypes potrfolio photographerinlondon commercialphotographerinlondon ervinusmancom wwwervinusmancouk wwwervinusmancom ervinusman centrelondonstudio testshootportfoilo eventphotographerinlondon fashionphotographerinlondon portfoliophotographerinlondon catalogphotographerinlondon
license: 0
latitude: 51.519558
longitude: -0.098426
accuracy: 15
views: 20
interestingness: 141 out of 243

photo: 6436543163 47f2bdc72e 7164
owner: 55819973@N05
title: Santa Claus 1881
originalsecret: b0e747a65e
originalformat: jpg
o_height: 300
o_width: 214
datetaken: 2011-12-01 10:12:21
dateupload: 1322752341
tags: santa old man love boston illustration hair toys eyes poem victorian clipart claus poets missed connections fashioned lovelorn
license: 4
latitude: 42.312561
longitude: -71.088676
accuracy: 11
views: 2
interestingness: 142 out of 243

photo: 6436399587 1ee5e3fd66 7012
owner: 45486878@N02
title: Murielle Scherre (la fille d'o) & Marie Lemaitre (oona)
originalsecret: 68baf67b2f
originalformat: jpg
o_height: 1497
o_width: 2239
datetaken: 2011-12-01 15:36:56
dateupload: 1322750216
tags: label oona desingel riverisland fashionblogs theblogworks
license: 0
latitude: 51.191783
longitude: 4.400507
accuracy: 15
views: 23
interestingness: 143 out of 243

photo: 6435853605 a8a0d61e45 7021
owner: 71453924@N00
title: old fashioned fries & ? #1005
originalsecret: 2d849b57e2
originalformat: jpg
o_height: 2400
o_width: 3200
datetaken: 2011-11-12 06:53:34
dateupload: 1322740678
tags: food breakfast geotagged izu ?? ?? mishima ?? ?? ??? westizu ??? shizuokaprefecture ??? hotelalpha1 geo:lat=3512547560092611 geo:lon=13891333327790983 ????????????
license: 1
latitude: 35.125475
longitude: 138.913333
accuracy: 16
views: 8
interestingness: 144 out of 243

photo: 6435759725 48a9059e2b 7174
owner: 41967161@N03
title: Felted Scarf Wrap
originalsecret: 1f8c0aafb8
originalformat: jpg
o_height: 5616
o_width: 3744
datetaken: 2011-12-01 13:19:45
dateupload: 1322738724
tags: wool fallcolor felting silk felt merino cobweb textile scarves fiber nuno feltscarf nunofelt feltedscarf fashionscarf earthycolor nunofeltedscarf womenscarf feltedpleasure marinashkolnik
license: 0
latitude: 55.610256
longitude: 37.579421
accuracy: 12
views: 22
interestingness: 145 out of 243

photo: 6435757513 027946f0eb 7004
owner: 41967161@N03
title: Felted Scarf Wrap
originalsecret: d8384b39a3
originalformat: jpg
o_height: 5616
o_width: 3744
datetaken: 2011-12-01 13:10:31
dateupload: 1322738677
tags: wool fallcolor felting silk felt merino cobweb textile scarves fiber nuno feltscarf nunofelt feltedscarf fashionscarf earthycolor nunofeltedscarf womenscarf feltedpleasure marinashkolnik
license: 0
latitude: 55.610256
longitude: 37.579421
accuracy: 12
views: 17
interestingness: 146 out of 243

photo: 6435755139 16e0534577 7035
owner: 41967161@N03
title: Felted Scarf Wrap
originalsecret: 3e0be0c117
originalformat: jpg
o_height: 3744
o_width: 5616
datetaken: 2011-12-01 13:32:11
dateupload: 1322738626
tags: wool fallcolor felting silk felt merino cobweb textile scarves fiber nuno feltscarf nunofelt feltedscarf fashionscarf earthycolor nunofeltedscarf womenscarf feltedpleasure marinashkolnik
license: 0
latitude: 55.610256
longitude: 37.579421
accuracy: 12
views: 18
interestingness: 147 out of 243

photo: 6435526209 57615a6139 7170
owner: 65509306@N03
title: Day 107: "Decline of the West" by Conor Harrington
originalsecret: null
originalformat: null
o_height: null
o_width: null
datetaken: 2011-12-01 09:57:15
dateupload: 1322733435
tags: streetart square mural squareformat brannan e1 manonhorse declineofthewest postgrafitti conorharrington shoreditchart iphoneography instagramapp uploaded:by=instagram fashionstreetgrafitti
license: 0
latitude: 51.518397
longitude: -0.073871
accuracy: 15
views: 36
interestingness: 148 out of 243

photo: 6435472887 3076d0f784 7001
owner: 32833276@N08
title: Tags fall winter 11/12
originalsecret: null
originalformat: null
o_height: null
o_width: null
datetaken: 2011-12-01 10:34:59
dateupload: 1322732099
tags: portrait italy rome roma fashion canon 50mm design glamour moda tags ritratto umbria catalogo lazio 135mm 2photographers terni abiti lookbook vestiti abbigliamento iyalia studiofotografico wwwalessandromarinet www2photographersit studiofotograficoterni
license: 0
latitude: 42.571655
longitude: 12.642766
accuracy: 15
views: 47
interestingness: 149 out of 243

photo: 6434678473 2807a2bb4e 7172
owner: 71159954@N04
title: Kenzo Fall/Winter 2006 Collection fashion show
originalsecret: null
originalformat: null
o_height: null
o_width: null
datetaken: 2006-10-07 04:03:26
dateupload: 1322715036
tags: show winter paris fall fashion james 2006 collection edward coco kenzo rocha
license: 0
latitude: 48.856918
longitude: 2.341209
accuracy: 11
views: 0
interestingness: 150 out of 243

photo: 6434275591 ca389fa46c 7145
owner: 49301380@N05
title: Tweed Run 2011
originalsecret: 2eedf68ee7
originalformat: jpg
o_height: 3242
o_width: 2315
datetaken: 2011-11-26 07:09:06
dateupload: 1322709100
tags: uk travel england people london fashion person style tweed ralphlauren tweedrun tweedrun2011
license: 0
latitude: 51.51193
longitude: -0.123424
accuracy: 16
views: 23
interestingness: 151 out of 243

photo: 6434265753 ea4a0a55ab 7143
owner: 49301380@N05
title: Tweed Run 2011
originalsecret: 4416940858
originalformat: jpg
o_height: 3147
o_width: 2519
datetaken: 2011-11-26 07:07:32
dateupload: 1322708952
tags: uk travel england people london fashion person style tweed ralphlauren tweedrun tweedrun2011
license: 0
latitude: 51.51193
longitude: -0.123424
accuracy: 16
views: 8
interestingness: 152 out of 243

photo: 6434263429 54df3af024 7015
owner: 49301380@N05
title: Tweed Run 2011
originalsecret: 68852eed24
originalformat: jpg
o_height: 1852
o_width: 1234
datetaken: 2011-11-26 07:06:56
dateupload: 1322708916
tags: uk travel england people london fashion person style tweed ralphlauren tweedrun tweedrun2011
license: 0
latitude: 51.51193
longitude: -0.123424
accuracy: 16
views: 4
interestingness: 153 out of 243

photo: 6434262109 f02e0c2343 7009
owner: 49301380@N05
title: Tweed Run 2011
originalsecret: f5d3551131
originalformat: jpg
o_height: 3028
o_width: 2424
datetaken: 2011-11-26 07:06:17
dateupload: 1322708898
tags: uk travel england people london fashion person style tweed ralphlauren tweedrun tweedrun2011
license: 0
latitude: 51.51193
longitude: -0.123424
accuracy: 16
views: 20
interestingness: 154 out of 243

photo: 6434259541 85df92b531 7151
owner: 49301380@N05
title: Tweed Run 2011
originalsecret: 27876a9c87
originalformat: jpg
o_height: 2930
o_width: 2344
datetaken: 2011-11-26 07:04:57
dateupload: 1322708860
tags: uk travel england people london fashion person style tweed ralphlauren tweedrun tweedrun2011
license: 0
latitude: 51.51193
longitude: -0.123424
accuracy: 16
views: 3
interestingness: 155 out of 243

photo: 6434257187 97709dfebc 7024
owner: 49301380@N05
title: Tweed Run 2011
originalsecret: 2500cb01bf
originalformat: jpg
o_height: 2557
o_width: 1704
datetaken: 2011-11-26 07:04:01
dateupload: 1322708825
tags: uk travel england people london fashion person style tweed ralphlauren tweedrun tweedrun2011
license: 0
latitude: 51.51193
longitude: -0.123424
accuracy: 16
views: 23
interestingness: 156 out of 243

photo: 6434255759 a06375a69f 7018
owner: 49301380@N05
title: Tweed Run 2011
originalsecret: 6642d43e95
originalformat: jpg
o_height: 2591
o_width: 3238
datetaken: 2011-11-26 07:03:34
dateupload: 1322708803
tags: uk travel england people london fashion person style tweed ralphlauren tweedrun tweedrun2011
license: 0
latitude: 51.51193
longitude: -0.123424
accuracy: 16
views: 4
interestingness: 157 out of 243

photo: 6434251561 026122231c 7019
owner: 49301380@N05
title: Tweedy Baby
originalsecret: e56701bb2d
originalformat: jpg
o_height: 3796
o_width: 2531
datetaken: 2011-11-26 07:02:42
dateupload: 1322708741
tags: uk travel england people london fashion person style tweed ralphlauren tweedrun tweedrun2011
license: 0
latitude: 51.51193
longitude: -0.123424
accuracy: 16
views: 23
interestingness: 158 out of 243

photo: 6434247261 5e1b7a56a2 7004
owner: 49301380@N05
title: Tweed Run 2011
originalsecret: 7b7497c990
originalformat: jpg
o_height: 3115
o_width: 2492
datetaken: 2011-11-26 07:00:36
dateupload: 1322708676
tags: uk travel england people london fashion person style tweed ralphlauren tweedrun tweedrun2011
license: 0
latitude: 51.51193
longitude: -0.123424
accuracy: 16
views: 10
interestingness: 159 out of 243

photo: 6434245065 4444300cfb 7153
owner: 49301380@N05
title: Tweed Run 2011
originalsecret: 81c9d2678c
originalformat: jpg
o_height: 3604
o_width: 2403
datetaken: 2011-11-26 07:00:14
dateupload: 1322708643
tags: uk travel england people london fashion person style tweed ralphlauren tweedrun tweedrun2011
license: 0
latitude: 51.51193
longitude: -0.123424
accuracy: 16
views: 10
interestingness: 160 out of 243

photo: 6434241753 684e587482 7011
owner: 49301380@N05
title: Tweed Run 2011
originalsecret: 476038ca09
originalformat: jpg
o_height: 2599
o_width: 1732
datetaken: 2011-11-26 07:00:09
dateupload: 1322708596
tags: uk travel england people london fashion person style tweed ralphlauren tweedrun tweedrun2011
license: 0
latitude: 51.51193
longitude: -0.123424
accuracy: 16
views: 4
interestingness: 161 out of 243

photo: 6434240649 62d6861d7a 7159
owner: 49301380@N05
title: Tweed Run 2011
originalsecret: 187828be0a
originalformat: jpg
o_height: 1886
o_width: 2357
datetaken: 2011-11-26 06:59:54
dateupload: 1322708580
tags: uk travel england people london fashion person style tweed ralphlauren tweedrun tweedrun2011
license: 0
latitude: 51.51193
longitude: -0.123424
accuracy: 16
views: 10
interestingness: 162 out of 243

photo: 6434233961 47b5a7f709 7018
owner: 49301380@N05
title: Tweed Run 2011
originalsecret: 9a72dce1ee
originalformat: jpg
o_height: 1662
o_width: 2078
datetaken: 2011-11-26 06:57:12
dateupload: 1322708481
tags: uk travel england people london fashion person style tweed ralphlauren tweedrun tweedrun2011
license: 0
latitude: 51.51193
longitude: -0.123424
accuracy: 16
views: 19
interestingness: 163 out of 243

photo: 6434232821 96628368eb 7028
owner: 49301380@N05
title: Tweed Run 2011
originalsecret: 5c6fcbbc90
originalformat: jpg
o_height: 2926
o_width: 2340
datetaken: 2011-11-26 06:56:45
dateupload: 1322708463
tags: uk travel england people london fashion person style tweed ralphlauren tweedrun tweedrun2011
license: 0
latitude: 51.51193
longitude: -0.123424
accuracy: 16
views: 14
interestingness: 164 out of 243

photo: 6434230597 e422c258d0 7020
owner: 49301380@N05
title: Tweed Run 2011
originalsecret: ecedbb8855
originalformat: jpg
o_height: 2331
o_width: 1864
datetaken: 2011-11-26 06:56:12
dateupload: 1322708429
tags: uk travel england people london fashion person style tweed ralphlauren tweedrun tweedrun2011
license: 0
latitude: 51.51193
longitude: -0.123424
accuracy: 16
views: 11
interestingness: 165 out of 243

photo: 6434228353 eea8a695f7 7144
owner: 49301380@N05
title: Vintage Mafia
originalsecret: 32e3e70339
originalformat: jpg
o_height: 2381
o_width: 1905
datetaken: 2011-11-26 06:55:12
dateupload: 1322708392
tags: uk travel england people london fashion person style tweed ralphlauren tweedrun tweedrun2011
license: 0
latitude: 51.51193
longitude: -0.123424
accuracy: 16
views: 11
interestingness: 166 out of 243

photo: 6434227695 1153b76336 7005
owner: 49301380@N05
title: Vintage Mafiosa
originalsecret: b0f395428b
originalformat: jpg
o_height: 2150
o_width: 2686
datetaken: 2011-11-26 06:55:02
dateupload: 1322708381
tags: uk travel england people london fashion person style tweed ralphlauren tweedrun tweedrun2011
license: 0
latitude: 51.51193
longitude: -0.123424
accuracy: 16
views: 9
interestingness: 167 out of 243

photo: 6434226361 a09ca5ea58 7006
owner: 49301380@N05
title: Vintage Mafiosa
originalsecret: d7a66275a7
originalformat: jpg
o_height: 3195
o_width: 2130
datetaken: 2011-11-26 06:54:57
dateupload: 1322708359
tags: uk travel england people london fashion person style tweed ralphlauren tweedrun tweedrun2011
license: 0
latitude: 51.51193
longitude: -0.123424
accuracy: 16
views: 7
interestingness: 168 out of 243

photo: 6434225961 5ca3f5cc12 7156
owner: 49441305@N05
title: Balmain Inspired
originalsecret: null
originalformat: null
o_height: null
o_width: null
datetaken: 2011-11-25 12:01:56
dateupload: 1322708352
tags: red toronto green girl fashion wall balcony inspired meredith balmain myphotos complementarycolours shrutiee
license: 0
latitude: 43.648559
longitude: -79.38533
accuracy: 11
views: 48
interestingness: 169 out of 243

photo: 6434224867 5c2538243a 7162
owner: 49301380@N05
title: Vintage Mafiosa
originalsecret: 933f5dc0ed
originalformat: jpg
o_height: 2163
o_width: 1731
datetaken: 2011-11-26 06:54:53
dateupload: 1322708334
tags: uk travel england people london fashion person style tweed ralphlauren tweedrun tweedrun2011
license: 0
latitude: 51.51193
longitude: -0.123424
accuracy: 16
views: 12
interestingness: 170 out of 243

photo: 6433742125 492e454179 7173
owner: 72098626@N00
title: Central Park Dance Skaters, Oct 2011 - 15
originalsecret: 41a3582004
originalformat: jpg
o_height: 2801
o_width: 4201
datetaken: 2011-10-23 15:26:58
dateupload: 1322701227
tags: newyork dancers mayor centralpark manhattan skate beret centralparkdanceskaters themayor danceskaters
license: 1
latitude: 40.773277
longitude: -73.971356
accuracy: 16
views: 19
interestingness: 171 out of 243

photo: 6433734899 d16df83274 7007
owner: 72098626@N00
title: Central Park Dance Skaters, Oct 2011 - 13
originalsecret: e658419ddd
originalformat: jpg
o_height: 2810
o_width: 4215
datetaken: 2011-10-23 15:24:11
dateupload: 1322701120
tags: newyork sunglasses scarf couple dancers dancing centralpark manhattan skate centralparkdanceskaters danceskaters
license: 1
latitude: 40.773277
longitude: -73.971356
accuracy: 16
views: 43
interestingness: 172 out of 243

photo: 6433724843 40eabba012 7019
owner: 72098626@N00
title: Central Park Dance Skaters, Oct 2011 - 11
originalsecret: 14416ee88c
originalformat: jpg
o_height: 4928
o_width: 3264
datetaken: 2011-10-23 15:19:53
dateupload: 1322700963
tags: newyork sunglasses dancers centralpark manhattan skate yellowshirt centralparkdanceskaters yellowclothes danceskaters
license: 1
latitude: 40.773277
longitude: -73.971356
accuracy: 16
views: 19
interestingness: 173 out of 243

photo: 6440066003 0da0b4ab90 7021
owner: 72098626@N00
title: Central Park Dance Skaters, Oct 2011 - 21
originalsecret: ab09073e63
originalformat: jpg
o_height: 3553
o_width: 2369
datetaken: 2011-10-23 15:31:58
dateupload: 1322803541
tags: newyork cane dancers centralpark manhattan skate earphones centralparkdanceskaters danceskaters
license: 1
latitude: 40.773333
longitude: -73.971334
accuracy: 16
views: 27
interestingness: 174 out of 243

photo: 6439645009 12d9e32f68 7025
owner: 31067552@N00
title: My grandmother gets her picture in the paper
originalsecret: ba3592e351
originalformat: png
o_height: 3000
o_width: 2142
datetaken: 1948-07-25 07:26:00
dateupload: 1322796362
tags: fashion wisconsin newspaper journal exposition 1940s milwaukee gowns durand
license: 1
latitude: 43.041809
longitude: -87.906837
accuracy: 11
views: 7
interestingness: 175 out of 243

photo: 6439123729 417b7f7af5 7158
owner: 71159954@N04
title: Looking down the runway at Rock & Republic
originalsecret: null
originalformat: null
o_height: null
o_width: null
datetaken: 2005-10-19 10:48:32
dateupload: 1322787585
tags: show fashion rock james los republic angeles style edward
license: 0
latitude: 34.053489
longitude: -118.245323
accuracy: 11
views: 0
interestingness: 176 out of 243

photo: 6437193393 e20d2fca97 7153
owner: 25877284@N04
title: Time to Skip a Day
originalsecret: null
originalformat: null
o_height: null
o_width: null
datetaken: 2011-11-20 18:55:58
dateupload: 1322761061
tags: pictures uk wedding portrait white black colour sexy london girl fashion lady studio photography book design high model women shoot photographer post image low creative event commercial agency subject retouch cheap retouching thebest expencive usman affordable ervin verygood fashionphotographer alltypes potrfolio photographerinlondon commercialphotographerinlondon ervinusmancom wwwervinusmancouk wwwervinusmancom ervinusman centrelondonstudio testshootportfoilo eventphotographerinlondon fashionphotographerinlondon portfoliophotographerinlondon catalogphotographerinlondon
license: 0
latitude: 51.519558
longitude: -0.098426
accuracy: 15
views: 35
interestingness: 177 out of 243

photo: 6436399035 9efbfca61d 7148
owner: 45486878@N02
title: focused
originalsecret: 9b45421d57
originalformat: jpg
o_height: 1446
o_width: 2236
datetaken: 2011-12-01 15:36:48
dateupload: 1322750208
tags: label oona desingel riverisland fashionblogs theblogworks
license: 0
latitude: 51.191851
longitude: 4.400271
accuracy: 15
views: 22
interestingness: 178 out of 243

photo: 6436398067 29a1d815b9 7023
owner: 45486878@N02
title: lace back
originalsecret: abff04f728
originalformat: jpg
o_height: 1498
o_width: 2239
datetaken: 2011-12-01 15:36:32
dateupload: 1322750192
tags: label oona desingel riverisland fashionblogs theblogworks
license: 0
latitude: 51.191965
longitude: 4.400635
accuracy: 15
views: 36
interestingness: 179 out of 243

photo: 6436396171 5871685eba 7143
owner: 45486878@N02
title: rapunzel
originalsecret: 037aa71a2b
originalformat: jpg
o_height: 1498
o_width: 2239
datetaken: 2011-12-01 15:36:05
dateupload: 1322750165
tags: label oona desingel riverisland fashionblogs theblogworks
license: 0
latitude: 51.191864
longitude: 4.400314
accuracy: 15
views: 21
interestingness: 180 out of 243

photo: 6434997145 53154bde8a 7018
owner: 35251830@N03
title: Bizco Art Magazine No.8, Mexico
originalsecret: null
originalformat: null
o_height: null
o_width: null
datetaken: 2011-12-01 08:30:06
dateupload: 1322721041
tags: light portrait people woman art texture textura film luz face wall vintage dark naked nude square photo pain mujer spain europa sitting venus sad skin personal body cut retrato contemporary traditional surreal retro eros hasselblad architect sit oldfashion faceless cropped concept minimalism conceptual anonymous drama seated serie israeli antiguo carrete dolor 120mm cuerpo brillo desnudo piel desnuda cuadrado 2011 mittelformat naamasarid ???????? nametor creaboom
license: 0
latitude: 19.469181
longitude: -99.190063
accuracy: 7
views: 125
interestingness: 181 out of 243

photo: 6433723915 076df66855 7157
owner: 49193077@N03
title: Love Me Some Fabulous Boots 157/365-11/30/11
originalsecret: 79edc2a405
originalformat: jpg
o_height: 600
o_width: 600
datetaken: 2011-11-30 16:55:18
dateupload: 1322700948
tags: brown love fashion shoes boots vincecamuto hipstamatic inas1935film hornbeckerlens
license: 0
latitude: 33.701333
longitude: -117.767334
accuracy: 16
views: 19
interestingness: 182 out of 243

photo: 6439996493 83f4f245c5 7166
owner: 72098626@N00
title: Central Park Dance Skaters, Oct 2011 - 29
originalsecret: 4b6cef0623
originalformat: jpg
o_height: 2936
o_width: 4405
datetaken: 2011-10-23 15:40:38
dateupload: 1322802270
tags: newyork sunglasses dancers centralpark manhattan skate centralparkdanceskaters danceskaters
license: 1
latitude: 40.773333
longitude: -73.971334
accuracy: 16
views: 20
interestingness: 183 out of 243

photo: 6439283047 0ab495e6b0 7158
owner: 25692594@N02
title: Monique
originalsecret: null
originalformat: null
o_height: null
o_width: null
datetaken: 2011-12-01 19:43:02
dateupload: 1322790182
tags: woman beautiful fashion editorial brunette
license: 0
latitude: 27.468983
longitude: -82.682762
accuracy: 16
views: 30
interestingness: 184 out of 243

photo: 6437239969 c4e704e7f9 7002
owner: 25877284@N04
title: Time to Skip a Day
originalsecret: null
originalformat: null
o_height: null
o_width: null
datetaken: 2011-11-20 18:55:58
dateupload: 1322761653
tags: pictures uk wedding portrait white black colour sexy london girl fashion lady studio photography book design high model women shoot photographer post image low creative event commercial agency subject retouch cheap retouching thebest expencive usman affordable ervin verygood fashionphotographer alltypes potrfolio photographerinlondon commercialphotographerinlondon ervinusmancom wwwervinusmancouk wwwervinusmancom ervinusman centrelondonstudio testshootportfoilo eventphotographerinlondon fashionphotographerinlondon portfoliophotographerinlondon catalogphotographerinlondon
license: 0
latitude: 51.519558
longitude: -0.098426
accuracy: 15
views: 38
interestingness: 185 out of 243

photo: 6437048245 1c3a884220 7007
owner: 47703630@N00
title: Miss Giulia
originalsecret: null
originalformat: null
o_height: null
o_width: null
datetaken: 2011-11-13 13:26:34
dateupload: 1322759165
tags: winter woman roma beauty donna model italia photobook blonde inverno classy modella fashionbeautyblondeclassydonnainvernomodelmodellaphotobookwinterwomanromaitalia
license: 3
latitude: 41.802336
longitude: 12.432746
accuracy: 13
views: 30
interestingness: 186 out of 243

photo: 6437044929 9b6d9c8d8f 7155
owner: 47703630@N00
title: Miss Giulia
originalsecret: null
originalformat: null
o_height: null
o_width: null
datetaken: 2011-11-13 14:19:30
dateupload: 1322759122
tags: winter woman roma beauty donna model italia photobook blonde inverno classy modella fashionbeautyblondeclassydonnainvernomodelmodellaphotobookwinterwomanromaitalia
license: 3
latitude: 41.802336
longitude: 12.432746
accuracy: 13
views: 32
interestingness: 187 out of 243

photo: 6437041237 a254d5cb6a 7014
owner: 47703630@N00
title: Soft Airy Bird
originalsecret: null
originalformat: null
o_height: null
o_width: null
datetaken: 2011-11-13 16:16:22
dateupload: 1322759072
tags: winter woman roma beauty donna model italia photobook blonde inverno classy modella fashionbeautyblondeclassydonnainvernomodelmodellaphotobookwinterwomanromaitalia
license: 3
latitude: 41.802336
longitude: 12.432746
accuracy: 13
views: 29
interestingness: 188 out of 243

photo: 6437037361 f1337072d1 7034
owner: 47703630@N00
title: The Sauvage Bird
originalsecret: null
originalformat: null
o_height: null
o_width: null
datetaken: 2011-11-13 16:16:22
dateupload: 1322759016
tags: winter woman roma beauty donna model italia photobook blonde inverno classy modella fashionbeautyblondeclassydonnainvernomodelmodellaphotobookwinterwomanromaitalia
license: 3
latitude: 41.802336
longitude: 12.432746
accuracy: 13
views: 27
interestingness: 189 out of 243

photo: 6436399297 1e1ab260a9 7008
owner: 45486878@N02
title: lovely Karen & Alexandra Vanthournhout
originalsecret: 61450f2b66
originalformat: jpg
o_height: 1498
o_width: 2239
datetaken: 2011-12-01 15:36:52
dateupload: 1322750212
tags: label oona desingel riverisland fashionblogs theblogworks
license: 0
latitude: 51.191615
longitude: 4.400485
accuracy: 15
views: 21
interestingness: 190 out of 243

photo: 6436243527 f2ceb0574b 7015
owner: 58628677@N00
title: Mia Lopez 05
originalsecret: null
originalformat: null
o_height: null
o_width: null
datetaken: 2011-11-30 17:02:58
dateupload: 1322747877
tags: model mia android gma7 germanmoreno googleandroid mialopez canoneoskissx4 dellstreak7 dwarfina walangtulugan
license: 0
latitude: 14.500229
longitude: 120.992912
accuracy: 11
views: 43
interestingness: 191 out of 243

photo: 6434314949 ee9f28aec2 7164
owner: 57048124@N02
title: 
originalsecret: feb7aa8104
originalformat: jpg
o_height: 3456
o_width: 5184
datetaken: 2011-11-30 14:44:08
dateupload: 1322709685
tags: station boston train t stop 365 boylstonstreet littlebuilding
license: 0
latitude: 42.35245
longitude: -71.06458
accuracy: 16
views: 51
interestingness: 192 out of 243

photo: 6433739041 5a775e9e9c 7005
owner: 72098626@N00
title: Central Park Dance Skaters, Oct 2011 - 14
originalsecret: 540197190c
originalformat: jpg
o_height: 4431
o_width: 2795
datetaken: 2011-10-23 15:25:40
dateupload: 1322701181
tags: newyork sunglasses dancers centralpark manhattan skate centralparkdanceskaters danceskaters
license: 1
latitude: 40.773277
longitude: -73.971356
accuracy: 16
views: 18
interestingness: 193 out of 243

photo: 6433730873 42f97a7698 7006
owner: 72098626@N00
title: Central Park Dance Skaters, Oct 2011 - 12
originalsecret: 3951b8671f
originalformat: jpg
o_height: 4928
o_width: 3264
datetaken: 2011-10-23 15:22:43
dateupload: 1322701055
tags: newyork dancers centralpark manhattan helmet skate centralparkdanceskaters danceskaters
license: 1
latitude: 40.773277
longitude: -73.971356
accuracy: 16
views: 26
interestingness: 194 out of 243

photo: 6439493605 a9cbcf0092 7162
owner: 32810914@N03
title: Studio Work, November 2011
originalsecret: null
originalformat: null
o_height: null
o_width: null
datetaken: 2011-11-27 18:19:43
dateupload: 1322793965
tags: nyc ny fashion studio glamour photoshoot longislandcity
license: 0
latitude: 40.763259
longitude: -73.940173
accuracy: 16
views: 11
interestingness: 195 out of 243

photo: 6438973931 1d1af05b2a 7009
owner: 49431171@N00
title: VG4
originalsecret: null
originalformat: null
o_height: null
o_width: null
datetaken: 2011-11-28 21:16:01
dateupload: 1322785222
tags: fashion vintage fun model glamour nikon katy telephone retro 1940s 1950s tamron banbury d5000
license: 0
latitude: 52.061178
longitude: -1.337767
accuracy: 16
views: 40
interestingness: 196 out of 243

photo: 6438794711 5f7670c760 7028
owner: 71124079@N07
title: Olga 2
originalsecret: c6f7c7b686
originalformat: jpg
o_height: 600
o_width: 351
datetaken: 2011-12-01 23:26:56
dateupload: 1322782476
tags: girls portrait hot beauty fashion lady model posing commercial stunning editorial femalemodel fashionshoot nexttopmodel
license: 0
latitude: 53.340303
longitude: -8.948192
accuracy: 12
views: 0
interestingness: 197 out of 243

photo: 6438794249 224d8c3aaf 7155
owner: 71124079@N07
title: Olga 3
originalsecret: d36562e53b
originalformat: jpg
o_height: 600
o_width: 362
datetaken: 2011-12-01 23:34:29
dateupload: 1322782469
tags: girls portrait hot beauty fashion lady model posing commercial stunning editorial femalemodel fashionshoot nexttopmodel
license: 0
latitude: 53.340303
longitude: -8.948192
accuracy: 12
views: 2
interestingness: 198 out of 243

photo: 6438793889 7fb4eb9db6 7028
owner: 71124079@N07
title: Olga 4
originalsecret: ab68fa6ae5
originalformat: jpg
o_height: 600
o_width: 381
datetaken: 2011-12-01 23:34:24
dateupload: 1322782464
tags: girls portrait hot beauty fashion lady model posing commercial stunning editorial femalemodel fashionshoot nexttopmodel
license: 0
latitude: 53.340303
longitude: -8.948192
accuracy: 12
views: 0
interestingness: 199 out of 243

photo: 6438750651 22a3d59436 7160
owner: 71124079@N07
title: Iwona
originalsecret: ec6ecdd8f0
originalformat: jpg
o_height: 600
o_width: 399
datetaken: 2011-11-20 15:57:24
dateupload: 1322781825
tags: girls portrait hot beauty fashion lady model posing commercial stunning editorial femalemodel fashionshoot nexttopmodel
license: 0
latitude: 53.470014
longitude: -9.105949
accuracy: 12
views: 1
interestingness: 200 out of 243

photo: 6438750393 29dbb30958 7005
owner: 71124079@N07
title: June
originalsecret: c55b82c512
originalformat: jpg
o_height: 600
o_width: 424
datetaken: 2011-11-06 14:34:40
dateupload: 1322781821
tags: girls portrait hot beauty fashion lady model posing commercial stunning editorial femalemodel fashionshoot nexttopmodel
license: 0
latitude: 54.108729
longitude: -9.162254
accuracy: 12
views: 0
interestingness: 201 out of 243

photo: 6438750099 957b0dd064 7008
owner: 71124079@N07
title: Malwina 1
originalsecret: c2515b2337
originalformat: jpg
o_height: 550
o_width: 365
datetaken: 2011-10-31 15:32:15
dateupload: 1322781816
tags: girls portrait hot beauty fashion lady model posing commercial stunning editorial femalemodel fashionshoot nexttopmodel
license: 0
latitude: 53.283074
longitude: -9.034881
accuracy: 12
views: 2
interestingness: 202 out of 243

photo: 6438749873 8302884014 7175
owner: 71124079@N07
title: Malwina 2
originalsecret: 8ab74ca307
originalformat: jpg
o_height: 600
o_width: 399
datetaken: 2011-10-31 15:22:41
dateupload: 1322781813
tags: girls portrait hot beauty fashion lady model posing commercial stunning editorial femalemodel fashionshoot nexttopmodel
license: 0
latitude: 53.283074
longitude: -9.034881
accuracy: 12
views: 0
interestingness: 203 out of 243

photo: 6438749605 fe8f9c717d 7002
owner: 71124079@N07
title: Malwina 3
originalsecret: 2c8e7c9de9
originalformat: jpg
o_height: 600
o_width: 399
datetaken: 2011-10-31 15:06:54
dateupload: 1322781808
tags: girls portrait hot beauty fashion lady model posing commercial stunning editorial femalemodel fashionshoot nexttopmodel
license: 0
latitude: 53.283074
longitude: -9.034881
accuracy: 12
views: 1
interestingness: 204 out of 243

photo: 6438749425 4f799b28a4 7169
owner: 71124079@N07
title: Swish
originalsecret: 7d3584c141
originalformat: jpg
o_height: 600
o_width: 437
datetaken: 2011-10-02 12:17:36
dateupload: 1322781805
tags: girls portrait hot beauty fashion lady model posing commercial stunning editorial femalemodel swish fashionshoot nexttopmodel
license: 0
latitude: 53.283074
longitude: -9.034881
accuracy: 12
views: 0
interestingness: 205 out of 243

photo: 6438749191 74a0602c02 7164
owner: 71124079@N07
title: Autumn leaves
originalsecret: f58b21b1dd
originalformat: jpg
o_height: 465
o_width: 700
datetaken: 2011-09-24 14:54:10
dateupload: 1322781801
tags: girls portrait hot beauty fashion lady model posing commercial stunning editorial femalemodel fashionshoot nexttopmodel
license: 0
latitude: 53.283074
longitude: -9.034881
accuracy: 12
views: 0
interestingness: 206 out of 243

photo: 6438748909 d878298c41 7173
owner: 71124079@N07
title: Cara
originalsecret: e81a647b25
originalformat: jpg
o_height: 600
o_width: 416
datetaken: 2011-12-01 23:23:17
dateupload: 1322781797
tags: girls portrait hot beauty fashion lady model posing commercial stunning editorial femalemodel fashionshoot nexttopmodel
license: 0
latitude: 53.283074
longitude: -9.034881
accuracy: 12
views: 1
interestingness: 207 out of 243

photo: 6437052679 4ff02b5e04 7154
owner: 47703630@N00
title: Miss Giulia
originalsecret: null
originalformat: null
o_height: null
o_width: null
datetaken: 2011-11-13 13:13:41
dateupload: 1322759223
tags: winter woman roma beauty donna model italia photobook blonde inverno classy modella fashionbeautyblondeclassydonnainvernomodelmodellaphotobookwinterwomanromaitalia
license: 3
latitude: 41.802336
longitude: 12.432746
accuracy: 13
views: 30
interestingness: 208 out of 243

photo: 6436399893 8d3974214a 7174
owner: 45486878@N02
title: branded walls
originalsecret: bd483bf5a1
originalformat: jpg
o_height: 1498
o_width: 2239
datetaken: 2011-12-01 15:37:02
dateupload: 1322750222
tags: label oona desingel riverisland fashionblogs theblogworks
license: 0
latitude: 51.19183
longitude: 4.400936
accuracy: 15
views: 24
interestingness: 209 out of 243

photo: 6436398733 646c36dcce 7167
owner: 45486878@N02
title: Emma & Stephanie
originalsecret: 889c99c7af
originalformat: jpg
o_height: 1498
o_width: 2239
datetaken: 2011-12-01 15:36:43
dateupload: 1322750203
tags: label oona desingel riverisland fashionblogs theblogworks
license: 0
latitude: 51.191925
longitude: 4.400442
accuracy: 15
views: 20
interestingness: 210 out of 243

photo: 6436398435 f5ff0e3b6c 7001
owner: 45486878@N02
title: Stephanie & Marie
originalsecret: a78863ccf9
originalformat: jpg
o_height: 1489
o_width: 2168
datetaken: 2011-12-01 15:36:38
dateupload: 1322750198
tags: label oona desingel riverisland fashionblogs theblogworks
license: 0
latitude: 51.191488
longitude: 4.400635
accuracy: 15
views: 18
interestingness: 211 out of 243

photo: 6436397757 873aba9023 7016
owner: 45486878@N02
title: serious business
originalsecret: f9f3e2c2ea
originalformat: jpg
o_height: 1439
o_width: 2203
datetaken: 2011-12-01 15:36:27
dateupload: 1322750187
tags: label oona desingel riverisland fashionblogs theblogworks
license: 0
latitude: 51.191461
longitude: 4.400657
accuracy: 15
views: 19
interestingness: 212 out of 243

photo: 6436397207 df88e9bcbd 7030
owner: 45486878@N02
