
mintime: 1322697600 maxtime: 1322711996.48
numimgs: 276
total pages: 2
visiting only 2 pages ( up to 500 images)
photo: 6433992289 14922a5dd7 7173
owner: 57658744@N08
title: Fort Myers
originalsecret: 88e103b619
originalformat: jpg
o_height: 4045
o_width: 2746
datetaken: 2011-11-21 17:59:47
dateupload: 1322704931
tags: mygearandme mygearandmepremium mygearandmebronze mygearandmesilver mygearandmegold mygearandmeplatinum
license: 0
latitude: 26.641781
longitude: -81.874237
accuracy: 11
views: 1233
interestingness: 1 out of 276

photo: 6434184249 78be2520fa 7013
owner: 62681682@N07
title: bright blue
originalsecret: 49283d1456
originalformat: jpg
o_height: 926
o_width: 808
datetaken: 2011-11-14 22:07:12
dateupload: 1322707676
tags: black flight bif skimmers
license: 0
latitude: 28.153135
longitude: -82.790222
accuracy: 10
views: 117
interestingness: 2 out of 276

photo: 6434429187 6cf6112b14 7006
owner: 7370135@N03
title: 166/365- Birds and branches
originalsecret: null
originalformat: null
o_height: null
o_width: null
datetaken: 2011-11-30 22:49:03
dateupload: 1322711343
tags: sky cloud bird birds clouds photography florida cloudy o branches darkclouds matic apps group3 iphone cwd project365 i365 iphone4 takeaclasswithdaveanddave pixlr iphonography elineart elineartphotography birdsandbranches iphone365 snapseed cwd2511 cwd2511~birdorbirds
license: 0
latitude: 26.272489
longitude: -80.253059
accuracy: 11
views: 109
interestingness: 3 out of 276

photo: 6434320571 968d009686 7152
owner: 7370135@N03
title: 165/365- Light at the end
originalsecret: null
originalformat: null
o_height: null
o_width: null
datetaken: 2011-11-30 22:22:55
dateupload: 1322709775
tags: light blackandwhite bw white black photography florida photos o theend tunnel end matic apps group3 iphone odc project365 blackwhitephotos lightattheend i365 iphone4 pixlr iphonography elineart elineartphotography iphone365 ourdailychallenge snapseed
license: 0
latitude: 26.272489
longitude: -80.253059
accuracy: 11
views: 86
interestingness: 4 out of 276

photo: 6434121745 2bb4a75465 7034
owner: 42786185@N06
title: Little Horns ~ Quinta Flower 67
originalsecret: 308c14a258
originalformat: jpg
o_height: 3627
o_width: 2587
datetaken: 2011-11-02 14:52:29
dateupload: 1322706784
tags: orchid flower nature beauty closeup different natural horns exotic grouping aos americanorchidsociety middlefocus delraybeachflorida littlehorns
license: 0
latitude: 26.430036
longitude: -80.154275
accuracy: 15
views: 70
interestingness: 5 out of 276

photo: 6434236699 1285bcf807 7143
owner: 55595779@N00
title: Miami, FL
originalsecret: null
originalformat: null
o_height: null
o_width: null
datetaken: 2011-11-23 12:32:40
dateupload: 1322708524
tags: street urban color car landscape florida miami convertible structure bmw dade 328i contemporarylandscape
license: 0
latitude: 25.79595
longitude: -80.19689
accuracy: 13
views: 83
interestingness: 6 out of 276

photo: 6434121767 112635cbde 7005
owner: 42786185@N06
title: Dancing Gulls
originalsecret: 61e3afd2a8
originalformat: jpg
o_height: 1611
o_width: 1385
datetaken: 2011-11-24 18:46:46
dateupload: 1322706784
tags: thanksgiving sunset sun seagulls holiday nature beauty sailboat fun unitedstates florida sails atlanticocean floridakeys boozecruise southflorida pirateship sailship charters sunsetcruise perfectweather endofseries islandchain keywestharbor
license: 0
latitude: 24.558394
longitude: -81.80805
accuracy: 16
views: 44
interestingness: 7 out of 276

photo: 6434121775 8b47aab2de 7001
owner: 42786185@N06
title: Blue Sky Cover
originalsecret: f012335fb7
originalformat: jpg
o_height: 3000
o_width: 4000
datetaken: 2011-11-24 18:19:23
dateupload: 1322706784
tags: thanksgiving sunset sun seagulls holiday nature beauty sailboat fun unitedstates florida sails bluesky atlanticocean floridakeys boozecruise southflorida pirateship sailship charters sunsetcruise perfectweather islandchain keywestharbor
license: 0
latitude: 24.558394
longitude: -81.80805
accuracy: 16
views: 40
interestingness: 8 out of 276

photo: 6434384401 7446b8353c 7029
owner: 50297990@N00
title: Riggs and Pulley Shoot
originalsecret: 794b90f3cd
originalformat: jpg
o_height: 1488
o_width: 2240
datetaken: 2011-11-20 19:23:24
dateupload: 1322710710
tags: nikon d3 speedotron bradentonbeachflorida
license: 0
latitude: 27.459996
longitude: -82.695808
accuracy: 11
views: 130
interestingness: 9 out of 276

photo: 6434399123 317c173bde 7005
owner: 12185056@N02
title: Female Red-winged Blackbird
originalsecret: null
originalformat: null
o_height: null
o_width: null
datetaken: 2011-11-19 08:04:00
dateupload: 1322710917
tags: usa nature birds florida wildlife aves wellington northamerica blackbirds sanctuary songbirds palmbeachcounty redwingedblackbird agelaiusphoeniceus icteridae passeriformes 6076 peacefulwaters
license: 0
latitude: 26.632805
longitude: -80.235385
accuracy: 14
views: 39
interestingness: 10 out of 276

photo: 6433623751 1ea19e8d31 7008
owner: 39052018@N08
title: Northern Pintail (Female)
originalsecret: 192eaffb26
originalformat: jpg
o_height: 1819
o_width: 2899
datetaken: 2011-11-30 12:30:56
dateupload: 1322699462
tags: bird nature birds animals florida wildlife centralflorida merrittislandnationalwildliferefuge
license: 0
latitude: 28.664683
longitude: -80.77275
accuracy: 14
views: 82
interestingness: 11 out of 276

photo: 6434121751 52bfaae25a 7022
owner: 42786185@N06
title: Battle Positions
originalsecret: cb894394de
originalformat: jpg
o_height: 2106
o_width: 2235
datetaken: 2011-11-24 18:11:18
dateupload: 1322706784
tags: thanksgiving sunset sun seagulls holiday nature beauty sailboat fun unitedstates florida flag sails atlanticocean floridakeys boozecruise southflorida pirateship skullandcrossbones sailship charters sunsetcruise redsails perfectweather islandchain jollyrover keywestharbor
license: 0
latitude: 24.558394
longitude: -81.80805
accuracy: 16
views: 27
interestingness: 12 out of 276

photo: 6434121757 61f58c2dfb 7159
owner: 42786185@N06
title: Jet Ski Meeting
originalsecret: 9431ee2035
originalformat: jpg
o_height: 2439
o_width: 2860
datetaken: 2011-11-24 18:03:43
dateupload: 1322706784
tags: thanksgiving sunset sun seagulls holiday nature beauty sailboat fun unitedstates florida sails atlanticocean floridakeys boozecruise southflorida pirateship sailship charters sunsetcruise perfectweather jetskiis islandchain keywestharbor
license: 0
latitude: 24.558394
longitude: -81.80805
accuracy: 16
views: 32
interestingness: 13 out of 276

photo: 6433999859 7288216573 7160
owner: 45217757@N03
title: Who are you looking at?
originalsecret: e60310f31f
originalformat: jpg
o_height: 1219
o_width: 1004
datetaken: 2011-11-25 07:57:46
dateupload: 1322705046
tags: florida pelican fl passagrille stpetebeach nikkor1424f28g nikond7000
license: 0
latitude: 27.687188
longitude: -82.736095
accuracy: 16
views: 44
interestingness: 14 out of 276

photo: 6434385177 bf28323b12 7148
owner: 27429042@N08
title: Golden Everest
originalsecret: 8d132e567c
originalformat: jpg
o_height: 3074
o_width: 2049
datetaken: 2011-12-01 16:50:57
dateupload: 1322710722
tags: world expedition animal orlando asia florida kingdom disney disneyworld rollercoaster waltdisneyworld walt everest animalkingdom disneysanimalkingdom expeditioneverest disneys disneymountain
license: 0
latitude: 28.358455
longitude: -81.586382
accuracy: 15
views: 54
interestingness: 15 out of 276

photo: 6434121761 e0dbb42681 7165
owner: 42786185@N06
title: Sunset Pass
originalsecret: 508d4ed701
originalformat: jpg
o_height: 1679
o_width: 1655
datetaken: 2011-11-24 18:03:31
dateupload: 1322706784
tags: thanksgiving sunset sun seagulls holiday nature beauty sailboat fun unitedstates florida sails atlanticocean floridakeys boozecruise southflorida pirateship sailship charters sunsetcruise perfectweather islandchain keywestharbor
license: 0
latitude: 24.558394
longitude: -81.80805
accuracy: 16
views: 27
interestingness: 16 out of 276

photo: 6433540555 deaa95feb2 7161
owner: 25781684@N03
title: Eurasian Wigeon
originalsecret: null
originalformat: null
o_height: null
o_width: null
datetaken: 2011-11-30 19:03:18
dateupload: 1322698170
tags: november black nature birds 30 point island marcus florida birding ducks migration eurasian merritt wigeon sharpe 2011
license: 0
latitude: 28.663794
longitude: -80.7725
accuracy: 14
views: 321
interestingness: 17 out of 276

photo: 6433739013 7180eed9aa 7154
owner: 66823806@N00
title: ich bin coconut
originalsecret: null
originalformat: null
o_height: null
o_width: null
datetaken: 2011-11-12 17:10:09
dateupload: 1322701180
tags: eos florida coconut german 5d keywest kews ichbin jengine
license: 0
latitude: 24.561029
longitude: -81.803555
accuracy: 16
views: 32
interestingness: 18 out of 276

photo: 6433797235 28239b31ce 7030
owner: 25781684@N03
title: Red-breasted Merganser
originalsecret: null
originalformat: null
o_height: null
o_width: null
datetaken: 2011-11-30 20:11:43
dateupload: 1322702044
tags: november nature birds island duck marcus birding 20 migration merritt redbreasted merganser sharpe 2011
license: 0
latitude: 28.625886
longitude: -80.792884
accuracy: 14
views: 47
interestingness: 19 out of 276

photo: 6434262923 8704f8402d 7141
owner: 34703628@N00
title: Fall Arrives in Florida....
originalsecret: null
originalformat: null
o_height: null
o_width: null
datetaken: 2011-11-26 14:46:50
dateupload: 1322708909
tags: 
license: 0
latitude: 28.178257
longitude: -81.985774
accuracy: 13
views: 14
interestingness: 20 out of 276

photo: 6433625607 2735da5b1b 7026
owner: 38514062@N03
title: Common Buckeye (Junonia coenia) on Christmasberry (Lycium caroliniana) with Metallic Green Bee (Agapostemon sp.)
originalsecret: a95d93b8c1
originalformat: jpg
o_height: 768
o_width: 960
datetaken: 2011-11-24 12:15:29
dateupload: 1322699490
tags: centralflorida taxonomy:binomial=junoniacoenia marykeim
license: 1
latitude: 28.679142
longitude: -80.765647
accuracy: 13
views: 11
interestingness: 21 out of 276

photo: 6434194991 d6a986243b 7155
owner: 8846309@N05
title: Willet
originalsecret: a9b54c26c1
originalformat: jpg
o_height: 683
o_width: 1024
datetaken: 2011-11-30 17:57:57
dateupload: 1322707845
tags: florida stpetes willet
license: 0
latitude: 27.730033
longitude: -82.746791
accuracy: 14
views: 57
interestingness: 22 out of 276

photo: 6433891473 97fc51ee8b 7022
owner: 46377761@N08
title: Basic Photo Fall 2011
originalsecret: null
originalformat: null
o_height: null
o_width: null
datetaken: 2011-11-30 20:41:42
dateupload: 1322703424
tags: students florida tallahassee classportrait photostudents tallahasseecommunitycollege
license: 0
latitude: 30.438758
longitude: -84.280242
accuracy: 11
views: 25
interestingness: 23 out of 276

photo: 6433623065 172a00e259 7024
owner: 38514062@N03
title: Christmasberry (Lycium carolinianum)
originalsecret: 94eb209ea3
originalformat: jpg
o_height: 768
o_width: 614
datetaken: 2011-11-24 12:09:33
dateupload: 1322699451
tags: centralflorida marykeim taxonomy:binomial=lyciumcarolinianum
license: 1
latitude: 28.679142
longitude: -80.765647
accuracy: 13
views: 8
interestingness: 24 out of 276

photo: 6433621907 afec2b47e0 7023
owner: 39052018@N08
title: Short-billed Dowitcher - Limnodromus griseus
originalsecret: 4e4650b91b
originalformat: jpg
o_height: 2093
o_width: 3469
datetaken: 2011-11-30 11:47:01
dateupload: 1322699434
tags: bird nature birds animals florida wildlife centralflorida limnodromusgriseus shortbilleddowitcher merrittislandnationalwildliferefuge
license: 0
latitude: 28.650731
longitude: -80.796911
accuracy: 14
views: 17
interestingness: 25 out of 276

photo: 6433729897 b75438613c 7154
owner: 22224184@N00
title: It's Magic!
originalsecret: 273125500e
originalformat: jpg
o_height: 2304
o_width: 3072
datetaken: 2011-11-04 12:05:28
dateupload: 1322701039
tags: orlando florida harrypotter universalstudios hogwarts islandsofadventure
license: 0
latitude: 28.47318
longitude: -81.47278
accuracy: 16
views: 9
interestingness: 26 out of 276

photo: 6433736261 aa3508ab3f 7163
owner: 22224184@N00
title: Jurassic Park
originalsecret: c9230e57f0
originalformat: jpg
o_height: 2304
o_width: 3072
datetaken: 2011-11-04 12:13:33
dateupload: 1322701141
tags: orlando florida universalstudios jurassicpark islandsofadventure
license: 0
latitude: 28.472001
longitude: -81.473219
accuracy: 16
views: 9
interestingness: 27 out of 276

photo: 6433998135 d113c15e23 7001
owner: 38514062@N03
title: Florida Viceroy (Limenitis archippus floridensis)
originalsecret: 2b3e3da165
originalformat: jpg
o_height: 768
o_width: 615
datetaken: 2011-11-26 10:20:51
dateupload: 1322705020
tags: centralflorida marykeim taxonomy:trinomial=limenitisarchippusfloridensis
license: 1
latitude: 28.528517
longitude: -81.096568
accuracy: 16
views: 7
interestingness: 28 out of 276

photo: 6434125283 673ecba4a2 7172
owner: 57835821@N00
title: Rosemary Beach
originalsecret: 2628c59222
originalformat: jpg
o_height: 3456
o_width: 4608
datetaken: 2011-11-26 10:49:31
dateupload: 1322706835
tags: park fountain florida fl newurbanism rosemarybeach pocketpark traditionalneighborhood
license: 0
latitude: 30.281889
longitude: -86.014006
accuracy: 16
views: 18
interestingness: 29 out of 276

photo: 6433997929 143c280d72 7144
owner: 38514062@N03
title: Pink Sundew (Drosera capillaris)
originalsecret: c69c46dd10
originalformat: jpg
o_height: 768
o_width: 960
datetaken: 2011-11-26 13:27:44
dateupload: 1322705017
tags: centralflorida marykeim taxonomy:binomial=droseracapillaris
license: 1
latitude: 28.52665
longitude: -81.094728
accuracy: 16
views: 8
interestingness: 30 out of 276

photo: 6433743181 dbbabf583b 7033
owner: 22224184@N00
title: The Cat In The Hat
originalsecret: f501784672
originalformat: jpg
o_height: 2764
o_width: 2073
datetaken: 2011-11-04 13:15:23
dateupload: 1322701242
tags: orlando florida universalstudios drseuss catinthehat islandsofadventure
license: 0
latitude: 28.472784
longitude: -81.469175
accuracy: 16
views: 10
interestingness: 31 out of 276

photo: 6433728905 735289247c 7166
owner: 22224184@N00
title: It's Magic!
originalsecret: 25bf3f4cdd
originalformat: jpg
o_height: 2304
o_width: 3072
datetaken: 2011-11-04 12:05:28
dateupload: 1322701023
tags: orlando florida harrypotter universalstudios hogwarts islandsofadventure
license: 0
latitude: 28.47318
longitude: -81.47278
accuracy: 16
views: 4
interestingness: 32 out of 276

photo: 6433998785 ebc6eb7b03 7173
owner: 38514062@N03
title: White Peacock (Anartia jatrophae)
originalsecret: 127b038516
originalformat: jpg
o_height: 768
o_width: 1075
datetaken: 2011-11-26 09:58:58
dateupload: 1322705029
tags: centralflorida marykeim taxonomy:binomial=anartiajatrophae
license: 1
latitude: 28.528517
longitude: -81.096568
accuracy: 16
views: 9
interestingness: 33 out of 276

photo: 6433759237 221b7f4db4 7008
owner: 58871905@N03
title: 
originalsecret: null
originalformat: null
o_height: null
o_width: null
datetaken: 2011-11-30 13:20:32
dateupload: 1322701483
tags: christmas sky concrete florida decoration overcast pole wires palmtree squareformat dunedin candycane consumerism causeway pinellascounty dnomcmlxvii
license: 4
latitude: 28.050271
longitude: -82.782191
accuracy: 16
views: 10
interestingness: 34 out of 276

photo: 6433740249 175062edb4 7148
owner: 22224184@N00
title: The Incredible Hulk
originalsecret: e02117caec
originalformat: jpg
o_height: 3072
o_width: 2304
datetaken: 2011-11-04 13:07:33
dateupload: 1322701198
tags: mike orlando florida universalstudios islandsofadventure
license: 0
latitude: 28.471143
longitude: -81.469057
accuracy: 16
views: 10
interestingness: 35 out of 276

photo: 6433733441 9bda09b9eb 7144
owner: 22224184@N00
title: Muggles
originalsecret: b943d7d06e
originalformat: jpg
o_height: 3072
o_width: 2304
datetaken: 2011-11-04 12:10:00
dateupload: 1322701098
tags: mike orlando florida mary harrypotter universalstudios hogwarts islandsofadventure
license: 0
latitude: 28.472567
longitude: -81.473209
accuracy: 16
views: 7
interestingness: 36 out of 276

photo: 6434123013 8833169882 7003
owner: 68392152@N03
title: no sound like the rush
originalsecret: null
originalformat: null
o_height: null
o_width: null
datetaken: 2011-11-24 16:32:21
dateupload: 1322706802
tags: ocean sea beach water digital waves pentax florida optio e40 pentaxoptioe40 hammondbeach
license: 0
latitude: 29.550579
longitude: -81.260093
accuracy: 11
views: 15
interestingness: 37 out of 276

photo: 6434066239 bf0f8b2722 7015
owner: 57835821@N00
title: Rosemary Beach
originalsecret: de4b4bacbd
originalformat: jpg
o_height: 3456
o_width: 4608
datetaken: 2011-11-26 10:37:59
dateupload: 1322705996
tags: park bench florida stroller hey cheryl fl conner paxton fitzpatrick newurbanism rosemarybeach traditionalneighborhood
license: 0
latitude: 30.282343
longitude: -86.015015
accuracy: 16
views: 13
interestingness: 38 out of 276

photo: 6434061691 7224121882 7172
owner: 48556423@N00
title: World Hoop Day
originalsecret: d7a40424e6
originalformat: jpg
o_height: 1936
o_width: 1936
datetaken: 2011-11-11 17:50:54
dateupload: 1322705929
tags: world park city november lake water fountain silhouette hoop evening orlando swan downtown day florida 11 swans lakeeola 111111 eola 2011 lakeeolapark worldhoopday orlandoset hipstamatic binaryday
license: 1
latitude: 28.544667
longitude: -81.370667
accuracy: 16
views: 22
interestingness: 39 out of 276

photo: 6433887473 2473d6297a 7017
owner: 36631479@N07
title: Tricolored Heron 4 of 4
originalsecret: null
originalformat: null
o_height: null
o_width: null
datetaken: 2010-07-25 07:48:37
dateupload: 1322703367
tags: bird nature pentax florida wildlife fernandinabeach tricoloredheron kx ameliaisland eganscreekgreenway
license: 0
latitude: 30.666782
longitude: -81.437144
accuracy: 14
views: 7
interestingness: 40 out of 276

photo: 6433870405 e12f8b6d53 7008
owner: 36631479@N07
title: Tricolored Heron 3 of 4
originalsecret: null
originalformat: null
o_height: null
o_width: null
datetaken: 2010-07-25 07:47:37
dateupload: 1322703128
tags: bird nature pentax florida wildlife fernandinabeach tricoloredheron kx ameliaisland eganscreekgreenway
license: 0
latitude: 30.666782
longitude: -81.437144
accuracy: 14
views: 8
interestingness: 41 out of 276

photo: 6433855715 c5a74f4e81 7150
owner: 36631479@N07
title: Tricolored Heron 2 of 4
originalsecret: null
originalformat: null
o_height: null
o_width: null
datetaken: 2010-07-25 07:46:37
dateupload: 1322702904
tags: bird nature pentax florida wildlife fernandinabeach tricoloredheron kx ameliaisland eganscreekgreenway
license: 0
latitude: 30.666782
longitude: -81.437144
accuracy: 14
views: 8
interestingness: 42 out of 276

photo: 6433833503 d9f362e5c4 7149
owner: 36631479@N07
title: Tricolored Heron 1 of 4
originalsecret: null
originalformat: null
o_height: null
o_width: null
datetaken: 2010-07-25 07:45:02
dateupload: 1322702581
tags: bird nature pentax florida wildlife fernandinabeach tricoloredheron kx ameliaisland eganscreekgreenway
license: 0
latitude: 30.666782
longitude: -81.437144
accuracy: 14
views: 5
interestingness: 43 out of 276

photo: 6433759711 bbbe985b4b 7012
owner: 58871905@N03
title: Wednesday in the park
originalsecret: null
originalformat: null
o_height: null
o_width: null
datetaken: 2011-11-30 13:17:16
dateupload: 1322701490
tags: white silly lines bicycle landscape one 1 parkinglot alone arty place florida pavement steel space empty suburbia angles overcast places diagonal abundant single transportation statement land vehicle dunedin parked schwinn asphalt simple situation solitary abundance consumerism alternative spaces overkill stripmall blacktop landuse kickstand absence beachcruiser pavedover depopulated dnomcmlxvii
license: 4
latitude: 28.051487
longitude: -82.780357
accuracy: 16
views: 17
interestingness: 44 out of 276

photo: 6433588817 3165f97654 7006
owner: 45197897@N06
title: 100_0775
originalsecret: a673549aa9
originalformat: jpg
o_height: 3216
o_width: 4288
datetaken: 2011-11-29 00:47:52
dateupload: 1322698949
tags: classic st work play florida board jacksonville fl turf 103rd
license: 0
latitude: 30.248947
longitude: -81.799907
accuracy: 13
views: 0
interestingness: 45 out of 276

photo: 6433588425 afe065e5bb 7011
owner: 45197897@N06
title: 100_0774
originalsecret: bffb60295d
originalformat: jpg
o_height: 3216
o_width: 4288
datetaken: 2011-11-29 00:47:33
dateupload: 1322698944
tags: classic st yellow work play feeding florida board jacket jacksonville fl wasps turf yellowjacket 103rd dolichovespulamaculata
license: 0
latitude: 30.249206
longitude: -81.799564
accuracy: 13
views: 0
interestingness: 46 out of 276

photo: 6433588025 7117acd158 7167
owner: 45197897@N06
title: 100_0773
originalsecret: 828f3a549c
originalformat: jpg
o_height: 3216
o_width: 4288
datetaken: 2011-11-29 00:47:00
dateupload: 1322698938
tags: classic st work play florida board jacksonville fl turf 103rd
license: 0
latitude: 30.248094
longitude: -81.800165
accuracy: 13
views: 6
interestingness: 47 out of 276

photo: 6433587759 6a4d0b7a20 7006
owner: 45197897@N06
title: 100_0772
originalsecret: a65d675418
originalformat: jpg
o_height: 3216
o_width: 4288
datetaken: 2011-11-29 00:46:01
dateupload: 1322698935
tags: classic st work play florida board jacksonville fl turf 103rd
license: 0
latitude: 30.248131
longitude: -81.800079
accuracy: 13
views: 0
interestingness: 48 out of 276

photo: 6433587361 d7c8262c22 7154
owner: 45197897@N06
title: 100_0771
originalsecret: 2c34e2615c
originalformat: jpg
o_height: 3216
o_width: 4288
datetaken: 2011-11-29 00:15:23
dateupload: 1322698929
tags: classic st work play florida board jacksonville fl turf 103rd
license: 0
latitude: 30.248168
longitude: -81.80068
accuracy: 13
views: 1
interestingness: 49 out of 276

photo: 6433586935 892cd03022 7166
owner: 45197897@N06
title: 100_0770
originalsecret: bdde2c6b59
originalformat: jpg
o_height: 3216
o_width: 4288
datetaken: 2011-11-29 00:13:54
dateupload: 1322698923
tags: classic st work play florida board jacksonville fl turf 103rd
license: 0
latitude: 30.248279
longitude: -81.800165
accuracy: 13
views: 0
interestingness: 50 out of 276

photo: 6433586583 d85b51022b 7152
owner: 45197897@N06
title: 100_0769
originalsecret: 5f4f9879ff
originalformat: jpg
o_height: 3216
o_width: 4288
datetaken: 2011-11-29 00:12:48
dateupload: 1322698918
tags: classic st work play florida board jacksonville fl turf 103rd
license: 0
latitude: 30.248242
longitude: -81.800594
accuracy: 13
views: 1
interestingness: 51 out of 276

photo: 6433586217 ef7e53a8e0 7024
owner: 45197897@N06
title: 100_0768
originalsecret: c930bf3de3
originalformat: jpg
o_height: 3216
o_width: 4288
datetaken: 2011-11-29 00:11:27
dateupload: 1322698913
tags: classic st work play florida board jacksonville fl turf 103rd
license: 0
latitude: 30.248353
longitude: -81.800079
accuracy: 13
views: 6
interestingness: 52 out of 276

photo: 6433585937 9ab86fefb2 7166
owner: 45197897@N06
title: 100_0767
originalsecret: 4c6b4b1c41
originalformat: jpg
o_height: 3216
o_width: 4288
datetaken: 2011-11-29 00:11:09
dateupload: 1322698908
tags: classic st work play florida board jacksonville fl turf 103rd
license: 0
latitude: 30.248465
longitude: -81.799993
accuracy: 13
views: 1
interestingness: 53 out of 276

photo: 6433585635 9b14e2204e 7164
owner: 45197897@N06
title: 100_0766
originalsecret: 82b5c0c1bd
originalformat: jpg
o_height: 3216
o_width: 4288
datetaken: 2011-11-29 00:09:50
dateupload: 1322698904
tags: classic st work play florida board jacksonville fl turf 103rd
license: 0
latitude: 30.248205
longitude: -81.800079
accuracy: 13
views: 5
interestingness: 54 out of 276

photo: 6433585389 f1023d8c3e 7027
owner: 45197897@N06
title: 100_0765
originalsecret: 08678e49af
originalformat: jpg
o_height: 3216
o_width: 4288
datetaken: 2011-11-29 00:08:58
dateupload: 1322698900
tags: classic st work play florida board jacksonville fl turf 103rd
license: 0
latitude: 30.248316
longitude: -81.800336
accuracy: 13
views: 1
interestingness: 55 out of 276

photo: 6433585027 414695ef01 7026
owner: 45197897@N06
title: 100_0764
originalsecret: 989d70d1b0
originalformat: jpg
o_height: 3216
o_width: 4288
datetaken: 2011-11-29 00:08:02
dateupload: 1322698894
tags: classic st work play florida board jacksonville fl turf 103rd
license: 0
latitude: 30.248279
longitude: -81.800336
accuracy: 13
views: 1
interestingness: 56 out of 276

photo: 6433584731 4668f27352 7149
owner: 45197897@N06
title: 100_0763
originalsecret: 77ea5ec30b
originalformat: jpg
o_height: 3216
o_width: 4288
datetaken: 2011-11-29 00:07:12
dateupload: 1322698890
tags: classic st work play florida board jacksonville fl turf 103rd
license: 0
latitude: 30.248316
longitude: -81.800508
accuracy: 13
views: 0
interestingness: 57 out of 276

photo: 6433584347 541878b969 7033
owner: 45197897@N06
title: 100_0762
originalsecret: f4bfa6b42a
originalformat: jpg
o_height: 3216
o_width: 4288
datetaken: 2011-11-29 00:05:53
dateupload: 1322698884
tags: classic mushroom st work play florida board jacksonville fl turf 103rd
license: 0
latitude: 30.248205
longitude: -81.800079
accuracy: 13
views: 1
interestingness: 58 out of 276

photo: 6433584111 353fb17815 7172
owner: 45197897@N06
title: 100_0761
originalsecret: 573e06b472
originalformat: jpg
o_height: 3216
o_width: 4288
datetaken: 2011-11-29 00:05:14
dateupload: 1322698880
tags: classic mushroom st work play florida board jacksonville fl turf 103rd
license: 0
latitude: 30.248168
longitude: -81.799907
accuracy: 13
views: 10
interestingness: 59 out of 276

photo: 6433583873 51a6b0680a 7161
owner: 45197897@N06
title: 100_0759
originalsecret: c0bd63697f
originalformat: jpg
o_height: 3216
o_width: 4288
datetaken: 2011-11-29 00:03:21
dateupload: 1322698876
tags: classic mushroom st work play florida board jacksonville fl turf 103rd
license: 0
latitude: 30.248279
longitude: -81.799907
accuracy: 13
views: 1
interestingness: 60 out of 276

photo: 6433583639 48e57357eb 7025
owner: 45197897@N06
title: 100_0758
originalsecret: 0f208c11a4
originalformat: jpg
o_height: 3216
o_width: 4288
datetaken: 2011-11-29 00:02:36
dateupload: 1322698872
tags: classic mushroom st work play florida board jacksonville fl turf 103rd
license: 0
latitude: 30.248242
longitude: -81.800336
accuracy: 13
views: 1
interestingness: 61 out of 276

photo: 6433583079 f843fbb1ae 7171
owner: 45197897@N06
title: 100_0756
originalsecret: 0d6081549c
originalformat: jpg
o_height: 4288
o_width: 3216
datetaken: 2011-11-28 22:35:54
dateupload: 1322698863
tags: classic st creek work play florida board jacksonville fl turf 103rd
license: 0
latitude: 30.250985
longitude: -81.80068
accuracy: 13
views: 7
interestingness: 62 out of 276

photo: 6433582697 9199b2131d 7148
owner: 45197897@N06
title: 100_0755
originalsecret: 518961247b
originalformat: jpg
o_height: 3216
o_width: 4288
datetaken: 2011-11-28 22:35:20
dateupload: 1322698857
tags: classic st creek work play florida board jacksonville fl turf 103rd
license: 0
latitude: 30.250726
longitude: -81.800422
accuracy: 13
views: 6
interestingness: 63 out of 276

photo: 6434115309 7998bb0f8c 7164
owner: 64571925@N06
title: IMG_2859.jpg
originalsecret: null
originalformat: null
o_height: null
o_width: null
datetaken: 2011-04-08 10:26:35
dateupload: 1322706690
tags: flowers garden unitedstates florida tropical botanic fairchild coralgables
license: 0
latitude: 25.676521
longitude: -80.272107
accuracy: 13
views: 3
interestingness: 64 out of 276

photo: 6433739345 4d531551c5 7032
owner: 22224184@N00
title: In the Comics
originalsecret: a1a34e7b8d
originalformat: jpg
o_height: 2304
o_width: 3072
datetaken: 2011-11-04 12:48:16
dateupload: 1322701185
tags: mike orlando florida universalstudios islandsofadventure comicland
license: 0
latitude: 28.469917
longitude: -81.471245
accuracy: 16
views: 6
interestingness: 65 out of 276

photo: 6433707349 282d601579 7174
owner: 22224184@N00
title: The Girls' Turn
originalsecret: d3753b9c2e
originalformat: jpg
o_height: 2304
o_width: 3072
datetaken: 2011-11-04 12:06:37
dateupload: 1322700684
tags: orlando florida harrypotter universalstudios hogwarts islandsofadventure
license: 0
latitude: 28.47318
longitude: -81.47278
accuracy: 16
views: 3
interestingness: 66 out of 276

photo: 6434213355 1a02cd0312 7153
owner: 64571925@N06
title: IMG_3007.jpg
originalsecret: null
originalformat: null
o_height: null
o_width: null
datetaken: 2011-04-08 11:03:52
dateupload: 1322708136
tags: flowers garden unitedstates florida tropical botanic fairchild coralgables
license: 0
latitude: 25.676521
longitude: -80.272107
accuracy: 13
views: 2
interestingness: 67 out of 276

photo: 6434198269 38b36e54b7 7006
owner: 64571925@N06
title: IMG_2938.jpg
originalsecret: null
originalformat: null
o_height: null
o_width: null
datetaken: 2011-04-08 10:51:55
dateupload: 1322707898
tags: flowers garden unitedstates florida tropical botanic fairchild coralgables
license: 0
latitude: 25.676521
longitude: -80.272107
accuracy: 13
views: 3
interestingness: 68 out of 276

photo: 6434196913 9ea96ddee6 7006
owner: 64571925@N06
title: IMG_2933.jpg
originalsecret: null
originalformat: null
o_height: null
o_width: null
datetaken: 2011-04-08 10:51:30
dateupload: 1322707876
tags: flowers garden unitedstates florida tropical botanic fairchild coralgables
license: 0
latitude: 25.676521
longitude: -80.272107
accuracy: 13
views: 0
interestingness: 69 out of 276

photo: 6434190981 1ec396cfaa 7006
owner: 64571925@N06
title: IMG_2928.jpg
originalsecret: null
originalformat: null
o_height: null
o_width: null
datetaken: 2011-04-08 10:50:16
dateupload: 1322707778
tags: garden unitedstates florida tropical botanic fairchild coralgables
license: 0
latitude: 25.676521
longitude: -80.272107
accuracy: 13
views: 2
interestingness: 70 out of 276

photo: 6434113809 a44aa98f01 7141
owner: 64571925@N06
title: IMG_2853.jpg
originalsecret: null
originalformat: null
o_height: null
o_width: null
datetaken: 2011-04-08 10:24:34
dateupload: 1322706667
tags: flowers garden unitedstates florida tropical botanic fairchild coralgables
license: 0
latitude: 25.676521
longitude: -80.272107
accuracy: 13
views: 1
interestingness: 71 out of 276

photo: 6434109669 5a689ff9a7 7026
owner: 64571925@N06
title: IMG_2842.jpg
originalsecret: null
originalformat: null
o_height: null
o_width: null
datetaken: 2011-04-08 10:20:48
dateupload: 1322706608
tags: flowers garden unitedstates florida tropical botanic fairchild coralgables
license: 0
latitude: 25.676521
longitude: -80.272107
accuracy: 13
views: 2
interestingness: 72 out of 276

photo: 6434106911 b530f0fa6f 7026
owner: 64571925@N06
title: IMG_2833.jpg
originalsecret: null
originalformat: null
o_height: null
o_width: null
datetaken: 2011-04-08 10:13:16
dateupload: 1322706570
tags: flowers garden unitedstates florida tropical botanic fairchild coralgables
license: 0
latitude: 25.676521
longitude: -80.272107
accuracy: 13
views: 2
interestingness: 73 out of 276

photo: 6434102939 eb06aa3638 7007
owner: 64571925@N06
title: IMG_2829.jpg
originalsecret: null
originalformat: null
o_height: null
o_width: null
datetaken: 2011-04-08 10:13:00
dateupload: 1322706515
tags: flowers garden unitedstates florida tropical botanic fairchild coralgables
license: 0
latitude: 25.676521
longitude: -80.272107
accuracy: 13
views: 1
interestingness: 74 out of 276

photo: 6434099665 3f6ea32da9 7147
owner: 64571925@N06
title: IMG_2827.jpg
originalsecret: null
originalformat: null
o_height: null
o_width: null
datetaken: 2011-04-08 10:12:49
dateupload: 1322706469
tags: flowers garden unitedstates florida tropical botanic fairchild coralgables
license: 0
latitude: 25.676521
longitude: -80.272107
accuracy: 13
views: 2
interestingness: 75 out of 276

photo: 6434097209 186b00a646 7153
owner: 57835821@N00
title: Rosemary Beach
originalsecret: 6bf5511302
originalformat: jpg
o_height: 3456
o_width: 4608
datetaken: 2011-11-26 10:48:13
dateupload: 1322706436
tags: florida swing porch fl frontdoor newurbanism rosemarybeach traditionalneighborhood
license: 0
latitude: 30.281528
longitude: -86.0145
accuracy: 16
views: 8
interestingness: 76 out of 276

photo: 6434095779 3765e60685 7147
owner: 64571925@N06
title: IMG_2815.jpg
originalsecret: null
originalformat: null
o_height: null
o_width: null
datetaken: 2011-04-08 10:07:33
dateupload: 1322706415
tags: flowers garden unitedstates florida tropical botanic fairchild coralgables
license: 0
latitude: 25.676521
longitude: -80.272107
accuracy: 13
views: 1
interestingness: 77 out of 276

photo: 6433942255 fa685e24f5 7024
owner: 57835821@N00
title: Rosemary Beach
originalsecret: cbdd90d2d2
originalformat: jpg
o_height: 3456
o_width: 4608
datetaken: 2011-11-26 10:29:40
dateupload: 1322704212
tags: florida path walkway boardwalk fl newurbanism rosemarybeach traditionalneighborhood
license: 0
latitude: 30.280981
longitude: -86.016785
accuracy: 16
views: 8
interestingness: 78 out of 276

photo: 6434215505 9874a518fb 7033
owner: 64571925@N06
title: IMG_3012.jpg
originalsecret: null
originalformat: null
o_height: null
o_width: null
datetaken: 2011-04-08 11:04:41
dateupload: 1322708173
tags: garden unitedstates florida tropical botanic fairchild coralgables
license: 0
latitude: 25.676521
longitude: -80.272107
accuracy: 13
views: 0
interestingness: 79 out of 276

photo: 6434211081 0d560d9870 7023
owner: 64571925@N06
title: IMG_2996.jpg
originalsecret: null
originalformat: null
o_height: null
o_width: null
datetaken: 2011-04-08 11:02:28
dateupload: 1322708097
tags: garden unitedstates florida tropical botanic fairchild coralgables
license: 0
latitude: 25.676521
longitude: -80.272107
accuracy: 13
views: 0
interestingness: 80 out of 276

photo: 6434209147 eeb3d6b3cc 7164
owner: 64571925@N06
title: IMG_2993.jpg
originalsecret: null
originalformat: null
o_height: null
o_width: null
datetaken: 2011-04-08 11:02:01
dateupload: 1322708065
tags: garden unitedstates florida tropical botanic fairchild coralgables
license: 0
latitude: 25.676521
longitude: -80.272107
accuracy: 13
views: 0
interestingness: 81 out of 276

photo: 6434207093 6bece97223 7160
owner: 64571925@N06
title: IMG_2991.jpg
originalsecret: null
originalformat: null
o_height: null
o_width: null
datetaken: 2011-04-08 11:01:50
dateupload: 1322708032
tags: garden unitedstates florida tropical botanic fairchild coralgables
license: 0
latitude: 25.676521
longitude: -80.272107
accuracy: 13
views: 0
interestingness: 82 out of 276

photo: 6434203689 ce0c4552d4 7001
owner: 64571925@N06
title: IMG_2988.jpg
originalsecret: null
originalformat: null
o_height: null
o_width: null
datetaken: 2011-04-08 11:00:32
dateupload: 1322707979
tags: garden unitedstates florida tropical botanic fairchild coralgables
license: 0
latitude: 25.676521
longitude: -80.272107
accuracy: 13
views: 0
interestingness: 83 out of 276

photo: 6434200899 92f9780695 7031
owner: 64571925@N06
title: IMG_2983.jpg
originalsecret: null
originalformat: null
o_height: null
o_width: null
datetaken: 2011-04-08 11:00:07
dateupload: 1322707937
tags: garden unitedstates florida tropical botanic fairchild coralgables
license: 0
latitude: 25.676521
longitude: -80.272107
accuracy: 13
views: 0
interestingness: 84 out of 276

photo: 6434194261 5855a629ed 7028
owner: 64571925@N06
title: IMG_2932.jpg
originalsecret: null
originalformat: null
o_height: null
o_width: null
datetaken: 2011-04-08 10:50:31
dateupload: 1322707833
tags: garden unitedstates florida tropical botanic fairchild coralgables
license: 0
latitude: 25.676521
longitude: -80.272107
accuracy: 13
views: 0
interestingness: 85 out of 276

photo: 6434187709 d1d26e0ccd 7005
owner: 64571925@N06
title: IMG_2920.jpg
originalsecret: null
originalformat: null
o_height: null
o_width: null
datetaken: 2011-04-08 10:47:21
dateupload: 1322707727
tags: garden unitedstates florida tropical botanic fairchild coralgables
license: 0
latitude: 25.676521
longitude: -80.272107
accuracy: 13
views: 0
interestingness: 86 out of 276

photo: 6434184337 491b909e55 7157
owner: 64571925@N06
title: IMG_2916.jpg
originalsecret: null
originalformat: null
o_height: null
o_width: null
datetaken: 2011-04-08 10:45:48
dateupload: 1322707677
tags: garden unitedstates florida tropical botanic fairchild coralgables
license: 0
latitude: 25.676521
longitude: -80.272107
accuracy: 13
views: 0
interestingness: 87 out of 276

photo: 6434180775 7b4e4e7109 7009
owner: 64571925@N06
title: IMG_2912.jpg
originalsecret: null
originalformat: null
o_height: null
o_width: null
datetaken: 2011-04-08 10:45:30
dateupload: 1322707626
tags: garden unitedstates florida tropical botanic fairchild coralgables
license: 0
latitude: 25.676521
longitude: -80.272107
accuracy: 13
views: 0
interestingness: 88 out of 276

photo: 6434177669 9928470a0e 7026
owner: 64571925@N06
title: IMG_2907.jpg
originalsecret: null
originalformat: null
o_height: null
o_width: null
datetaken: 2011-04-08 10:44:31
dateupload: 1322707582
tags: garden unitedstates florida tropical botanic fairchild coralgables
license: 0
latitude: 25.676521
longitude: -80.272107
accuracy: 13
views: 0
interestingness: 89 out of 276

photo: 6434175495 3e264fa657 7163
owner: 64571925@N06
title: IMG_2902.jpg
originalsecret: null
originalformat: null
o_height: null
o_width: null
datetaken: 2011-04-08 10:43:49
dateupload: 1322707550
tags: garden unitedstates florida tropical botanic fairchild coralgables
license: 0
latitude: 25.676521
longitude: -80.272107
accuracy: 13
views: 0
interestingness: 90 out of 276

photo: 6434171081 7ee09d6445 7152
owner: 64571925@N06
title: IMG_2899.jpg
originalsecret: null
originalformat: null
o_height: null
o_width: null
datetaken: 2011-04-08 10:42:44
dateupload: 1322707487
tags: garden unitedstates florida tropical botanic fairchild coralgables
license: 0
latitude: 25.676521
longitude: -80.272107
accuracy: 13
views: 0
interestingness: 91 out of 276

photo: 6434165471 4b8855fe08 7025
owner: 64571925@N06
title: IMG_2897.jpg
originalsecret: null
originalformat: null
o_height: null
o_width: null
datetaken: 2011-04-08 10:42:31
dateupload: 1322707407
tags: garden unitedstates florida tropical botanic fairchild coralgables
license: 0
latitude: 25.676521
longitude: -80.272107
accuracy: 13
views: 0
interestingness: 92 out of 276

photo: 6434161637 5dc7fefaa3 7153
owner: 64571925@N06
title: IMG_2895.jpg
originalsecret: null
originalformat: null
o_height: null
o_width: null
datetaken: 2011-04-08 10:41:57
dateupload: 1322707351
tags: garden unitedstates florida tropical botanic fairchild coralgables
license: 0
latitude: 25.676521
longitude: -80.272107
accuracy: 13
views: 0
interestingness: 93 out of 276

photo: 6434156587 1d5f007088 7172
owner: 64571925@N06
title: IMG_2893.jpg
originalsecret: null
originalformat: null
o_height: null
o_width: null
datetaken: 2011-04-08 10:41:48
dateupload: 1322707279
tags: garden unitedstates florida tropical botanic fairchild coralgables
license: 0
latitude: 25.676521
longitude: -80.272107
accuracy: 13
views: 0
interestingness: 94 out of 276

photo: 6434153449 ebe8253a19 7162
owner: 64571925@N06
title: IMG_2891.jpg
originalsecret: null
originalformat: null
o_height: null
o_width: null
datetaken: 2011-04-08 10:41:18
dateupload: 1322707235
tags: garden unitedstates florida tropical botanic fairchild coralgables
license: 0
latitude: 25.676521
longitude: -80.272107
accuracy: 13
views: 0
interestingness: 95 out of 276

photo: 6434150239 949b481795 7143
owner: 64571925@N06
title: IMG_2881.jpg
originalsecret: null
originalformat: null
o_height: null
o_width: null
datetaken: 2011-04-08 10:38:17
dateupload: 1322707188
tags: garden unitedstates florida tropical botanic fairchild coralgables
license: 0
latitude: 25.676521
longitude: -80.272107
accuracy: 13
views: 0
interestingness: 96 out of 276

photo: 6434147671 4c30e1bec1 7154
owner: 64571925@N06
title: IMG_2878.jpg
originalsecret: null
originalformat: null
o_height: null
o_width: null
datetaken: 2011-04-08 10:37:18
dateupload: 1322707148
tags: garden unitedstates florida tropical botanic fairchild coralgables
license: 0
latitude: 25.676521
longitude: -80.272107
accuracy: 13
views: 0
interestingness: 97 out of 276

photo: 6434144445 e83fa2b475 7153
owner: 64571925@N06
title: IMG_2869.jpg
originalsecret: null
originalformat: null
o_height: null
o_width: null
datetaken: 2011-04-08 10:33:18
dateupload: 1322707100
tags: garden unitedstates florida tropical botanic fairchild coralgables
license: 0
latitude: 25.676521
longitude: -80.272107
accuracy: 13
views: 0
interestingness: 98 out of 276

photo: 6434139625 b9f282a6fc 7020
owner: 64571925@N06
title: IMG_2867.jpg
originalsecret: null
originalformat: null
o_height: null
o_width: null
datetaken: 2011-04-08 10:32:02
dateupload: 1322707030
tags: garden unitedstates florida tropical botanic fairchild coralgables
license: 0
latitude: 25.676521
longitude: -80.272107
accuracy: 13
views: 0
interestingness: 99 out of 276

photo: 6434134815 87385e9c15 7146
owner: 64571925@N06
title: IMG_2866.jpg
originalsecret: null
originalformat: null
o_height: null
o_width: null
datetaken: 2011-04-08 10:31:20
dateupload: 1322706964
tags: garden unitedstates florida tropical botanic fairchild coralgables
license: 0
latitude: 25.676521
longitude: -80.272107
accuracy: 13
views: 0
interestingness: 100 out of 276

photo: 6434129061 2a721451bd 7005
owner: 64571925@N06
title: IMG_2863.jpg
originalsecret: null
originalformat: null
o_height: null
o_width: null
datetaken: 2011-04-08 10:29:07
dateupload: 1322706885
tags: garden unitedstates florida tropical botanic fairchild coralgables
license: 0
latitude: 25.676521
longitude: -80.272107
accuracy: 13
views: 0
interestingness: 101 out of 276

photo: 6434123525 d3983dd17d 7009
owner: 64571925@N06
title: IMG_2862.jpg
originalsecret: null
originalformat: null
o_height: null
o_width: null
datetaken: 2011-04-08 10:28:45
dateupload: 1322706809
tags: garden unitedstates florida tropical botanic fairchild coralgables
license: 0
latitude: 25.676521
longitude: -80.272107
accuracy: 13
views: 0
interestingness: 102 out of 276

photo: 6434120235 ab78d6f788 7020
owner: 64571925@N06
title: IMG_2861.jpg
originalsecret: null
originalformat: null
o_height: null
o_width: null
datetaken: 2011-04-08 10:28:10
dateupload: 1322706762
tags: garden unitedstates florida tropical botanic fairchild coralgables
license: 0
latitude: 25.676521
longitude: -80.272107
accuracy: 13
views: 0
interestingness: 103 out of 276

photo: 6434110057 d557bf1f9e 7018
owner: 57835821@N00
title: Rosemary Beach
originalsecret: 354a34c7e9
originalformat: jpg
o_height: 3456
o_width: 4608
datetaken: 2011-11-26 10:48:55
dateupload: 1322706614
tags: florida path trail fl newurbanism rosemarybeach traditionalneighborhood
license: 0
latitude: 30.281773
longitude: -86.014146
accuracy: 16
views: 15
interestingness: 104 out of 276

photo: 6434094119 e619427cf6 7031
owner: 64571925@N06
title: IMG_2808.jpg
originalsecret: null
originalformat: null
o_height: null
o_width: null
datetaken: 2011-04-08 10:03:49
dateupload: 1322706392
tags: garden unitedstates florida tropical botanic fairchild coralgables
license: 0
latitude: 25.676521
longitude: -80.272107
accuracy: 13
views: 1
interestingness: 105 out of 276

photo: 6434091021 4a956edb1f 7151
owner: 64571925@N06
title: IMG_2801.jpg
originalsecret: null
originalformat: null
o_height: null
o_width: null
datetaken: 2011-04-08 09:59:25
dateupload: 1322706349
tags: garden unitedstates florida tropical botanic fairchild coralgables
license: 0
latitude: 25.676521
longitude: -80.272107
accuracy: 13
views: 0
interestingness: 106 out of 276

photo: 6434087987 a77a989371 7154
owner: 64571925@N06
title: IMG_2798.jpg
originalsecret: null
originalformat: null
o_height: null
o_width: null
datetaken: 2011-04-08 09:57:39
dateupload: 1322706307
tags: garden unitedstates florida tropical botanic fairchild coralgables
license: 0
latitude: 25.676521
longitude: -80.272107
accuracy: 13
views: 0
interestingness: 107 out of 276

photo: 6434084387 71db8376c3 7025
owner: 64571925@N06
title: IMG_2795.jpg
originalsecret: null
originalformat: null
o_height: null
o_width: null
datetaken: 2011-04-08 09:54:13
dateupload: 1322706258
tags: garden unitedstates florida tropical botanic fairchild coralgables
license: 0
latitude: 25.676521
longitude: -80.272107
accuracy: 13
views: 0
interestingness: 108 out of 276

photo: 6434075593 e05997294c 7002
owner: 64571925@N06
title: IMG_2794.jpg
originalsecret: null
originalformat: null
o_height: null
o_width: null
datetaken: 2011-04-08 09:53:01
dateupload: 1322706129
tags: garden unitedstates florida tropical botanic fairchild coralgables
license: 0
latitude: 25.676521
longitude: -80.272107
accuracy: 13
views: 0
interestingness: 109 out of 276

photo: 6434072569 05a0a09e71 7021
owner: 64571925@N06
title: IMG_2790.jpg
originalsecret: null
originalformat: null
o_height: null
o_width: null
datetaken: 2011-04-08 09:52:11
dateupload: 1322706087
tags: garden unitedstates florida tropical botanic fairchild coralgables
license: 0
latitude: 25.676521
longitude: -80.272107
accuracy: 13
views: 0
interestingness: 110 out of 276

photo: 6434070589 4e685ccbaf 7172
owner: 64571925@N06
title: IMG_2786.jpg
originalsecret: null
originalformat: null
o_height: null
o_width: null
datetaken: 2011-04-08 09:51:10
dateupload: 1322706060
tags: garden unitedstates florida tropical botanic fairchild coralgables
license: 0
latitude: 25.676521
longitude: -80.272107
accuracy: 13
views: 0
interestingness: 111 out of 276

photo: 6434068713 851f3b44d5 7006
owner: 64571925@N06
title: IMG_2783.jpg
originalsecret: null
originalformat: null
o_height: null
o_width: null
datetaken: 2011-04-08 09:50:32
dateupload: 1322706034
tags: garden unitedstates florida tropical botanic fairchild coralgables
license: 0
latitude: 25.676521
longitude: -80.272107
accuracy: 13
views: 0
interestingness: 112 out of 276

photo: 6434065781 4b5553e2f0 7172
owner: 64571925@N06
title: IMG_2777.jpg
originalsecret: null
originalformat: null
o_height: null
o_width: null
datetaken: 2011-04-08 09:21:49
dateupload: 1322705989
tags: garden unitedstates florida tropical botanic fairchild coralgables
license: 0
latitude: 25.676521
longitude: -80.272107
accuracy: 13
views: 0
interestingness: 113 out of 276

photo: 6434061881 c18c349169 7019
owner: 64571925@N06
title: IMG_2772.jpg
originalsecret: null
originalformat: null
o_height: null
o_width: null
datetaken: 2011-04-08 09:20:42
dateupload: 1322705931
tags: garden unitedstates florida tropical botanic fairchild coralgables
license: 0
latitude: 25.676521
longitude: -80.272107
accuracy: 13
views: 0
interestingness: 114 out of 276

photo: 6434058501 73a3816355 7007
owner: 64571925@N06
title: IMG_2767.jpg
originalsecret: null
originalformat: null
o_height: null
o_width: null
datetaken: 2011-04-08 09:04:55
dateupload: 1322705878
tags: garden unitedstates florida tropical botanic fairchild coralgables
license: 0
latitude: 25.676521
longitude: -80.272107
accuracy: 13
views: 0
interestingness: 115 out of 276

photo: 6434053209 9569105b65 7030
owner: 64571925@N06
title: IMG_2764.jpg
originalsecret: null
originalformat: null
o_height: null
o_width: null
datetaken: 2011-04-08 09:00:59
dateupload: 1322705797
tags: garden unitedstates florida tropical botanic fairchild coralgables
license: 0
latitude: 25.676521
longitude: -80.272107
accuracy: 13
views: 0
interestingness: 116 out of 276

photo: 6434044487 dbe7e1c49f 7012
owner: 57835821@N00
title: Rosemary Beach
originalsecret: 272281e6aa
originalformat: jpg
o_height: 3456
o_width: 4608
datetaken: 2011-11-26 10:32:12
dateupload: 1322705666
tags: florida trail boardwalk fl newurbanism rosemarybeach traditionalneighborhood
license: 0
latitude: 30.281504
longitude: -86.015959
accuracy: 16
views: 5
interestingness: 117 out of 276

photo: 6433958971 3ef475e251 7028
owner: 57835821@N00
title: Rosemary Beach
originalsecret: ba65a38127
originalformat: jpg
o_height: 3456
o_width: 4608
datetaken: 2011-11-26 10:31:24
dateupload: 1322704446
tags: florida boardwalk fl crosswalk newurbanism rosemarybeach traditionalneighborhood
license: 0
latitude: 30.281416
longitude: -86.016227
accuracy: 16
views: 3
interestingness: 118 out of 276

photo: 6433625301 1d086d187c 7006
owner: 38514062@N03
title: Erect Pricklypear (Opuntia stricta)
originalsecret: ce2aff28e9
originalformat: jpg
o_height: 768
o_width: 1076
datetaken: 2011-11-24 13:18:41
dateupload: 1322699485
tags: centralflorida taxonomy:binomial=opuntiastricta marykeim
license: 1
latitude: 28.679142
longitude: -80.765647
accuracy: 13
views: 9
interestingness: 119 out of 276

photo: 6434078465 ce101cd4da 7016
owner: 57835821@N00
title: Rosemary Beach
originalsecret: ae802aff7c
originalformat: jpg
o_height: 3456
o_width: 4608
datetaken: 2011-11-26 10:47:18
dateupload: 1322706172
tags: alley florida fl newurbanism rosemarybeach traditionalneighborhood
license: 0
latitude: 30.281838
longitude: -86.014757
accuracy: 16
views: 14
interestingness: 120 out of 276

photo: 6433931611 d991ce0dfd 7141
owner: 57835821@N00
title: Rosemary Beach
originalsecret: 4f37bcdf60
originalformat: jpg
o_height: 3456
o_width: 4608
datetaken: 2011-11-26 10:21:39
dateupload: 1322704052
tags: florida cityhall fl newurbanism rosemarybeach traditionalneighborhood
license: 0
latitude: 30.279647
longitude: -86.016399
accuracy: 16
views: 5
interestingness: 121 out of 276

photo: 6433921963 1654f483a2 7003
owner: 57835821@N00
title: Rosemary Beach
originalsecret: ec2e8c97a3
originalformat: jpg
o_height: 3456
o_width: 4608
datetaken: 2011-11-26 10:19:18
dateupload: 1322703900
tags: mainstreet florida fl newurbanism rosemarybeach traditionalneighborhood
license: 0
latitude: 30.279031
longitude: -86.016828
accuracy: 16
views: 7
interestingness: 122 out of 276

photo: 6433742321 97066ae462 7170
owner: 22224184@N00
title: One Fish, Two Fish, Red Fish, Blue Fish
originalsecret: 6628a6ab4a
originalformat: jpg
o_height: 2304
o_width: 3072
datetaken: 2011-11-04 10:50:10
dateupload: 1322701230
tags: orlando florida mary universalstudios drseuss islandsofadventure
license: 0
latitude: 28.473241
longitude: -81.469443
accuracy: 16
views: 3
interestingness: 123 out of 276

photo: 6433735245 62170cb9fc 7011
owner: 22224184@N00
title: Coming or Going?
originalsecret: 814e243cf2
originalformat: jpg
o_height: 2304
o_width: 3072
datetaken: 2011-11-04 12:08:51
dateupload: 1322701126
tags: orlando florida harrypotter universalstudios hogwarts islandsofadventure
license: 0
latitude: 28.472567
longitude: -81.473209
accuracy: 16
views: 2
interestingness: 124 out of 276

photo: 6433734279 540be78a36 7153
owner: 22224184@N00
title: Hogwarts
originalsecret: 163b5c354f
originalformat: jpg
o_height: 2074
o_width: 2764
datetaken: 2011-11-04 12:12:04
dateupload: 1322701111
tags: orlando florida harrypotter universalstudios hogwarts islandsofadventure
license: 0
latitude: 28.472567
longitude: -81.473209
accuracy: 16
views: 2
interestingness: 125 out of 276

photo: 6433732471 47202e62e9 7033
owner: 22224184@N00
title: Done!
originalsecret: e5af15015f
originalformat: jpg
o_height: 2040
o_width: 2720
datetaken: 2011-11-04 12:06:17
dateupload: 1322701083
tags: orlando florida harrypotter universalstudios hogwarts islandsofadventure
license: 0
latitude: 28.47318
longitude: -81.47278
accuracy: 16
views: 18
interestingness: 126 out of 276

photo: 6433731817 048e3a012b 7005
owner: 22224184@N00
title: Wands and Ribbons
originalsecret: 152d68b8cf
originalformat: jpg
o_height: 2304
o_width: 3072
datetaken: 2011-11-04 12:05:53
dateupload: 1322701071
tags: orlando florida harrypotter universalstudios hogwarts islandsofadventure
license: 0
latitude: 28.47318
longitude: -81.47278
accuracy: 16
views: 3
interestingness: 127 out of 276

photo: 6433730807 cf817d5263 7016
owner: 22224184@N00
title: Beauxbatons Ballet
originalsecret: 931955493d
originalformat: jpg
o_height: 2278
o_width: 3037
datetaken: 2011-11-04 12:05:32
dateupload: 1322701054
tags: orlando florida harrypotter universalstudios hogwarts islandsofadventure
license: 0
latitude: 28.47318
longitude: -81.47278
accuracy: 16
views: 7
interestingness: 128 out of 276

photo: 6433706411 00ee654b97 7143
owner: 22224184@N00
title: Waiting Patiently
originalsecret: e927787838
originalformat: jpg
o_height: 1839
o_width: 1379
datetaken: 2011-11-04 12:01:24
dateupload: 1322700670
tags: orlando florida harrypotter universalstudios hogwarts islandsofadventure
license: 0
latitude: 28.47318
longitude: -81.47278
accuracy: 16
views: 4
interestingness: 129 out of 276

photo: 6434305925 fd4bbb0f9e 7147
owner: 42839659@N00
title: Lake Washington in HDR
originalsecret: b6d64ca37d
originalformat: jpg
o_height: 664
o_width: 1000
datetaken: 2011-11-27 14:46:31
dateupload: 1322709547
tags: usa florida melbourne lakewashington hdr
license: 0
latitude: 28.148066
longitude: -80.734625
accuracy: 16
views: 4
interestingness: 130 out of 276

photo: 6434196595 63c087db4f 7016
owner: 64571925@N06
title: IMG_3546.jpg
originalsecret: null
originalformat: null
o_height: null
o_width: null
datetaken: 2011-04-11 17:46:51
dateupload: 1322707871
tags: miami artdeco southbeach usaunitedstates floridaflorida
license: 0
latitude: 25.777904
longitude: -80.131895
accuracy: 14
views: 0
interestingness: 131 out of 276

photo: 6434194699 256a6ba056 7020
owner: 64571925@N06
title: IMG_3545.jpg
originalsecret: null
originalformat: null
o_height: null
o_width: null
datetaken: 2011-04-11 17:45:14
dateupload: 1322707840
tags: miami artdeco southbeach usaunitedstates floridaflorida
license: 0
latitude: 25.777904
longitude: -80.131895
accuracy: 14
views: 0
interestingness: 132 out of 276

photo: 6434191649 7a5fc7cbcc 7170
owner: 64571925@N06
title: IMG_3542.jpg
originalsecret: null
originalformat: null
o_height: null
o_width: null
datetaken: 2011-04-11 17:43:54
dateupload: 1322707789
tags: miami artdeco southbeach usaunitedstates floridaflorida
license: 0
latitude: 25.777904
longitude: -80.131895
accuracy: 14
views: 0
interestingness: 133 out of 276

photo: 6434190425 c05016cdf8 7020
owner: 64571925@N06
title: IMG_3540.jpg
originalsecret: null
originalformat: null
o_height: null
o_width: null
datetaken: 2011-04-11 17:31:30
dateupload: 1322707770
tags: miami artdeco southbeach usaunitedstates floridaflorida
license: 0
latitude: 25.777904
longitude: -80.131895
accuracy: 14
views: 1
interestingness: 134 out of 276

photo: 6434188249 f190b9c148 7172
owner: 64571925@N06
title: IMG_3531.jpg
originalsecret: null
originalformat: null
o_height: null
o_width: null
datetaken: 2011-04-11 17:27:37
dateupload: 1322707736
tags: miami artdeco southbeach usaunitedstates floridaflorida
license: 0
latitude: 25.777904
longitude: -80.131895
accuracy: 14
views: 0
interestingness: 135 out of 276

photo: 6434186249 3c84f8bb85 7015
owner: 64571925@N06
title: IMG_3530.jpg
originalsecret: null
originalformat: null
o_height: null
o_width: null
datetaken: 2011-04-11 17:27:08
dateupload: 1322707705
tags: miami artdeco southbeach usaunitedstates floridaflorida
license: 0
latitude: 25.777904
longitude: -80.131895
accuracy: 14
views: 0
interestingness: 136 out of 276

photo: 6434183753 e2b1cf0534 7020
owner: 64571925@N06
title: IMG_3526.jpg
originalsecret: null
originalformat: null
o_height: null
o_width: null
datetaken: 2011-04-11 17:25:34
dateupload: 1322707668
tags: miami artdeco southbeach usaunitedstates floridaflorida
license: 0
latitude: 25.777904
longitude: -80.131895
accuracy: 14
views: 0
interestingness: 137 out of 276

photo: 6434181519 613c19a38b 7032
owner: 64571925@N06
title: IMG_3522.jpg
originalsecret: null
originalformat: null
o_height: null
o_width: null
datetaken: 2011-04-11 17:04:46
dateupload: 1322707637
tags: miami artdeco southbeach usaunitedstates floridaflorida
license: 0
latitude: 25.777904
longitude: -80.131895
accuracy: 14
views: 0
interestingness: 138 out of 276

photo: 6434180229 2e38aed4bf 7004
owner: 64571925@N06
title: IMG_3520.jpg
originalsecret: null
originalformat: null
o_height: null
o_width: null
datetaken: 2011-04-11 17:04:22
dateupload: 1322707619
tags: miami artdeco southbeach usaunitedstates floridaflorida
license: 0
latitude: 25.777904
longitude: -80.131895
accuracy: 14
views: 0
interestingness: 139 out of 276

photo: 6434178785 85efffb81e 7015
owner: 64571925@N06
title: IMG_3517.jpg
originalsecret: null
originalformat: null
o_height: null
o_width: null
datetaken: 2011-04-11 17:03:46
dateupload: 1322707599
tags: miami artdeco southbeach usaunitedstates floridaflorida
license: 0
latitude: 25.777904
longitude: -80.131895
accuracy: 14
views: 0
interestingness: 140 out of 276

photo: 6434176273 8cb515c0df 7156
owner: 64571925@N06
title: IMG_3512.jpg
originalsecret: null
originalformat: null
o_height: null
o_width: null
datetaken: 2011-04-11 17:01:42
dateupload: 1322707562
tags: miami artdeco southbeach usaunitedstates floridaflorida
license: 0
latitude: 25.777904
longitude: -80.131895
accuracy: 14
views: 1
interestingness: 141 out of 276

photo: 6434172947 1c7dffda6a 7028
owner: 64571925@N06
title: IMG_3510.jpg
originalsecret: null
originalformat: null
o_height: null
o_width: null
datetaken: 2011-04-11 17:01:26
dateupload: 1322707514
tags: miami artdeco southbeach usaunitedstates floridaflorida
license: 0
latitude: 25.777904
longitude: -80.131895
accuracy: 14
views: 0
interestingness: 142 out of 276

photo: 6434170761 3cdccf75b0 7153
owner: 64571925@N06
title: IMG_3503.jpg
originalsecret: null
originalformat: null
o_height: null
o_width: null
datetaken: 2011-04-11 17:00:18
dateupload: 1322707483
tags: miami artdeco southbeach usaunitedstates floridaflorida
license: 0
latitude: 25.777904
longitude: -80.131895
accuracy: 14
views: 0
interestingness: 143 out of 276

photo: 6434166313 8b65ab8ea1 7145
owner: 64571925@N06
title: IMG_3501.jpg
originalsecret: null
originalformat: null
o_height: null
o_width: null
datetaken: 2011-04-11 16:59:40
dateupload: 1322707420
tags: miami artdeco southbeach usaunitedstates floridaflorida
license: 0
latitude: 25.777904
longitude: -80.131895
accuracy: 14
views: 0
interestingness: 144 out of 276

photo: 6434165311 5f2666121f 7033
owner: 64571925@N06
title: IMG_3499.jpg
originalsecret: null
originalformat: null
o_height: null
o_width: null
datetaken: 2011-04-11 16:58:56
dateupload: 1322707405
tags: miami artdeco southbeach usaunitedstates floridaflorida
license: 0
latitude: 25.777904
longitude: -80.131895
accuracy: 14
views: 0
interestingness: 145 out of 276

photo: 6434160765 8e84c8dc9a 7169
owner: 64571925@N06
title: IMG_3498.jpg
originalsecret: null
originalformat: null
o_height: null
o_width: null
datetaken: 2011-04-11 16:58:18
dateupload: 1322707338
tags: miami artdeco southbeach usaunitedstates floridaflorida
license: 0
latitude: 25.777904
longitude: -80.131895
accuracy: 14
views: 0
interestingness: 146 out of 276

photo: 6434156603 80338b6478 7019
owner: 64571925@N06
title: IMG_3496.jpg
originalsecret: null
originalformat: null
o_height: null
o_width: null
datetaken: 2011-04-11 16:57:33
dateupload: 1322707279
tags: miami artdeco southbeach usaunitedstates floridaflorida
license: 0
latitude: 25.777904
longitude: -80.131895
accuracy: 14
views: 0
interestingness: 147 out of 276

photo: 6434153807 9e40820303 7001
owner: 64571925@N06
title: IMG_3495.jpg
originalsecret: null
originalformat: null
o_height: null
o_width: null
datetaken: 2011-04-11 16:56:55
dateupload: 1322707240
tags: miami artdeco southbeach usaunitedstates floridaflorida
license: 0
latitude: 25.777904
longitude: -80.131895
accuracy: 14
views: 0
interestingness: 148 out of 276

photo: 6434152169 bf52acca18 7168
owner: 64571925@N06
title: IMG_3493.jpg
originalsecret: null
originalformat: null
o_height: null
o_width: null
datetaken: 2011-04-11 16:56:04
dateupload: 1322707216
tags: miami artdeco southbeach usaunitedstates floridaflorida
license: 0
latitude: 25.777904
longitude: -80.131895
accuracy: 14
views: 0
interestingness: 149 out of 276

photo: 6434150679 47dfb2c875 7027
owner: 64571925@N06
title: IMG_3490.jpg
originalsecret: null
originalformat: null
o_height: null
o_width: null
datetaken: 2011-04-11 16:54:33
dateupload: 1322707194
tags: miami artdeco southbeach usaunitedstates floridaflorida
license: 0
latitude: 25.777904
longitude: -80.131895
accuracy: 14
views: 0
interestingness: 150 out of 276

photo: 6434148137 860b577d5b 7023
owner: 64571925@N06
title: IMG_3488.jpg
originalsecret: null
originalformat: null
o_height: null
o_width: null
datetaken: 2011-04-11 16:53:37
dateupload: 1322707155
tags: miami artdeco southbeach usaunitedstates floridaflorida
license: 0
latitude: 25.777904
longitude: -80.131895
accuracy: 14
views: 0
interestingness: 151 out of 276

photo: 6434145233 30c4f0d96d 7005
owner: 64571925@N06
title: IMG_3487.jpg
originalsecret: null
originalformat: null
o_height: null
o_width: null
datetaken: 2011-04-11 16:53:26
dateupload: 1322707112
tags: miami artdeco southbeach usaunitedstates floridaflorida
license: 0
latitude: 25.777904
longitude: -80.131895
accuracy: 14
views: 0
interestingness: 152 out of 276

photo: 6434144089 61f52dc282 7004
owner: 64571925@N06
title: IMG_3483.jpg
originalsecret: null
originalformat: null
o_height: null
o_width: null
datetaken: 2011-04-11 16:52:40
dateupload: 1322707094
tags: miami artdeco southbeach usaunitedstates floridaflorida
license: 0
latitude: 25.777904
longitude: -80.131895
accuracy: 14
views: 0
interestingness: 153 out of 276

photo: 6434141563 fea3047788 7166
owner: 64571925@N06
title: IMG_3482.jpg
originalsecret: null
originalformat: null
o_height: null
o_width: null
datetaken: 2011-04-11 16:51:16
dateupload: 1322707058
tags: miami artdeco southbeach usaunitedstates floridaflorida
license: 0
latitude: 25.777904
longitude: -80.131895
accuracy: 14
views: 0
interestingness: 154 out of 276

photo: 6434139501 43b1d9b77a 7142
owner: 64571925@N06
title: IMG_3481.jpg
originalsecret: null
originalformat: null
o_height: null
o_width: null
datetaken: 2011-04-11 16:50:51
dateupload: 1322707029
tags: miami artdeco southbeach usaunitedstates floridaflorida
license: 0
latitude: 25.777904
longitude: -80.131895
accuracy: 14
views: 0
interestingness: 155 out of 276

photo: 6434135911 7d731f3546 7156
owner: 64571925@N06
title: IMG_3480.jpg
originalsecret: null
originalformat: null
o_height: null
o_width: null
datetaken: 2011-04-11 16:50:14
dateupload: 1322706979
tags: miami artdeco southbeach usaunitedstates floridaflorida
license: 0
latitude: 25.777904
longitude: -80.131895
accuracy: 14
views: 0
interestingness: 156 out of 276

photo: 6434134395 f047ac2189 7156
owner: 64571925@N06
title: IMG_3476.jpg
originalsecret: null
originalformat: null
o_height: null
o_width: null
datetaken: 2011-04-11 16:48:42
dateupload: 1322706958
tags: miami artdeco southbeach usaunitedstates floridaflorida
license: 0
latitude: 25.777904
longitude: -80.131895
accuracy: 14
views: 0
interestingness: 157 out of 276

photo: 6434131733 6dabc2e3dc 7002
owner: 64571925@N06
title: IMG_3462.jpg
originalsecret: null
originalformat: null
o_height: null
o_width: null
datetaken: 2011-04-11 16:43:51
dateupload: 1322706920
tags: miami artdeco southbeach usaunitedstates floridaflorida
license: 0
latitude: 25.777904
longitude: -80.131895
accuracy: 14
views: 0
interestingness: 158 out of 276

photo: 6434129547 36a1e2e871 7034
owner: 64571925@N06
title: IMG_3459.jpg
originalsecret: null
originalformat: null
o_height: null
o_width: null
datetaken: 2011-04-11 16:42:52
dateupload: 1322706892
tags: miami artdeco southbeach usaunitedstates floridaflorida
license: 0
latitude: 25.777904
longitude: -80.131895
accuracy: 14
views: 1
interestingness: 159 out of 276

photo: 6434126999 1eaf183c9a 7029
owner: 64571925@N06
title: IMG_3457.jpg
originalsecret: null
originalformat: null
o_height: null
o_width: null
datetaken: 2011-04-11 16:42:07
dateupload: 1322706858
tags: miami artdeco southbeach usaunitedstates floridaflorida
license: 0
latitude: 25.777904
longitude: -80.131895
accuracy: 14
views: 0
interestingness: 160 out of 276

photo: 6434125179 ba47c9b103 7007
owner: 64571925@N06
title: IMG_3455.jpg
originalsecret: null
originalformat: null
o_height: null
o_width: null
datetaken: 2011-04-11 16:41:46
dateupload: 1322706833
tags: miami artdeco southbeach usaunitedstates floridaflorida
license: 0
latitude: 25.777904
longitude: -80.131895
accuracy: 14
views: 0
interestingness: 161 out of 276

photo: 6434122175 f1778b0550 7008
owner: 64571925@N06
title: IMG_3452.jpg
originalsecret: null
originalformat: null
o_height: null
o_width: null
datetaken: 2011-04-11 16:40:42
dateupload: 1322706790
tags: miami artdeco southbeach usaunitedstates floridaflorida
license: 0
latitude: 25.777904
longitude: -80.131895
accuracy: 14
views: 0
interestingness: 162 out of 276

photo: 6434116699 775d388b59 7016
owner: 64571925@N06
title: IMG_3451.jpg
originalsecret: null
originalformat: null
o_height: null
o_width: null
datetaken: 2011-04-11 16:40:11
dateupload: 1322706711
tags: miami artdeco southbeach usaunitedstates floridaflorida
license: 0
latitude: 25.777904
longitude: -80.131895
accuracy: 14
views: 0
interestingness: 163 out of 276

photo: 6434114187 942f313142 7021
owner: 64571925@N06
title: IMG_3450.jpg
originalsecret: null
originalformat: null
o_height: null
o_width: null
datetaken: 2011-04-11 16:39:30
dateupload: 1322706673
tags: miami artdeco southbeach usaunitedstates floridaflorida
license: 0
latitude: 25.777904
longitude: -80.131895
accuracy: 14
views: 0
interestingness: 164 out of 276

photo: 6434111831 fe80f6c117 7166
owner: 64571925@N06
title: IMG_3446.jpg
originalsecret: null
originalformat: null
o_height: null
o_width: null
datetaken: 2011-04-11 16:38:18
dateupload: 1322706638
tags: miami artdeco southbeach usaunitedstates floridaflorida
license: 0
latitude: 25.777904
longitude: -80.131895
accuracy: 14
views: 0
interestingness: 165 out of 276

photo: 6434108653 0ce801fe4b 7023
owner: 64571925@N06
title: IMG_3443.jpg
originalsecret: null
originalformat: null
o_height: null
o_width: null
datetaken: 2011-04-11 16:37:10
dateupload: 1322706595
tags: miami artdeco southbeach usaunitedstates floridaflorida
license: 0
latitude: 25.777904
longitude: -80.131895
accuracy: 14
views: 0
interestingness: 166 out of 276

photo: 6434106933 85478aea92 7175
owner: 64571925@N06
title: IMG_3440.jpg
originalsecret: null
originalformat: null
o_height: null
o_width: null
datetaken: 2011-04-11 16:36:21
dateupload: 1322706570
tags: miami artdeco southbeach usaunitedstates floridaflorida
license: 0
latitude: 25.777904
longitude: -80.131895
accuracy: 14
views: 0
interestingness: 167 out of 276

photo: 6434104369 6c44819aa0 7031
owner: 64571925@N06
title: IMG_3436.jpg
originalsecret: null
originalformat: null
o_height: null
o_width: null
datetaken: 2011-04-11 16:34:25
dateupload: 1322706535
tags: miami artdeco southbeach usaunitedstates floridaflorida
license: 0
latitude: 25.777904
longitude: -80.131895
accuracy: 14
views: 0
interestingness: 168 out of 276

photo: 6434100637 10461284c6 7028
owner: 64571925@N06
title: IMG_3434.jpg
originalsecret: null
originalformat: null
o_height: null
o_width: null
datetaken: 2011-04-11 16:33:19
dateupload: 1322706483
tags: miami artdeco southbeach usaunitedstates floridaflorida
license: 0
latitude: 25.777904
longitude: -80.131895
accuracy: 14
views: 0
interestingness: 169 out of 276

photo: 6434097799 389fb90e5b 7144
owner: 64571925@N06
title: IMG_3432.jpg
originalsecret: null
originalformat: null
o_height: null
o_width: null
datetaken: 2011-04-11 16:32:19
dateupload: 1322706444
tags: miami artdeco southbeach usaunitedstates floridaflorida
license: 0
latitude: 25.777904
longitude: -80.131895
accuracy: 14
views: 0
interestingness: 170 out of 276

photo: 6434094413 d2b22b0602 7151
owner: 64571925@N06
title: IMG_3428.jpg
originalsecret: null
originalformat: null
o_height: null
o_width: null
datetaken: 2011-04-11 16:30:51
dateupload: 1322706396
tags: miami artdeco southbeach usaunitedstates floridaflorida
license: 0
latitude: 25.777904
longitude: -80.131895
accuracy: 14
views: 0
interestingness: 171 out of 276

photo: 6434091505 8f381b78ea 7172
owner: 64571925@N06
title: IMG_3422.jpg
originalsecret: null
originalformat: null
o_height: null
o_width: null
datetaken: 2011-04-11 16:29:05
dateupload: 1322706356
tags: miami artdeco southbeach usaunitedstates floridaflorida
license: 0
latitude: 25.777904
longitude: -80.131895
accuracy: 14
views: 0
interestingness: 172 out of 276

photo: 6434088279 a4351d6cb1 7011
owner: 64571925@N06
title: IMG_3419.jpg
originalsecret: null
originalformat: null
o_height: null
o_width: null
datetaken: 2011-04-11 16:26:44
dateupload: 1322706310
tags: miami artdeco southbeach usaunitedstates floridaflorida
license: 0
latitude: 25.777904
longitude: -80.131895
accuracy: 14
views: 0
interestingness: 173 out of 276

photo: 6434084809 6b44f9746f 7173
owner: 64571925@N06
title: IMG_3396.jpg
originalsecret: null
originalformat: null
o_height: null
o_width: null
datetaken: 2011-04-11 15:30:00
dateupload: 1322706263
tags: miami artdeco southbeach usaunitedstates floridaflorida
license: 0
latitude: 25.777904
longitude: -80.131895
accuracy: 14
views: 0
interestingness: 174 out of 276

photo: 6434081529 4f679bd574 7023
owner: 64571925@N06
title: IMG_3392.jpg
originalsecret: null
originalformat: null
o_height: null
o_width: null
datetaken: 2011-04-11 15:28:55
dateupload: 1322706217
tags: miami artdeco southbeach usaunitedstates floridaflorida
license: 0
latitude: 25.777904
longitude: -80.131895
accuracy: 14
views: 0
interestingness: 175 out of 276

photo: 6434078021 1a75e6804d 7155
owner: 64571925@N06
title: IMG_3391.jpg
originalsecret: null
originalformat: null
o_height: null
o_width: null
datetaken: 2011-04-11 15:27:17
dateupload: 1322706165
tags: miami artdeco southbeach usaunitedstates floridaflorida
license: 0
latitude: 25.777904
longitude: -80.131895
accuracy: 14
views: 0
interestingness: 176 out of 276

photo: 6434072255 2725002597 7158
owner: 64571925@N06
title: IMG_3390.jpg
originalsecret: null
originalformat: null
o_height: null
o_width: null
datetaken: 2011-04-11 15:26:47
dateupload: 1322706083
tags: miami artdeco southbeach usaunitedstates floridaflorida
license: 0
latitude: 25.777904
longitude: -80.131895
accuracy: 14
views: 0
interestingness: 177 out of 276

photo: 6434069087 507eaf0b22 7032
owner: 64571925@N06
title: IMG_3389.jpg
originalsecret: null
originalformat: null
o_height: null
o_width: null
datetaken: 2011-04-11 15:25:23
dateupload: 1322706039
tags: miami artdeco southbeach usaunitedstates floridaflorida
license: 0
latitude: 25.777904
longitude: -80.131895
accuracy: 14
views: 0
interestingness: 178 out of 276

photo: 6434066379 612ae38fe7 7167
owner: 64571925@N06
title: IMG_3388.jpg
originalsecret: null
originalformat: null
o_height: null
o_width: null
datetaken: 2011-04-11 15:24:46
dateupload: 1322705999
tags: miami artdeco southbeach usaunitedstates floridaflorida
license: 0
latitude: 25.777904
longitude: -80.131895
accuracy: 14
views: 0
interestingness: 179 out of 276

photo: 6434063815 e4d412547a 7007
owner: 64571925@N06
title: IMG_3387.jpg
originalsecret: null
originalformat: null
o_height: null
o_width: null
datetaken: 2011-04-11 15:22:14
dateupload: 1322705961
tags: miami artdeco southbeach usaunitedstates floridaflorida
license: 0
latitude: 25.777904
longitude: -80.131895
accuracy: 14
views: 0
interestingness: 180 out of 276

photo: 6434061539 a59f241f19 7009
owner: 64571925@N06
title: IMG_3386.jpg
originalsecret: null
originalformat: null
o_height: null
o_width: null
datetaken: 2011-04-11 15:21:19
dateupload: 1322705924
tags: miami artdeco southbeach usaunitedstates floridaflorida
license: 0
latitude: 25.777904
longitude: -80.131895
accuracy: 14
views: 0
interestingness: 181 out of 276

photo: 6434058791 171a3ddbed 7149
owner: 64571925@N06
title: IMG_3385.jpg
originalsecret: null
originalformat: null
o_height: null
o_width: null
datetaken: 2011-04-11 15:20:53
dateupload: 1322705883
tags: miami artdeco southbeach usaunitedstates floridaflorida
license: 0
latitude: 25.777904
longitude: -80.131895
accuracy: 14
views: 0
interestingness: 182 out of 276

photo: 6434055417 69098f6ba5 7029
owner: 64571925@N06
title: IMG_3384.jpg
originalsecret: null
originalformat: null
o_height: null
o_width: null
datetaken: 2011-04-11 15:18:49
dateupload: 1322705831
tags: miami artdeco southbeach usaunitedstates floridaflorida
license: 0
latitude: 25.777904
longitude: -80.131895
accuracy: 14
views: 0
interestingness: 183 out of 276

photo: 6434052821 d37b1aa562 7003
owner: 64571925@N06
title: IMG_3382.jpg
originalsecret: null
originalformat: null
o_height: null
o_width: null
datetaken: 2011-04-11 15:15:05
dateupload: 1322705790
tags: miami artdeco southbeach usaunitedstates floridaflorida
license: 0
latitude: 25.777904
longitude: -80.131895
accuracy: 14
views: 0
interestingness: 184 out of 276

photo: 6433956707 5821d1f73b 7167
owner: 57835821@N00
title: Rosemary Beach
originalsecret: 74ea28bb38
originalformat: jpg
o_height: 3456
o_width: 4608
datetaken: 2011-11-26 10:30:42
dateupload: 1322704414
tags: florida fl newurbanism rosemarybeach traditionalneighborhood
license: 0
latitude: 30.281208
longitude: -86.016667
accuracy: 16
views: 8
interestingness: 185 out of 276

photo: 6433888191 0de9ea913c 7034
owner: 57835821@N00
title: Rosemary Beach
originalsecret: db2458cae1
originalformat: jpg
o_height: 3456
o_width: 4608
datetaken: 2011-11-26 10:17:22
dateupload: 1322703377
tags: florida fl newurbanism rosemarybeach traditionalneighborhood
license: 0
latitude: 30.278651
longitude: -86.017161
accuracy: 16
views: 6
interestingness: 186 out of 276

photo: 6433864227 ea98d59c76 7144
owner: 11425053@N03
title: 20111130 - 32 - Turks Cap
originalsecret: null
originalformat: null
o_height: null
o_width: null
datetaken: 2011-11-30 17:10:26
dateupload: 1322703035
tags: color florida gainesville 365 iphone
license: 0
latitude: 29.681333
longitude: -82.333
accuracy: 16
views: 1
interestingness: 187 out of 276

photo: 6433741305 f104a50bf6 7034
owner: 22224184@N00
title: Seuss Landing
originalsecret: 430e65d3bc
originalformat: jpg
o_height: 2304
o_width: 3072
datetaken: 2011-11-04 10:46:42
dateupload: 1322701215
tags: orlando florida universalstudios drseuss islandsofadventure
license: 0
latitude: 28.47244
longitude: -81.469529
accuracy: 16
views: 2
interestingness: 188 out of 276

photo: 6433738195 7619e2268e 7003
owner: 22224184@N00
title: Pogo
originalsecret: 7b6aeb2e96
originalformat: jpg
o_height: 2993
o_width: 2245
datetaken: 2011-11-04 12:49:09
dateupload: 1322701169
tags: orlando florida universalstudios islandsofadventure comicland
license: 0
latitude: 28.469917
longitude: -81.471245
accuracy: 16
views: 2
interestingness: 189 out of 276

photo: 6433737267 28ce88ac8d 7157
owner: 22224184@N00
title: Comic Land
originalsecret: 3d835572b5
originalformat: jpg
o_height: 2304
o_width: 3072
datetaken: 2011-11-04 12:49:41
dateupload: 1322701154
tags: orlando florida universalstudios islandsofadventure comicland
license: 0
latitude: 28.469625
longitude: -81.471589
accuracy: 16
views: 3
interestingness: 190 out of 276

photo: 6434385299 a5481ac8b1 7003
owner: 50297990@N00
title: Riggs and Pulley Shoot
originalsecret: 9908f261cb
originalformat: jpg
o_height: 2240
o_width: 1488
datetaken: 2011-11-20 21:31:07
dateupload: 1322710724
tags: 
license: 0
latitude: 27.46627
longitude: -82.698898
accuracy: 11
views: 75
interestingness: 191 out of 276

photo: 6433998477 52e5d9b94b 7008
owner: 38514062@N03
title: Slash Pine (Pinus elliottii)
originalsecret: d01452eae8
originalformat: jpg
o_height: 768
o_width: 1075
datetaken: 2011-11-26 11:26:02
dateupload: 1322705025
tags: centralflorida taxonomy:binomial=pinuselliottii marykeim
license: 1
latitude: 28.528517
longitude: -81.096568
accuracy: 16
views: 4
interestingness: 192 out of 276

photo: 6433624893 88949dafba 7169
owner: 38514062@N03
title: Erect Pricklypear (Opuntia stricta)
originalsecret: d7df81137a
originalformat: jpg
o_height: 1629
o_width: 2036
datetaken: 2011-11-24 12:19:31
dateupload: 1322699479
tags: centralflorida taxonomy:binomial=opuntiastricta marykeim
license: 1
latitude: 28.679142
longitude: -80.765647
accuracy: 13
views: 10
interestingness: 193 out of 276

photo: 6433623697 d4c90bd6c6 7161
owner: 38514062@N03
title: Hairypod Cowpea (Vigna luteola)
originalsecret: ef6e8ca10b
originalformat: jpg
o_height: 768
o_width: 1075
datetaken: 2011-11-24 11:09:56
dateupload: 1322699461
tags: centralflorida marykeim taxonomy:binomial=vignaluteola
license: 1
latitude: 28.679142
longitude: -80.765647
accuracy: 13
views: 8
interestingness: 194 out of 276

photo: 6433623299 4509b16329 7158
owner: 38514062@N03
title: Obscure Skipper (Panoquina panoquinoides)
originalsecret: 9f44de970a
originalformat: jpg
o_height: 768
o_width: 768
datetaken: 2011-11-24 11:33:34
dateupload: 1322699455
tags: centralflorida marykeim taxonomy:binomial=panoquinapanoquinoides
license: 1
latitude: 28.679142
longitude: -80.765647
accuracy: 13
views: 7
interestingness: 195 out of 276

photo: 6433622839 d3fd27d46c 7022
owner: 38514062@N03
title: Virginia Pepperweed (Lepidium virginicum)
originalsecret: aa600c3d18
originalformat: jpg
o_height: 768
o_width: 1075
datetaken: 2011-11-24 12:33:05
dateupload: 1322699448
tags: centralflorida taxonomy:binomial=lepidiumvirginicum marykeim
license: 1
latitude: 28.679142
longitude: -80.765647
accuracy: 13
views: 5
interestingness: 196 out of 276

photo: 6433622345 df34acfeb5 7021
owner: 38514062@N03
title: Red Cedar (Juniperus virginiana)
originalsecret: ceb907d74b
originalformat: jpg
o_height: 768
o_width: 1152
datetaken: 2011-11-24 11:30:15
dateupload: 1322699440
tags: centralflorida taxonomy:binomial=juniperusvirginiana marykeim
license: 1
latitude: 28.679142
longitude: -80.765647
accuracy: 13
views: 5
interestingness: 197 out of 276

photo: 6433895117 8fb450e6b4 7002
owner: 13738810@N08
title: iPhone 4 + Salvaged DVD Lens = Macro Camera
originalsecret: 03ca94162f
originalformat: jpg
o_height: 2592
o_width: 1936
datetaken: 2011-11-30 19:23:12
dateupload: 1322703476
tags: 
license: 0
latitude: 26.570109
longitude: -81.946463
accuracy: 16
views: 7
interestingness: 198 out of 276


mintime: 1322711996.48 maxtime: 1322731508.57
numimgs: 251
total pages: 2
visiting only 2 pages ( up to 500 images)
photo: 6435404913 e107bfdce9 7004
owner: 41368870@N03
title: JUST FISHIN'...
originalsecret: f1b2f1e494
originalformat: jpg
o_height: 2722
o_width: 2111
datetaken: 2011-11-29 07:53:11
dateupload: 1322730448
tags: florida pelican brownpelican panamacitybeach standrewsstatepark floridastateparks grandlagoon nikond3100 70300afsvrlens
license: 0
latitude: 30.132926
longitude: -85.731275
accuracy: 16
views: 212
interestingness: 1 out of 251

photo: 6434509721 6b8756a6b5 7028
owner: 37087164@N07
title: Bok Tower Gardens Lighting Workshop | Lake Wales, FL | Thanksgiving Weekend 2011
originalsecret: null
originalformat: null
o_height: null
o_width: null
datetaken: 2011-11-26 18:34:09
dateupload: 1322712516
tags: canon florida workshop boktower 2011 lakewales strobist 5dmarkii zacharylong fenglongphotocom fenglongphotography
license: 0
latitude: 27.93927
longitude: -81.573582
accuracy: 15
views: 189
interestingness: 2 out of 251

photo: 6435397991 09e5b90d93 7153
owner: 64882503@N04
title: bhs (380)
originalsecret: 8bbbd59f3b
originalformat: jpg
o_height: 2800
o_width: 1720
datetaken: 2007-08-18 17:34:59
dateupload: 1322730292
tags: usa canon eos florida wrestling brandon grayson wrestler fl wrestle highschoolwrestling
license: 0
latitude: 27.944023
longitude: -82.300826
accuracy: 16
views: 105
interestingness: 3 out of 251

photo: 6434590371 2b76680371 7151
owner: 40091403@N08
title: 
originalsecret: null
originalformat: null
o_height: null
o_width: null
datetaken: 2011-11-30 21:29:54
dateupload: 1322713706
tags: florida keywest
license: 0
latitude: 24.546732
longitude: -81.788181
accuracy: 15
views: 17
interestingness: 4 out of 251

photo: 6435397829 33c100b133 7023
owner: 64882503@N04
title: bhs (378)
originalsecret: f6ebb6e317
originalformat: jpg
o_height: 2428
o_width: 1596
datetaken: 2007-08-18 17:33:27
dateupload: 1322730288
tags: usa canon eos florida wrestling brandon wrestler fl wrestle highschoolwrestling
license: 0
latitude: 27.944023
longitude: -82.300826
accuracy: 16
views: 80
interestingness: 5 out of 251

photo: 6434981545 15068f23a4 7003
owner: 8384026@N07
title: Breezy Day
originalsecret: 905d4436b4
originalformat: jpg
o_height: 319
o_width: 640
datetaken: 2004-11-25 01:25:03
dateupload: 1322720703
tags: trees florida 7 windy palmtrees sarasota
license: 0
latitude: 27.2451
longitude: -82.49682
accuracy: 16
views: 17
interestingness: 6 out of 251

photo: 6435394221 0b9b481e93 7023
owner: 64882503@N04
title: bhs (381)
originalsecret: bcedb204f7
originalformat: jpg
o_height: 1305
o_width: 2161
datetaken: 2007-08-18 17:35:52
dateupload: 1322730206
tags: usa canon eos florida wrestling brandon grayson wrestler fl wrestle highschoolwrestling
license: 0
latitude: 27.944023
longitude: -82.300826
accuracy: 16
views: 40
interestingness: 7 out of 251

photo: 6434571549 28a57f75ed 7030
owner: 96486990@N00
title: Pirate Ship
originalsecret: 413f516d66
originalformat: jpg
o_height: 500
o_width: 319
datetaken: 2011-11-27 11:10:39
dateupload: 1322713422
tags: florida pirate clearwater negatone vertipan
license: 1
latitude: 27.976513
longitude: -82.827129
accuracy: 11
views: 27
interestingness: 8 out of 251

photo: 6434514957 d39cdf54d6 7034
owner: 13559836@N03
title: Onion Volcano
originalsecret: 83335ef910
originalformat: jpg
o_height: 1415
o_width: 1761
datetaken: 2011-11-12 17:47:08
dateupload: 1322712591
tags: japanese restaurant epcot florida cook disney 8mm edo mitsukoshi teppan rokinon
license: 1
latitude: 28.367532
longitude: -81.550676
accuracy: 16
views: 24
interestingness: 9 out of 251

photo: 6434746165 8017c01d43 7028
owner: 50823119@N08
title: Triviidae (Trivia family)
originalsecret: be91675637
originalformat: jpg
o_height: 1391
o_width: 2143
datetaken: 2011-11-30 11:16:46
dateupload: 1322716211
tags: triviidae triviafamily trivia triviasolandri solandri triviaeuropa europa triviapacifica pacifica trivirostraoryza triviaoryza triviellaovulata triviaovulata triviella ovulata triviamonacha triviaacuminata triviapediculus pediculus triviasanguinea sanguinea triviarubescens rubescens trivirostrahordacea triviahordacea trivirostra hordacea triviacaliforniana californiana triviamerces merces trivirostrapellucidula triviapellucidula triviaquadripunctata quadripunctata triviamyrae myrae taxonomy:binomial=triviasolandri taxonomy:binomial=triviaeuropa taxonomy:binomial=triviapacifica taxonomy:binomial=trivirostraoryza taxonomy:binomial=triviaoryza taxonomy:binomial=triviellaovulata taxonomy:binomial=triviaovulata taxonomy:binomial=triviamonacha taxonomy:binomial=triviaacuminata taxonomy:binomial=triviapediculus taxonomy:binomial=triviasanguinea taxonomy:binomial=triviarubescens taxonomy:binomial=trivirostrahordacea taxonomy:binomial=triviahordacea taxonomy:binomial=triviacaliforniana taxonomy:binomial=triviamerces taxonomy:binomial=trivirostrapellucidula taxonomy:binomial=triviapellucidula taxonomy:binomial=triviaquadripunctata taxonomy:binomial=triviamyrae shells marineshells seashells gastropods snail mollusk oahu hawaii beach sand animal white pink brown hawaiianislands cowry marinesnail seasnail
license: 1
latitude: 21.400495
longitude: -157.972297
accuracy: 11
views: 1
interestingness: 10 out of 251

photo: 6434555583 263b381bea 7150
owner: 42450712@N06
title: We Came As Romans (2)
originalsecret: null
originalformat: null
o_height: null
o_width: null
datetaken: 2011-11-17 19:55:16
dateupload: 1322713202
tags: canon orlando concert florida livemusic 7d citywalk hardrocklive hrl wecameasromans wwwtheconcertshootercom
license: 0
latitude: 28.473755
longitude: -81.467689
accuracy: 16
views: 17
interestingness: 11 out of 251

photo: 6434942871 da01983e3d 7172
owner: 25329964@N06
title: Jackie Taking In The Nuclear Sunset
originalsecret: 97cfb87721
originalformat: jpg
o_height: 2000
o_width: 3008
datetaken: 2011-11-26 15:17:15
dateupload: 1322719957
tags: island florida useppa
license: 0
latitude: 26.665954
longitude: -82.211508
accuracy: 16
views: 17
interestingness: 12 out of 251

photo: 6434938487 36be8a4e77 7163
owner: 25329964@N06
title: 
originalsecret: 8af2ec07c8
originalformat: jpg
o_height: 2014
o_width: 3039
datetaken: 2011-11-26 13:30:20
dateupload: 1322719867
tags: island florida useppa
license: 0
latitude: 26.665954
longitude: -82.211508
accuracy: 16
views: 9
interestingness: 13 out of 251

photo: 6434941477 d6014f7b0f 7163
owner: 25329964@N06
title: 
originalsecret: e425679f19
originalformat: jpg
o_height: 2014
o_width: 3039
datetaken: 2011-11-26 13:52:18
dateupload: 1322719928
tags: mexico island grande kayak gulf florida boca useppa
license: 0
latitude: 26.665954
longitude: -82.211508
accuracy: 16
views: 10
interestingness: 14 out of 251

photo: 5983978946 f3cfa158dd 6004
owner: 62172402@N07
title: Swings
originalsecret: 9ec92f17e0
originalformat: jpg
o_height: 3456
o_width: 5184
datetaken: 2011-04-18 19:22:34
dateupload: 1322730088
tags: florida swings swingset inverness sooc fortcooperstatepark canonefs1855mmf3556islens canoneosrebelt2i
license: 1
latitude: 28.80758
longitude: -82.303764
accuracy: 16
views: 3
interestingness: 15 out of 251

photo: 6435394403 df69c5c761 7175
owner: 64882503@N04
title: bhs (382)
originalsecret: babf7bcb76
originalformat: jpg
o_height: 1672
o_width: 2266
datetaken: 2007-08-18 17:36:24
dateupload: 1322730210
tags: usa canon eos florida wrestling brandon grayson wrestler fl wrestle highschoolwrestling
license: 0
latitude: 27.944023
longitude: -82.300826
accuracy: 16
views: 23
interestingness: 16 out of 251

photo: 6435394065 b6e5ced3eb 7160
owner: 64882503@N04
title: bhs (379)
originalsecret: 72967bb4af
originalformat: jpg
o_height: 1480
o_width: 2092
datetaken: 2007-08-18 17:34:49
dateupload: 1322730202
tags: usa canon eos florida wrestling brandon grayson wrestler fl wrestle highschoolwrestling
license: 0
latitude: 27.944023
longitude: -82.300826
accuracy: 16
views: 42
interestingness: 17 out of 251

photo: 6434591453 2ac02a683a 7012
owner: 42450712@N06
title: Korn (16)
originalsecret: null
originalformat: null
o_height: null
o_width: null
datetaken: 2011-11-10 23:13:15
dateupload: 1322713722
tags: canon orlando concert florida livemusic 7d korn citywalk hardrocklive 2011 hrl wwwtheconcertshootercom
license: 0
latitude: 28.473755
longitude: -81.467689
accuracy: 16
views: 24
interestingness: 18 out of 251

photo: 6434591239 1796e3e925 7150
owner: 42450712@N06
title: Korn (15)
originalsecret: null
originalformat: null
o_height: null
o_width: null
datetaken: 2011-11-10 23:13:04
dateupload: 1322713719
tags: canon orlando concert florida livemusic 7d korn citywalk hardrocklive 2011 hrl wwwtheconcertshootercom
license: 0
latitude: 28.473755
longitude: -81.467689
accuracy: 16
views: 4
interestingness: 19 out of 251

photo: 6434591133 6074703b9f 7149
owner: 42450712@N06
title: Korn (14)
originalsecret: null
originalformat: null
o_height: null
o_width: null
datetaken: 2011-11-10 23:12:21
dateupload: 1322713717
tags: canon orlando concert florida livemusic 7d korn citywalk hardrocklive 2011 hrl wwwtheconcertshootercom
license: 0
latitude: 28.473755
longitude: -81.467689
accuracy: 16
views: 4
interestingness: 20 out of 251

photo: 6434590879 2fa2a70d59 7035
owner: 42450712@N06
title: Korn (13)
originalsecret: null
originalformat: null
o_height: null
o_width: null
datetaken: 2011-11-10 23:10:05
dateupload: 1322713714
tags: canon orlando concert florida livemusic 7d korn citywalk hardrocklive 2011 hrl wwwtheconcertshootercom
license: 0
latitude: 28.473755
longitude: -81.467689
accuracy: 16
views: 1
interestingness: 21 out of 251

photo: 6434590697 6acd596705 7034
owner: 42450712@N06
title: Korn (12)
originalsecret: null
originalformat: null
o_height: null
o_width: null
datetaken: 2011-11-10 23:09:41
dateupload: 1322713710
tags: canon orlando concert florida livemusic 7d korn citywalk hardrocklive 2011 hrl wwwtheconcertshootercom
license: 0
latitude: 28.473755
longitude: -81.467689
accuracy: 16
views: 17
interestingness: 22 out of 251

photo: 6434590477 9ef30c0508 7007
owner: 42450712@N06
title: Korn (11)
originalsecret: null
originalformat: null
o_height: null
o_width: null
datetaken: 2011-11-10 23:08:54
dateupload: 1322713707
tags: canon orlando concert florida livemusic 7d korn citywalk hardrocklive 2011 hrl wwwtheconcertshootercom
license: 0
latitude: 28.473755
longitude: -81.467689
accuracy: 16
views: 203
interestingness: 23 out of 251

photo: 6434590219 08da59173e 7019
owner: 42450712@N06
title: Korn (10)
originalsecret: null
originalformat: null
o_height: null
o_width: null
datetaken: 2011-11-10 23:08:38
dateupload: 1322713704
tags: canon orlando concert florida livemusic 7d korn citywalk hardrocklive 2011 hrl wwwtheconcertshootercom
license: 0
latitude: 28.473755
longitude: -81.467689
accuracy: 16
views: 6
interestingness: 24 out of 251

photo: 6434589981 afe73d0277 7033
owner: 42450712@N06
title: Korn (9)
originalsecret: null
originalformat: null
o_height: null
o_width: null
datetaken: 2011-11-10 23:06:43
dateupload: 1322713701
tags: canon orlando concert florida livemusic 7d korn citywalk hardrocklive 2011 hrl wwwtheconcertshootercom
license: 0
latitude: 28.473755
longitude: -81.467689
accuracy: 16
views: 2
interestingness: 25 out of 251

photo: 6434589795 6c6e2902af 7172
owner: 42450712@N06
title: Korn (8)
originalsecret: null
originalformat: null
o_height: null
o_width: null
datetaken: 2011-11-10 23:06:32
dateupload: 1322713698
tags: canon orlando concert florida livemusic 7d korn citywalk hardrocklive 2011 hrl wwwtheconcertshootercom
license: 0
latitude: 28.473755
longitude: -81.467689
accuracy: 16
views: 3
interestingness: 26 out of 251

photo: 6434589539 3d5901ce08 7015
owner: 42450712@N06
title: Korn (7)
originalsecret: null
originalformat: null
o_height: null
o_width: null
datetaken: 2011-11-10 23:06:25
dateupload: 1322713695
tags: canon orlando concert florida livemusic 7d korn citywalk hardrocklive 2011 hrl wwwtheconcertshootercom
license: 0
latitude: 28.473755
longitude: -81.467689
accuracy: 16
views: 2
interestingness: 27 out of 251

photo: 6434589377 7543c2a91b 7022
owner: 42450712@N06
title: Korn (6)
originalsecret: null
originalformat: null
o_height: null
o_width: null
datetaken: 2011-11-10 23:05:38
dateupload: 1322713692
tags: canon orlando concert florida livemusic 7d korn citywalk hardrocklive 2011 hrl wwwtheconcertshootercom
license: 0
latitude: 28.473755
longitude: -81.467689
accuracy: 16
views: 3
interestingness: 28 out of 251

photo: 6434589165 66fc23a8c9 7009
owner: 42450712@N06
title: Korn (5)
originalsecret: null
originalformat: null
o_height: null
o_width: null
datetaken: 2011-11-10 23:05:26
dateupload: 1322713689
tags: canon orlando concert florida livemusic 7d korn citywalk hardrocklive 2011 hrl wwwtheconcertshootercom
license: 0
latitude: 28.473755
longitude: -81.467689
accuracy: 16
views: 18
interestingness: 29 out of 251

photo: 6434589037 16274f1c45 7174
owner: 42450712@N06
title: Korn (4)
originalsecret: null
originalformat: null
o_height: null
o_width: null
datetaken: 2011-11-10 23:04:57
dateupload: 1322713687
tags: canon orlando concert florida livemusic 7d korn citywalk hardrocklive 2011 hrl wwwtheconcertshootercom
license: 0
latitude: 28.473755
longitude: -81.467689
accuracy: 16
views: 2
interestingness: 30 out of 251

photo: 6434588839 594344f363 7160
owner: 42450712@N06
title: Korn (3)
originalsecret: null
originalformat: null
o_height: null
o_width: null
datetaken: 2011-11-10 23:04:53
dateupload: 1322713684
tags: canon orlando concert florida livemusic 7d korn citywalk hardrocklive 2011 hrl wwwtheconcertshootercom
license: 0
latitude: 28.473755
longitude: -81.467689
accuracy: 16
views: 3
interestingness: 31 out of 251

photo: 6434588685 d6024423d3 7175
owner: 42450712@N06
title: Korn (2)
originalsecret: null
originalformat: null
o_height: null
o_width: null
datetaken: 2011-11-10 23:04:33
dateupload: 1322713682
tags: canon orlando concert florida livemusic 7d korn citywalk hardrocklive 2011 hrl wwwtheconcertshootercom
license: 0
latitude: 28.473755
longitude: -81.467689
accuracy: 16
views: 16
interestingness: 32 out of 251

photo: 6434588303 ec9e2b7e9b 7150
owner: 42450712@N06
title: Korn (1)
originalsecret: null
originalformat: null
o_height: null
o_width: null
datetaken: 2011-11-10 23:04:23
dateupload: 1322713676
tags: canon orlando concert florida livemusic 7d korn citywalk hardrocklive 2011 hrl wwwtheconcertshootercom
license: 0
latitude: 28.473755
longitude: -81.467689
accuracy: 16
views: 17
interestingness: 33 out of 251

photo: 6434573315 ba3e49c112 7158
owner: 42450712@N06
title: Five Finger Death Punch (6)
originalsecret: null
originalformat: null
o_height: null
o_width: null
datetaken: 2011-11-19 23:52:49
dateupload: 1322713449
tags: canon orlando concert florida livemusic 7d citywalk hardrocklive ffdp hrl fivefingerdeathpunch wwwtheconcertshootercom
license: 0
latitude: 28.473755
longitude: -81.467689
accuracy: 16
views: 18
interestingness: 34 out of 251

photo: 6434573099 f43fd671d5 7168
owner: 42450712@N06
title: Five Finger Death Punch (5)
originalsecret: null
originalformat: null
o_height: null
o_width: null
datetaken: 2011-11-19 23:51:35
dateupload: 1322713445
tags: canon orlando concert florida livemusic 7d citywalk hardrocklive ffdp hrl fivefingerdeathpunch wwwtheconcertshootercom
license: 0
latitude: 28.473755
longitude: -81.467689
accuracy: 16
views: 15
interestingness: 35 out of 251

photo: 6434572857 6b93abfef9 7007
owner: 42450712@N06
title: Five Finger Death Punch (4)
originalsecret: null
originalformat: null
o_height: null
o_width: null
datetaken: 2011-11-19 23:50:38
dateupload: 1322713442
tags: canon orlando concert florida livemusic 7d citywalk hardrocklive ffdp hrl fivefingerdeathpunch wwwtheconcertshootercom
license: 0
latitude: 28.473755
longitude: -81.467689
accuracy: 16
views: 13
interestingness: 36 out of 251

photo: 6434572611 975beb7413 7035
owner: 42450712@N06
title: Five Finger Death Punch (3)
originalsecret: null
originalformat: null
o_height: null
o_width: null
datetaken: 2011-11-19 23:48:30
dateupload: 1322713438
tags: canon orlando concert florida livemusic 7d citywalk hardrocklive ffdp hrl fivefingerdeathpunch wwwtheconcertshootercom
license: 0
latitude: 28.473755
longitude: -81.467689
accuracy: 16
views: 16
interestingness: 37 out of 251

photo: 6434572117 44b8a64fb0 7144
owner: 42450712@N06
title: Five Finger Death Punch (1)
originalsecret: null
originalformat: null
o_height: null
o_width: null
datetaken: 2011-11-19 23:48:14
dateupload: 1322713431
tags: canon orlando concert florida livemusic 7d citywalk hardrocklive ffdp hrl fivefingerdeathpunch wwwtheconcertshootercom
license: 0
latitude: 28.473755
longitude: -81.467689
accuracy: 16
views: 14
interestingness: 38 out of 251

photo: 6434571915 0709aeaa38 7156
owner: 42450712@N06
title: Five Finger Death Punch (15)
originalsecret: null
originalformat: null
o_height: null
o_width: null
datetaken: 2011-11-19 23:47:58
dateupload: 1322713427
tags: canon orlando concert florida livemusic 7d citywalk hardrocklive ffdp hrl fivefingerdeathpunch wwwtheconcertshootercom
license: 0
latitude: 28.473755
longitude: -81.467689
accuracy: 16
views: 14
interestingness: 39 out of 251

photo: 6434571699 f21cbafc9b 7012
owner: 42450712@N06
title: Five Finger Death Punch (14)
originalsecret: null
originalformat: null
o_height: null
o_width: null
datetaken: 2011-11-19 23:46:52
dateupload: 1322713424
tags: canon orlando concert florida livemusic 7d citywalk hardrocklive ffdp hrl fivefingerdeathpunch wwwtheconcertshootercom
license: 0
latitude: 28.473755
longitude: -81.467689
accuracy: 16
views: 12
interestingness: 40 out of 251

photo: 6434571477 65c32a3fd8 7027
owner: 42450712@N06
title: Five Finger Death Punch (13)
originalsecret: null
originalformat: null
o_height: null
o_width: null
datetaken: 2011-11-19 23:46:48
dateupload: 1322713421
tags: canon orlando concert florida livemusic 7d citywalk hardrocklive ffdp hrl fivefingerdeathpunch wwwtheconcertshootercom
license: 0
latitude: 28.473755
longitude: -81.467689
accuracy: 16
views: 0
interestingness: 41 out of 251

photo: 6434571213 494f8b41d5 7013
owner: 42450712@N06
title: Five Finger Death Punch (12)
originalsecret: null
originalformat: null
o_height: null
o_width: null
datetaken: 2011-11-19 23:46:29
dateupload: 1322713418
tags: canon orlando concert florida livemusic 7d citywalk hardrocklive ffdp hrl fivefingerdeathpunch wwwtheconcertshootercom
license: 0
latitude: 28.473755
longitude: -81.467689
accuracy: 16
views: 15
interestingness: 42 out of 251

photo: 6434570911 7301f4305b 7029
owner: 42450712@N06
title: Five Finger Death Punch (11)
originalsecret: null
originalformat: null
o_height: null
o_width: null
datetaken: 2011-11-19 23:46:16
dateupload: 1322713414
tags: canon orlando concert florida livemusic 7d citywalk hardrocklive ffdp hrl fivefingerdeathpunch wwwtheconcertshootercom
license: 0
latitude: 28.473755
longitude: -81.467689
accuracy: 16
views: 12
interestingness: 43 out of 251

photo: 6434570695 33b6481bee 7156
owner: 42450712@N06
title: Five Finger Death Punch (10)
originalsecret: null
originalformat: null
o_height: null
o_width: null
datetaken: 2011-11-19 23:46:12
dateupload: 1322713411
tags: canon orlando concert florida livemusic 7d citywalk hardrocklive ffdp hrl fivefingerdeathpunch wwwtheconcertshootercom
license: 0
latitude: 28.473755
longitude: -81.467689
accuracy: 16
views: 17
interestingness: 44 out of 251

photo: 6434570479 ffb5bbbca5 7004
owner: 42450712@N06
title: Five Finger Death Punch (9)
originalsecret: null
originalformat: null
o_height: null
o_width: null
datetaken: 2011-11-19 23:46:06
dateupload: 1322713407
tags: canon orlando concert florida livemusic 7d citywalk hardrocklive ffdp hrl fivefingerdeathpunch wwwtheconcertshootercom
license: 0
latitude: 28.473755
longitude: -81.467689
accuracy: 16
views: 14
interestingness: 45 out of 251

photo: 6434570259 3664dfa2a5 7020
owner: 42450712@N06
title: Five Finger Death Punch (8)
originalsecret: null
originalformat: null
o_height: null
o_width: null
datetaken: 2011-11-19 23:45:31
dateupload: 1322713404
tags: canon orlando concert florida livemusic 7d citywalk hardrocklive ffdp hrl fivefingerdeathpunch wwwtheconcertshootercom
license: 0
latitude: 28.473755
longitude: -81.467689
accuracy: 16
views: 15
interestingness: 46 out of 251

photo: 6434569859 0e7c6b1e15 7171
owner: 42450712@N06
title: Five Finger Death Punch (7)
originalsecret: null
originalformat: null
o_height: null
o_width: null
datetaken: 2011-11-19 23:45:07
dateupload: 1322713401
tags: canon orlando concert florida livemusic 7d citywalk hardrocklive ffdp hrl fivefingerdeathpunch wwwtheconcertshootercom
license: 0
latitude: 28.473755
longitude: -81.467689
accuracy: 16
views: 15
interestingness: 47 out of 251

photo: 6434555353 031047dbaa 7005
owner: 42450712@N06
title: We Came As Romans (1)
originalsecret: null
originalformat: null
o_height: null
o_width: null
datetaken: 2011-11-17 19:54:41
dateupload: 1322713199
tags: canon orlando concert florida livemusic 7d citywalk hardrocklive hrl wecameasromans wwwtheconcertshootercom
license: 0
latitude: 28.473755
longitude: -81.467689
accuracy: 16
views: 24
interestingness: 48 out of 251

photo: 6434555115 afcf5c6cb5 7170
owner: 42450712@N06
title: We Came As Romans (4)
originalsecret: null
originalformat: null
o_height: null
o_width: null
datetaken: 2011-11-17 19:53:38
dateupload: 1322713196
tags: canon orlando concert florida livemusic 7d citywalk hardrocklive hrl wecameasromans wwwtheconcertshootercom
license: 0
latitude: 28.473755
longitude: -81.467689
accuracy: 16
views: 3
interestingness: 49 out of 251

photo: 6434554801 c40db5cdcc 7027
owner: 42450712@N06
title: We Came As Romans (3)
originalsecret: null
originalformat: null
o_height: null
o_width: null
datetaken: 2011-11-17 19:52:54
dateupload: 1322713191
