
mintime: 1322697600 maxtime: 1324512427.5
numimgs: 96
total pages: 1
visiting only 1 pages ( up to 250 images)
photo: 4018637345 02302f05b0 2650
owner: 25959337@N00
title: My shadow, my fog bow, my aura
originalsecret: a8290454a8
originalformat: jpg
o_height: 3079
o_width: 2848
datetaken: 2009-10-17 10:34:57
dateupload: 1323010212
tags: light shadow selfportrait nature weather norway clouds landscape photography norge photo rainbow nikon foto natur norwegen 1001nights landschaft norvege fotografi fogbow bilde fiatlux d90 circularrainbow sykkylven nikond90 fogdog flickrestrellas sykylven sykkelven sykkulven mygearandmepremium mygearandmebronze sykulven sykelven
license: 0
latitude: 62.423764
longitude: 6.611537
accuracy: 16
views: 17957
interestingness: 1 out of 96

photo: 4664444537 a40ba6c3bd 1300
owner: 31086818@N08
title: Floating, 1947 - Weeki Wachee, Florida
originalsecret: 74187d17e2
originalformat: jpg
o_height: 3000
o_width: 3000
datetaken: 1947-01-01 00:00:00
dateupload: 1323363377
tags: floating mermaid 1947 publicdomain weekiwachee
license: 0
latitude: 28.518709
longitude: -82.570869
accuracy: 11
views: 1047
interestingness: 2 out of 96

photo: 6438125283 73809640b3 7165
owner: 10411969@N07
title: Maggie Diaz
originalsecret: null
originalformat: null
o_height: null
o_width: null
datetaken: 2011-10-31 09:19:14
dateupload: 1322773542
tags: portrait 120 6x6 film mediumformat photographer naturallight australia melbourne victoria ilforddelta400 kowasix maggiediaz gardenvaletunnel
license: 0
latitude: -37.896403
longitude: 145.004451
accuracy: 16
views: 220
interestingness: 3 out of 96

photo: 6462404521 0496b9aac1 7155
owner: 10411969@N07
title: Maggie Diaz
originalsecret: null
originalformat: null
o_height: null
o_width: null
datetaken: 2011-12-06 09:34:37
dateupload: 1323124523
tags: portrait blackandwhite bw woman 120 6x6 mediumformat photographer rockstar naturallight australia melbourne victoria ilforddelta400 hammingitup kowasix maggiediaz gardenvaletunnel
license: 0
latitude: -37.896306
longitude: 145.004505
accuracy: 16
views: 152
interestingness: 4 out of 96

photo: 6470035359 760817fc4b 7030
owner: 10411969@N07
title: Maggie & Gwen
originalsecret: null
originalformat: null
o_height: null
o_width: null
datetaken: 2011-10-30 10:26:16
dateupload: 1323236114
tags: portrait blackandwhite bw woman 120 6x6 mediumformat photographer naturallight australia melbourne victoria ilforddelta400 kowasix maggiediaz gardenvaletunnel gwendelacy
license: 0
latitude: -37.896505
longitude: 145.004548
accuracy: 16
views: 123
interestingness: 5 out of 96

photo: 6442915625 379e62133e 7011
owner: 24256351@N04
title: First and Cherry, circa 1905
originalsecret: c7b1d008bd
originalformat: jpg
o_height: 943
o_width: 1200
datetaken: 1905-00-01 00:00:00
dateupload: 1322853810
tags: seattle totempoles pioneersquare 1900s seattlemunicipalarchives
license: 4
latitude: 47.601921
longitude: -122.33402
accuracy: 15
views: 251
interestingness: 6 out of 96

photo: 6461071995 109456b950 7163
owner: 24256351@N04
title: First and Yesler, circa 1959
originalsecret: 91037fb2a3
originalformat: jpg
o_height: 480
o_width: 711
datetaken: 1959-00-01 00:00:00
dateupload: 1323109648
tags: seattle bus 1950s pioneersquare pergola seattlemunicipalarchives
license: 4
latitude: 47.601755
longitude: -122.334127
accuracy: 15
views: 366
interestingness: 7 out of 96

photo: 6466820397 11dea3cb56 7025
owner: 48877431@N05
title: Decorating the Christmas Tree at Clarence House
originalsecret: 541ed768b0
originalformat: jpg
o_height: 1424
o_width: 2128
datetaken: 2011-12-06 17:10:09
dateupload: 1323192372
tags: christmas house tree london cornwall helen douglas clarence fund duchess taxidrivers
license: 0
latitude: 51.504208
longitude: -0.137656
accuracy: 16
views: 1134
interestingness: 8 out of 96

photo: 6452039657 46c33ab10a 7159
owner: 11246488@N08
title: Pom Poms
originalsecret: 1ab0e96e8f
originalformat: jpg
o_height: 2054
o_width: 2739
datetaken: 2011-12-04 11:27:49
dateupload: 1322999119
tags: wildflower westernaustralia pompoms mullamulla australianwildflower ptilotusmanglesii worldflowers rosetippedmullamulla coomallonaturereserve
license: 0
latitude: -30.67302
longitude: 115.479726
accuracy: 13
views: 87
interestingness: 9 out of 96

photo: 6433730191 d1ec8f3f83 7031
owner: 29454428@N08
title: Macquarie Island, 1955. Elephant seal bull
originalsecret: 0207cc24c0
originalformat: jpg
o_height: 1111
o_width: 1400
datetaken: 1955-01-01 00:00:00
dateupload: 1322701045
tags: statelibraryofnewsouthwales
license: 7
latitude: -54.977613
longitude: 151.523437
accuracy: 11
views: 167
interestingness: 10 out of 96

photo: 6456366655 32597d1d7d 7028
owner: 29454428@N08
title: Woman with her new Maxwell car and dog, Shoalhaven, ca. 1920 / photographer Cyrus S. Moss
originalsecret: 15904435b0
originalformat: jpg
o_height: 1178
o_width: 1600
datetaken: 1920-00-01 00:00:00
dateupload: 1323045589
tags: dog puppy vintagecar maxwell womandriver
license: 7
latitude: -34.871003
longitude: 150.604705
accuracy: 10
views: 313
interestingness: 11 out of 96

photo: 6463245837 fcf1987055 7005
owner: 29454428@N08
title: Spectators of the Australian Sesquicentenary parade stand on trams for a better view, George Street, Sydney, 26 January 1938 / photographer Donald Charles Boulton Maclurcan
originalsecret: a52f4587cc
originalformat: jpg
o_height: 1475
o_width: 1932
datetaken: 1938-01-26 12:00:00
dateupload: 1323135780
tags: 1938 sydney tram parade australiaday trams georgestreet spectator 26thjanuary australiansesquicentenary
license: 7
latitude: -33.867449
longitude: 151.207108
accuracy: 16
views: 240
interestingness: 12 out of 96

photo: 6439733831 4cf4e175c3 7153
owner: 7202153@N03
title: Colorado River & Phantom Ranch cottonwoods from South Kaibab Trail
originalsecret: 92d1de21ab
originalformat: jpg
o_height: 2770
o_width: 3694
datetaken: 2011-11-21 11:47:16
dateupload: 1322797750
tags: park camping arizona nationalpark hiking grandcanyon grand canyon hike trail national backpacking backcountry horseshoe grandview tonto mesa southrim grandviewtrail horseshoemesa grandcanyonnationalpark tontotrail alhikesaz belowtherim gc2011 grandviewyakipoint2011
license: 2
latitude: 36.069836
longitude: -112.082905
accuracy: 15
views: 106
interestingness: 13 out of 96

photo: 6466816343 2e17ce277e 7148
owner: 48877431@N05
title: Decorating the Christmas Tree at Clarence House
originalsecret: 6b2a85cc02
originalformat: jpg
o_height: 1424
o_width: 2128
datetaken: 2011-12-06 17:03:04
dateupload: 1323192317
tags: christmas house tree london cornwall helen douglas clarence fund duchess taxidrivers
license: 0
latitude: 51.504198
longitude: -0.137752
accuracy: 16
views: 1087
interestingness: 14 out of 96

photo: 6445676889 0d953837ab 7150
owner: 36011917@N00
title: saturday morning
originalsecret: f01a170366
originalformat: jpg
o_height: 1903
o_width: 2651
datetaken: 2011-12-03 08:25:14
dateupload: 1322901760
tags: telaviv tel aviv parkhayarkon ?????????? ?????? netagov ??????
license: 0
latitude: 32.072101
longitude: 34.764518
accuracy: 11
views: 57
interestingness: 15 out of 96

photo: 6437195049 5a31c265cb 7009
owner: 24256351@N04
title: Aurora Bridge under construction, 1931
originalsecret: 3bcb85ffc6
originalformat: jpg
o_height: 3196
o_width: 4027
datetaken: 1931-05-07 10:52:24
dateupload: 1322761079
tags: seattle 1930s lakeunion aurorabridge houseboats eastlake highway99 seattlemunicipalarchives
license: 4
latitude: 47.641948
longitude: -122.33016
accuracy: 14
views: 218
interestingness: 16 out of 96

photo: 6470831929 fcfee828d2 7033
owner: 48877431@N05
title: Decorating the Christmas Tree at Clarence House
originalsecret: 6e0a833ca1
originalformat: jpg
o_height: 2128
o_width: 1424
datetaken: 2011-12-06 17:24:31
dateupload: 1323253139
tags: christmas house tree london cornwall helen douglas clarence fund duchess taxidrivers
license: 0
latitude: 51.504097
longitude: -0.137409
accuracy: 16
views: 1048
interestingness: 17 out of 96

photo: 6444635475 786c3783f0 7024
owner: 9828874@N02
title: Bartholdi Park Views
originalsecret: 7969bac99c
originalformat: jpg
o_height: 719
o_width: 1111
datetaken: 2011-08-22 21:47:54
dateupload: 1322880986
tags: park blue fountain garden washingtondc dc washington uscapitol capitol botanic usbotanicgarden bartholdi bartholdipark dwoodphotography dwoodphotographycom
license: 0
latitude: 38.886816
longitude: -77.012705
accuracy: 16
views: 96
interestingness: 18 out of 96

photo: 6466793871 8095ec04f4 7148
owner: 48877431@N05
title: Decorating the Christmas Tree at Clarence House
originalsecret: ac420cdb7e
originalformat: jpg
o_height: 1424
o_width: 2128
datetaken: 2011-12-06 17:46:53
dateupload: 1323192044
tags: christmas house tree london cornwall helen douglas clarence fund duchess taxidrivers
license: 0
latitude: 51.504274
longitude: -0.137731
accuracy: 16
views: 1091
interestingness: 19 out of 96

photo: 6452943947 a423c7726b 7166
owner: 30717090@N06
title: Bielefeld anno 2011
originalsecret: 8da63d1c38
originalformat: jpg
o_height: 3453
o_width: 5180
datetaken: 2011-06-23 13:40:29
dateupload: 1323011006
tags: city canon germany library congress bielefeld 1895 sparrenburg 2011 photomatix 550d flickraward
license: 1
latitude: 52.015462
longitude: 8.526522
accuracy: 16
views: 73
interestingness: 20 out of 96

photo: 6466797279 26710d8a37 7020
owner: 48877431@N05
title: Decorating the Christmas Tree at Clarence House
originalsecret: 663e11b908
originalformat: jpg
o_height: 1424
o_width: 2128
datetaken: 2011-12-06 17:24:02
dateupload: 1323192087
tags: christmas house tree london cornwall helen douglas clarence fund duchess taxidrivers
license: 0
latitude: 51.50399
longitude: -0.13853
accuracy: 16
views: 986
interestingness: 21 out of 96

photo: 6444593369 57c34c5d64 7004
owner: 71042056@N08
title: La primera radiograf?a de la historia (W?rzburg, 1895)
originalsecret: bc435cb491
originalformat: jpg
o_height: 1600
o_width: 1137
datetaken: 1895-11-08 12:00:00
dateupload: 1322880223
tags: alemania rayosx wilhelmr?ntgen
license: 5
latitude: 49.79277
longitude: 9.936389
accuracy: 11
views: 4808
interestingness: 22 out of 96

photo: 6456363101 c861e99822 7009
owner: 29454428@N08
title: Humber car, Shoalhaven, ca. 1906 / photographer Cyrus S. Moss
originalsecret: 1134d8e28e
originalformat: jpg
o_height: 1156
o_width: 1600
datetaken: 1906-00-01 00:00:00
dateupload: 1323045551
tags: car humber veterancar
license: 7
latitude: -34.868468
longitude: 150.623931
accuracy: 10
views: 232
interestingness: 23 out of 96

photo: 6439733131 a2e7de444e 7006
owner: 7202153@N03
title: Miners Mess Hall - Horseshoe Mesa - Grand Canyon
originalsecret: 296ff91e90
originalformat: jpg
o_height: 4000
o_width: 3000
datetaken: 2011-11-18 12:39:26
dateupload: 1322797739
tags: park camping arizona chimney building hall nationalpark ruins mess hiking grandcanyon ruin grand canyon hike mining trail national backpacking backcountry dining horseshoe grandview tonto mesa southrim grandviewtrail horseshoemesa grandcanyonnationalpark peterberry tontotrail alhikesaz belowtherim lastchancemine gc2011 grandviewyakipoint2011
license: 2
latitude: 36.024199
longitude: -111.978063
accuracy: 14
views: 63
interestingness: 24 out of 96

photo: 6466812603 98fb6740c7 7163
owner: 48877431@N05
title: Decorating the Christmas Tree at Clarence House
originalsecret: e0930901a1
originalformat: jpg
o_height: 1424
o_width: 2128
datetaken: 2011-12-06 16:47:33
dateupload: 1323192272
tags: christmas house tree london cornwall helen douglas clarence fund duchess taxidrivers
license: 0
latitude: 51.504107
longitude: -0.137688
accuracy: 16
views: 845
interestingness: 25 out of 96

photo: 6456936341 dd6d0b3f7c 7173
owner: 26599457@N05
title: N188ES Gulfstream GV "Philadelphia Flyer" NHL Gov. Meeting
originalsecret: c2603e5a71
originalformat: jpg
o_height: 1067
o_width: 1600
datetaken: 2011-12-04 04:14:47
dateupload: 1323051912
tags: california new 2001 money philadelphia hockey cali canon corporate nhl monterey airport unique jet dream first business g5 cal ceo norcal biz peninsula executive runway mid regional airliner owner fliers gulfstream gv mry g550 kmry n188es
license: 0
latitude: 36.586173
longitude: -121.845588
accuracy: 11
views: 139
interestingness: 26 out of 96

photo: 6472790441 450d323692 7163
owner: 24256351@N04
title: Proposed R.H. Thomson Freeway arboretum interchange, 1960
originalsecret: 603d43d969
originalformat: gif
o_height: 978
o_width: 1200
datetaken: 1960-01-08 10:34:37
dateupload: 1323282877
tags: seattle drawings arboretum highways 1960s freeways montlake seattlemunicipalarchives empireexpressway rhthomsonfreeway
license: 4
latitude: 47.644737
longitude: -122.297362
accuracy: 13
views: 180
interestingness: 27 out of 96

photo: 6470827799 b987b152f5 7005
owner: 48877431@N05
title: Decorating the Christmas Tree at Clarence House
originalsecret: 172b50cc73
originalformat: jpg
o_height: 1424
o_width: 2128
datetaken: 2011-12-06 17:42:12
dateupload: 1323253053
tags: christmas house tree london cornwall helen douglas clarence fund duchess taxidrivers
license: 0
latitude: 51.504211
longitude: -0.137688
accuracy: 16
views: 551
interestingness: 28 out of 96

photo: 6453977359 5b223d8889 7147
owner: 50614028@N00
title: Departing the Quay
originalsecret: e634ff9b6a
originalformat: jpg
o_height: 2568
o_width: 4116
datetaken: 2011-12-05 05:01:28
dateupload: 1323021688
tags: city sydney raining
license: 1
latitude: -33.847648
longitude: 151.171981
accuracy: 14
views: 60
interestingness: 29 out of 96

photo: 6473922829 227166b9ee 7148
owner: 7821771@N05
title: Incredible shrinking viaduct 1 - Dec. 7, 2011
originalsecret: baca126f5a
originalformat: jpg
o_height: 2635
o_width: 3845
datetaken: 2011-12-07 10:41:35
dateupload: 1323298364
tags: road seattle fog construction highway demolition viaduct equipment 99 pioneersquare gp sodo roadway downtownseattle highway99 alaskanwayviaduct sr99 washingtonstatedepartmentoftransportation stateroute december2011
license: 3
latitude: 47.595984
longitude: -122.335488
accuracy: 15
views: 110
interestingness: 30 out of 96

photo: 6460182451 14db5f8e93 7150
owner: 68824346@N02
title: South Shetland Islands and Antarctica
originalsecret: 6c88a90b5f
originalformat: jpg
o_height: 480
o_width: 720
datetaken: 2011-10-04 00:00:00
dateupload: 1323099808
tags: islands antarctica nasa oblique shetland iss
license: 4
latitude: -63.114637
longitude: -60.567626
accuracy: 8
views: 34
interestingness: 31 out of 96

photo: 6480135843 297eb4d448 7022
owner: 29454428@N08
title: Sybil Thorndike, English actress, 1932 / The Falk Studios
originalsecret: ecde616291
originalformat: jpg
o_height: 1050
o_width: 783
datetaken: 1932-01-01 00:00:00
dateupload: 1323403184
tags: actress actor joanofarc jeannedarc saintjoan damesybilthorndike
license: 7
latitude: -33.870041
longitude: 151.20758
accuracy: 14
views: 108
interestingness: 32 out of 96

photo: 6459275145 6f93efbae0 7146
owner: 45267462@N06
title: Tasmanian Tree skink (Niveoscincus pretiosus)
originalsecret: null
originalformat: null
o_height: null
o_width: null
datetaken: 2011-12-03 14:49:44
dateupload: 1323087918
tags: tasmania hobart mtwellington skink tasmanian sphynxrock niveoscincus niveoscincuspretiosus tasmaniantreeskink pretiosus hobartaustralasianantarcticexpiditioncommemorationday3
license: 0
latitude: -42.905209
longitude: 147.247619
accuracy: 16
views: 39
interestingness: 33 out of 96

photo: 6453377133 33e1c01f27 7168
owner: 11246488@N08
title: Goodenia coerulea
originalsecret: 5c43230936
originalformat: jpg
o_height: 1248
o_width: 1665
datetaken: 2011-12-04 11:39:45
dateupload: 1323015610
tags: australia wildflower westernaustralia goodenia coomallonaturereserve goodeniacoerulea
license: 0
latitude: -30.676195
longitude: 115.482387
accuracy: 13
views: 45
interestingness: 34 out of 96

photo: 6439735327 52db9f4fc2 7031
owner: 7202153@N03
title: Abandoned mining equipment - Horseshoe Mesa - Grand Canyon - South Rim
originalsecret: 69704f0d76
originalformat: jpg
o_height: 3000
o_width: 4000
datetaken: 2011-11-18 12:23:15
dateupload: 1322797775
tags: park camping arizona abandoned last nationalpark berry mine hiking grandcanyon grand canyon hike mining equipment machinery trail national backpacking pete backcountry chance horseshoe grandview tonto mesa southrim grandviewtrail horseshoemesa miningequipment grandcanyonnationalpark tontotrail alhikesaz belowtherim lastchancemine gc2011 abandonedminingequipment grandviewyakipoint2011
license: 2
latitude: 36.024199
longitude: -111.978063
accuracy: 14
views: 54
interestingness: 35 out of 96

photo: 6467946763 7d36d0c7e2 7163
owner: 30425804@N03
title: Goldfinch enjoying Speckled Alder
originalsecret: dd6a6d3e8c
originalformat: jpg
o_height: 971
o_width: 773
datetaken: 2011-11-26 08:30:32
dateupload: 1323206054
tags: statepark november autumn tree bird fall river native wildlife goldfinch meadows ct shrub ctriver alder songbird catkins alnus haddam speckledalder alnusrugosa haddammeadows spinustristis
license: 0
latitude: 41.484405
longitude: -72.513198
accuracy: 11
views: 27
interestingness: 36 out of 96

photo: 6462526679 6b9c1805fc 7148
owner: 89782291@N00
title: 5 - 366
originalsecret: 6d4921a8bd
originalformat: jpg
o_height: 1000
o_width: 1500
datetaken: 2011-12-05 16:48:10
dateupload: 1323126129
tags: geotagged geo:lat=5586114801067315 geo:lon=4250742483020076
license: 1
latitude: 55.861148
longitude: -4.250742
accuracy: 16
views: 47
interestingness: 37 out of 96

photo: 6477056845 5672d0acff 7031
owner: 34916866@N02
title: GDS
originalsecret: 6734e4e70e
originalformat: jpg
o_height: 978
o_width: 1600
datetaken: 2011-12-08 10:38:38
dateupload: 1323356842
tags: digital government service gdslaunch
license: 2
latitude: 51.517382
longitude: -0.120667
accuracy: 16
views: 101
interestingness: 38 out of 96

photo: 6470929391 fea8729f21 7161
owner: 11516254@N00
title: Les (#15/100)
originalsecret: null
originalformat: null
o_height: null
o_width: null
datetaken: 2011-12-06 10:48:21
dateupload: 1323255180
tags: les stranger slough berkshire kevday no15 100strangers buergersdisease thromboangiitisobliterans
license: 0
latitude: 51.507911
longitude: -0.589216
accuracy: 16
views: 72
interestingness: 39 out of 96

photo: 6477767563 391394366b 7018
owner: 34916866@N02
title: The Wisdom of Martha
originalsecret: 63d40a90b7
originalformat: jpg
o_height: 1058
o_width: 1600
datetaken: 2011-12-08 12:37:21
dateupload: 1323366768
tags: digital government service gdslaunch
license: 2
latitude: 51.517382
longitude: -0.120667
accuracy: 16
views: 79
interestingness: 40 out of 96

photo: 6476192073 1574b450b4 7016
owner: 99804259@N00
title: Dendrelaphis punctulata
originalsecret: 4aeb445ece
originalformat: jpg
o_height: 2848
o_width: 4288
datetaken: 2011-12-08 09:07:08
dateupload: 1323341090
tags: reptile snake australia darwin northernterritory d90 punctulata rantz sooc straightoutofcamera dendrelaphispunctulata dendrelaphis commontreesnake goldentreesnake afsdxvrzoomnikkor18105mmf3556ged padmmxi pad2011 plurkpad2011 psad2011 plurkpsad2011 psadmmxi
license: 1
latitude: -12.356253
longitude: 130.880219
accuracy: 16
views: 59
interestingness: 41 out of 96

photo: 6467994433 550b101bdc 7011
owner: 20058054@N00
title: Freshwater Mussel, possibly pondhorn
originalsecret: a236e0e58f
originalformat: jpg
o_height: 683
o_width: 1024
datetaken: 2011-09-02 18:23:26
dateupload: 1323206640
tags: park creek kansas mussel wichita freshwater chisholm
license: 0
latitude: 37.741653
longitude: -97.264537
accuracy: 16
views: 43
interestingness: 42 out of 96

photo: 6453597963 981c8aeb16 7165
owner: 83724596@N00
title: mar sabarense (25a. FESTA DA JABUTICABA. Sabar?, MG, Brasil - 3 e 4/12/2011)
originalsecret: null
originalformat: null
o_height: null
o_width: null
datetaken: 2010-11-21 09:38:24
dateupload: 1323017872
tags: party minasgerais festival brasil fiesta comida fruta divers?o festa 25anos dmc lazer jabuticabeira jabuticaba fruto bodasdeprata tradi??o sabar? jaboticaba cr?nica fotemas frutabrasileira sabarabu?u sabar?bu?u myrciariajaboticabavellberg jaboticabasabar?
license: 1
latitude: -19.891947
longitude: -43.811289
accuracy: 16
views: 13
interestingness: 43 out of 96

photo: 6462028337 866fccc41e 7150
owner: 24574316@N07
title: Downtown Madison, Wisconsin, the Capitol, & Lake Monona from Olin Park
originalsecret: 4a819fdace
originalformat: jpg
o_height: 1455
o_width: 2048
datetaken: 2011-10-01 16:30:34
dateupload: 1323120120
tags: park trees lake building water skyline wisconsin downtown scenic panasonic capitol madison lakemonona turville olinpark olinturville fz18 scenicsnotjustlandscapes jimflix
license: 3
latitude: 43.05448
longitude: -89.375753
accuracy: 15
views: 57
interestingness: 44 out of 96

photo: 6476487849 f14b558636 7008
owner: 34916866@N02
title: Richard
originalsecret: 107ce47b39
originalformat: jpg
o_height: 1116
o_width: 1600
datetaken: 2011-12-08 11:15:39
dateupload: 1323347382
tags: digital government service gdslaunch
license: 2
latitude: 51.517382
longitude: -0.120667
accuracy: 16
views: 120
interestingness: 45 out of 96

photo: 6476468941 905bdf022f 7032
owner: 34916866@N02
title: GDS Launch
originalsecret: eb62f9d725
originalformat: jpg
o_height: 1121
o_width: 1600
datetaken: 2011-12-08 12:10:12
dateupload: 1323347004
tags: digital government service gdslaunch
license: 2
latitude: 51.517382
longitude: -0.120667
accuracy: 16
views: 133
interestingness: 46 out of 96

photo: 6476461549 2c2045cd15 7031
owner: 34916866@N02
title: Tom Loosemore
originalsecret: 6a8c8efc89
originalformat: jpg
o_height: 1060
o_width: 1600
datetaken: 2011-12-08 12:03:53
dateupload: 1323346858
tags: digital government service gdslaunch
license: 2
latitude: 51.517382
longitude: -0.120667
accuracy: 16
views: 144
interestingness: 47 out of 96

photo: 6453356075 5053fb7b3d 7147
owner: 11246488@N08
title: Goodenia coerulea
originalsecret: f02326e52e
originalformat: jpg
o_height: 2223
o_width: 1668
datetaken: 2011-12-04 11:40:07
dateupload: 1323015396
tags: australia wildflower westernaustralia goodenia worldflowers coomallonaturereserve goodeniacoerulea
license: 0
latitude: -30.674386
longitude: 115.48213
accuracy: 13
views: 39
interestingness: 48 out of 96

photo: 6469131727 fe60f5e260 7011
owner: 7202153@N03
title: Horseshoe Mesa from Grandview Trail - Grand Canyon - South Rim
originalsecret: 52abd7fbde
originalformat: jpg
o_height: 2854
o_width: 3806
datetaken: 2011-11-18 11:14:43
dateupload: 1323222373
tags: park camping arizona nationalpark hiking grandcanyon grand canyon hike trail national backpacking backcountry horseshoe grandview tonto mesa southrim grandviewtrail horseshoemesa grandcanyonnationalpark tontotrail alhikesaz belowtherim gc2011 grandviewyakipoint2011
license: 2
latitude: 36.000333
longitude: -111.982913
accuracy: 14
views: 44
interestingness: 49 out of 96

photo: 6477056571 e123b8b208 7142
owner: 34916866@N02
title: GDS
originalsecret: 9d63a1d5f8
originalformat: jpg
o_height: 966
o_width: 1600
datetaken: 2011-12-08 10:34:33
dateupload: 1323356838
tags: digital government service gdslaunch
license: 2
latitude: 51.517382
longitude: -0.120667
accuracy: 16
views: 83
interestingness: 50 out of 96

photo: 6477056441 2e81a5e090 7007
owner: 34916866@N02
title: GDS
originalsecret: 589b65ccbd
originalformat: jpg
o_height: 1067
o_width: 1600
datetaken: 2011-12-08 10:34:28
dateupload: 1323356836
tags: digital government service gdslaunch
license: 2
latitude: 51.517382
longitude: -0.120667
accuracy: 16
views: 83
interestingness: 51 out of 96

photo: 6437795591 e7534813ba 7162
owner: 11787988@N03
title: Light & Shadow
originalsecret: fb45d2e223
originalformat: jpg
o_height: 2056
o_width: 3088
datetaken: 2011-11-25 17:28:49
dateupload: 1322769308
tags: travel family nature outdoors lasvegas walk nevada hike lakemead tunnels bouldercity sooc historicrailroadtunneltrail
license: 0
latitude: 36.020567
longitude: -114.761793
accuracy: 14
views: 31
interestingness: 52 out of 96

photo: 6476310181 1ea53365a5 7028
owner: 34916866@N02
title: Watching from outside
originalsecret: 27306c347e
originalformat: jpg
o_height: 1044
o_width: 1600
datetaken: 2011-12-08 11:13:24
dateupload: 1323343701
tags: digital government service gdslaunch
license: 2
latitude: 51.517382
longitude: -0.120667
accuracy: 16
views: 161
interestingness: 53 out of 96

photo: 6442011583 ac71c4d8bc 7151
owner: 93382027@N00
title: Soldier Centaur
originalsecret: 34230e6331
originalformat: jpg
o_height: 1936
o_width: 1936
datetaken: 2011-12-02 11:25:04
dateupload: 1322841555
tags: soldier westonbirt merrygoround centaur iphone4 hipstamatic
license: 1
latitude: 51.607666
longitude: -2.219167
accuracy: 13
views: 20
interestingness: 54 out of 96

photo: 6435757585 e718c5efa6 7013
owner: 33647353@N02
title: Summer Streets 2011 ? support bike lanes
originalsecret: null
originalformat: null
o_height: null
o_width: null
datetaken: 2011-08-20 10:09:44
dateupload: 1322738679
tags: nyc newyorkcity cycling biking bikeride biketour bikeriding
license: 0
latitude: 40.740961
longitude: -73.985903
accuracy: 15
views: 44
interestingness: 55 out of 96

photo: 6479437545 7df624eeee 7015
owner: 7202153@N03
title: Hopi House - Grand Canyon Village
originalsecret: 97323c2976
originalformat: jpg
o_height: 2568
o_width: 3838
datetaken: 2011-11-17 16:35:31
dateupload: 1323391275
tags: park arizona house history retail architecture nationalpark village native district indian grandcanyon south rustic grand canyon historic nativeamerican national american rim southrim hopi grandcanyonnationalpark grandcanyonvillage buiilding hopihouse nationalhistoricdistrict maryjanecolter alhikesaz arizonamemoryproject gc2011 nationalparkrusticarchitecture
license: 2
latitude: 36.057256
longitude: -112.136796
accuracy: 16
views: 34
interestingness: 56 out of 96

photo: 6477403229 d4d14e1011 7151
owner: 34916866@N02
title: GDS Launch
originalsecret: 0d111d10a8
originalformat: jpg
o_height: 1053
o_width: 1600
datetaken: 2011-12-08 11:22:00
dateupload: 1323361687
tags: digital government service gdslaunch
license: 2
latitude: 51.517382
longitude: -0.120667
accuracy: 16
views: 63
interestingness: 57 out of 96

photo: 6477402825 038141fcbf 7003
owner: 34916866@N02
title: GDS Launch
originalsecret: b94857e8b7
originalformat: jpg
o_height: 1027
o_width: 1599
datetaken: 2011-12-08 11:15:03
dateupload: 1323361681
tags: digital government service gdslaunch
license: 2
latitude: 51.517382
longitude: -0.120667
accuracy: 16
views: 64
interestingness: 58 out of 96

photo: 6478210113 e2f10286ff 7165
owner: 39073242@N08
title: Campina Grande-PB. INSA (6).
originalsecret: 2af0487b48
originalformat: jpg
o_height: 3223
o_width: 5052
datetaken: 2011-12-07 08:48:34
dateupload: 1323373054
tags: do nacional ?instituto ?brasil? brasileiras? ?cidades nordestinas? ?para?ba? ?nordeste? ?campina grandepb? semi?rido? ?insa? ?semi?rido?
license: 0
latitude: -7.274611
longitude: -35.915679
accuracy: 9
views: 8
interestingness: 59 out of 96

photo: 6435095097 fa23678d75 7032
owner: 30079014@N03
title: John Forrest National Park, WA
originalsecret: ef67cbbe3c
originalformat: jpg
o_height: 773
o_width: 1200
datetaken: 2011-10-24 12:06:54
dateupload: 1322723214
tags: film water rocks kodak minoltax700 australia wa brook westernaustralia kodakgold100 johnforrestnationalpark colourfulrocks janebrook
license: 0
latitude: -31.888854
longitude: 116.093301
accuracy: 16
views: 25
interestingness: 60 out of 96

photo: 6477479705 214bd29c27 7150
owner: 12123622@N04
title: ????? A 426
originalsecret: 563c04428f
originalformat: jpg
o_height: 1082
o_width: 1600
datetaken: 2011-12-08 23:24:57
dateupload: 1323362784
tags: 
license: 3
latitude: 22.326963
longitude: 114.16755
accuracy: 16
views: 28
interestingness: 61 out of 96

photo: 6477057407 8cbbbcb300 7156
owner: 34916866@N02
title: Post its
originalsecret: b44bde1f50
originalformat: jpg
o_height: 1103
o_width: 1600
datetaken: 2011-12-08 10:43:01
dateupload: 1323356849
tags: digital government service gdslaunch
license: 2
latitude: 51.517382
longitude: -0.120667
accuracy: 16
views: 88
interestingness: 62 out of 96

photo: 6477056979 1173bcba0e 7015
owner: 34916866@N02
title: GDS Launch
originalsecret: 393d0c4808
originalformat: jpg
o_height: 932
o_width: 1599
datetaken: 2011-12-08 10:39:06
dateupload: 1323356844
tags: digital government service gdslaunch
license: 2
latitude: 51.517382
longitude: -0.120667
accuracy: 16
views: 117
interestingness: 63 out of 96

photo: 6473439453 06413a24e7 7157
owner: 16176711@N02
title: Quoile Pondage Nature Reserve
originalsecret: b4d784ecab
originalformat: jpg
o_height: 3072
o_width: 4608
datetaken: 2011-12-03 15:15:45
dateupload: 1323291496
tags: nature reserve pondage quoile
license: 0
latitude: 54.35156
longitude: -5.699753
accuracy: 14
views: 8
interestingness: 64 out of 96

photo: 6457886011 e8e593cc61 7157
owner: 8109481@N08
title: Above it all
originalsecret: null
originalformat: null
o_height: null
o_width: null
datetaken: 2011-11-26 07:45:27
dateupload: 1323062957
tags: california morning tree fog wildlife area sacramento egret bypass yolo
license: 0
latitude: 38.619621
longitude: -121.962066
accuracy: 11
views: 7
interestingness: 65 out of 96

photo: 6445967229 420ce15ac5 7158
owner: 33647353@N02
title: Summer Streets 2011 ? lafayette st
originalsecret: null
originalformat: null
o_height: null
o_width: null
datetaken: 2011-08-20 10:20:57
dateupload: 1322908467
tags: nyc newyorkcity cycling biking puma bikeride biketour bikeriding usainbolt
license: 0
latitude: 40.725728
longitude: -73.994904
accuracy: 16
views: 34
interestingness: 66 out of 96

photo: 6476305601 ab571b370f 7032
owner: 34916866@N02
title: Francis Maude
originalsecret: 229055e161
originalformat: jpg
o_height: 966
o_width: 1599
datetaken: 2011-12-08 11:14:31
dateupload: 1323343609
tags: digital government service francismaude paulfav gdslaunch
license: 2
latitude: 51.517382
longitude: -0.120667
accuracy: 16
views: 407
interestingness: 67 out of 96

photo: 6473922807 84b40b0bfc 7146
owner: 7821771@N05
title: Incredible shrinking viaduct 2 - December 7, 2011
originalsecret: e6cab0a8dc
originalformat: jpg
o_height: 2570
o_width: 4048
datetaken: 2011-12-07 10:41:01
dateupload: 1323298364
tags: road seattle fog construction highway demolition viaduct equipment 99 pioneersquare gp sodo roadway downtownseattle highway99 alaskanwayviaduct sr99 washingtonstatedepartmentoftransportation stateroute december2011
license: 3
latitude: 47.595615
longitude: -122.335467
accuracy: 15
views: 98
interestingness: 68 out of 96

photo: 6477795411 92393224a2 7141
owner: 34916866@N02
title: GDS
originalsecret: 9401dca65c
originalformat: jpg
o_height: 1004
o_width: 1600
datetaken: 2011-12-08 13:14:07
dateupload: 1323367186
tags: digital government service gdslaunch
license: 2
latitude: 51.517382
longitude: -0.120667
accuracy: 16
views: 72
interestingness: 69 out of 96

photo: 6477794887 2a018bfa9f 7169
owner: 34916866@N02
title: Glyn in a suit
originalsecret: bbbf0374fb
originalformat: jpg
o_height: 1012
o_width: 1600
datetaken: 2011-12-08 13:01:01
dateupload: 1323367179
tags: digital government service gdslaunch
license: 2
latitude: 51.517382
longitude: -0.120667
accuracy: 16
views: 105
interestingness: 70 out of 96

photo: 6473828187 4477b6489e 7033
owner: 24880758@N02
title: Grand Hotel, Fort William 6th December 2011
originalsecret: null
originalformat: null
o_height: null
o_width: null
datetaken: 2011-12-06 14:23:25
dateupload: 1323296995
tags: square hotel scotland unitedkingdom fort grand william gordon canmore fortwilliam gbr rcahms canmore:usr=677 canmore:id=109320 fortwilliamandardnamurchanward
license: 0
latitude: 56.816527
longitude: -5.113571
accuracy: 16
views: 4
interestingness: 71 out of 96

photo: 6451137575 eced83faac 7149
owner: 50614028@N00
title: In the Corner - Triple J
originalsecret: 3af573f105
originalformat: jpg
o_height: 2136
o_width: 2814
datetaken: 2011-12-04 18:04:55
dateupload: 1322982295
tags: jjj outpost cockatooisland triplej
license: 1
latitude: -33.847648
longitude: 151.171981
accuracy: 14
views: 4
interestingness: 72 out of 96

photo: 6439728971 eb870e486b 7023
owner: 7202153@N03
title: Horseshoe Mesa - view from Grandview Trail - Grand Canyon - South Rim
originalsecret: da36e8e258
originalformat: jpg
o_height: 2954
o_width: 3940
datetaken: 2011-11-18 11:18:31
dateupload: 1322797672
tags: park camping arizona nationalpark hiking grandcanyon grand canyon hike trail national backpacking backcountry horseshoe grandview tonto mesa southrim grandviewtrail horseshoemesa grandcanyonnationalpark tontotrail alhikesaz belowtherim gc2011 grandviewyakipoint2011
license: 2
latitude: 36.000333
longitude: -111.982913
accuracy: 14
views: 57
interestingness: 73 out of 96

photo: 6435801895 08b8093888 7007
owner: 33647353@N02
title: Summer Streets 2011 ? free bike rental / 23rd st.
originalsecret: null
originalformat: null
o_height: null
o_width: null
datetaken: 2011-08-20 10:10:34
dateupload: 1322739607
tags: nyc newyorkcity cycling biking bikeride biketour bikeriding
license: 0
latitude: 40.740961
longitude: -73.985903
accuracy: 15
views: 35
interestingness: 74 out of 96

photo: 6465500239 cb80b28e60 7157
owner: 10179767@N00
title: Proposed New Sports Hub / National Stadium
originalsecret: 09774e6564
originalformat: jpg
o_height: 1447
o_width: 2596
datetaken: 2011-11-26 13:02:46
dateupload: 1323174546
tags: singapore skyscrapers aquatic mbs marinabay helixbridge scaledmodel financialhub sportshub linkway88 marinabaycitygallery ?????? marinabayreservoir112011ambs singaporsportscouncil
license: 0
latitude: 1.302819
longitude: 103.874273
accuracy: 14
views: 14
interestingness: 75 out of 96

photo: 6451731625 6563d89b52 7157
owner: 7480140@N04
title: oilbeater 11099
originalsecret: 7a7f6f6850
originalformat: jpg
o_height: 1016
o_width: 1558
datetaken: 2011-12-04 11:14:48
dateupload: 1322993688
tags: world camera uk people woman usa france art germany deutschland photo nikon europa europe foto fotografie photographer image picture international worldwide coolpix bild kamera flanders welt ludwigshafen verdun flandern oilbeater s50c oilbeatersblackwhitecompany
license: 0
latitude: 49.412983
longitude: 3.887443
accuracy: 11
views: 13
interestingness: 76 out of 96

photo: 6477477631 9d7fc13d09 7017
owner: 12123622@N04
title: ????? A 426
originalsecret: c11222a039
originalformat: jpg
o_height: 1025
o_width: 1600
datetaken: 2011-12-08 23:24:11
dateupload: 1323362757
tags: 
license: 3
latitude: 22.326978
longitude: 114.16755
accuracy: 16
views: 24
interestingness: 77 out of 96

photo: 6464340499 3f62f7e1d1 7168
owner: 13816184@N07
title: Historic Cabrillo Lighthouse
originalsecret: 6b6c79537d
originalformat: jpg
o_height: 2676
o_width: 3996
datetaken: 2011-09-03 12:01:10
dateupload: 1323151117
tags: lighthouse glass sandiego historic cabrillo cabrillolighthouse
license: 0
latitude: 32.672227
longitude: -117.241072
accuracy: 15
views: 10
interestingness: 78 out of 96

photo: 6463939089 b45ed30be8 7150
owner: 23889621@N06
title: Snowshoeing Brew Hut
originalsecret: null
originalformat: null
o_height: null
o_width: null
datetaken: 2011-12-04 11:25:54
dateupload: 1323144802
tags: snowshoe britishcolumbia backcountry brewhut
license: 0
latitude: 50.036304
longitude: -123.194847
accuracy: 11
views: 46
interestingness: 79 out of 96

photo: 6458938941 dcab3739ec 7144
owner: 7361952@N03
title: 97 bexley Footscray Meadows
originalsecret: 0accbe72e6
originalformat: jpg
o_height: 4032
o_width: 5658
datetaken: 2011-11-24 12:51:20
dateupload: 1323082012
tags: uk england london landscape meadows bexley footscray fivearches rnbcray
license: 0
latitude: 51.426494
longitude: 0.130226
accuracy: 15
views: 18
interestingness: 80 out of 96

photo: 6453194285 03398fd371 7009
owner: 68824346@N02
title: Eastern Namibia Sand Dunes
originalsecret: e9a1d165a9
originalformat: jpg
o_height: 480
o_width: 720
datetaken: 2007-05-07 00:00:00
dateupload: 1323013706
tags: sand dunes nasa namibia kalahari aster
license: 4
latitude: -24.013852
longitude: 19.275512
accuracy: 7
views: 24
interestingness: 81 out of 96

photo: 6462113337 76f9b551f3 7143
owner: 50693818@N08
title: Grand Canyon National Park: South Rim Village in Winter 1657
originalsecret: 4d31f5e082
originalformat: jpg
o_height: 2629
o_width: 3541
datetaken: 2011-12-04 12:09:14
dateupload: 1323121105
tags: winter cloud snow village grandcanyon scenic inversion snowbound
license: 4
latitude: 36.058137
longitude: -112.147107
accuracy: 14
views: 632
interestingness: 82 out of 96

photo: 6460334219 e0b4624b2d 7147
owner: 35278629@N08
title: Hubble Space Telescope Control Room
originalsecret: 501080c259
originalformat: jpg
o_height: 2400
o_width: 3613
datetaken: 2011-12-02 16:57:07
dateupload: 1323101496
tags: nasa mor goddard hubble hst goddardspaceflightcenter missionoperations missionoperationsroom
license: 4
latitude: 38.994589
longitude: -76.851754
accuracy: 14
views: 22
interestingness: 83 out of 96

photo: 6442895081 e0144bc13d 7171
owner: 50693818@N08
title: Grand Canyon National Park Sunrise: Early December Storm
originalsecret: f5c1c99172
originalformat: jpg
o_height: 2741
o_width: 6000
datetaken: 2011-12-02 07:46:48
dateupload: 1322853527
tags: winter snow sunrise nationalpark village grandcanyon scenic overlook
license: 4
latitude: 36.057946
longitude: -112.137129
accuracy: 14
views: 297
interestingness: 84 out of 96

photo: 6479844911 0f8a20ca8a 7158
owner: 39073242@N08
title: Campina Grande-PB. INSA (1).
originalsecret: 2162f10789
originalformat: jpg
o_height: 3218
o_width: 5029
datetaken: 2011-12-07 08:35:41
dateupload: 1323398241
tags: do nacional ?instituto ?brasil? brasileiras? ?cidades nordestinas? ?para?ba? ?nordeste? ?campina grandepb? semi?rido? ?insa? ?semi?rido?
license: 0
latitude: -7.272567
longitude: -35.91156
accuracy: 9
views: 3
interestingness: 85 out of 96

photo: 6477796227 e319200945 7141
owner: 34916866@N02
title: Mike and Martha
originalsecret: 9081a63edb
originalformat: jpg
o_height: 1077
o_width: 1600
datetaken: 2011-12-08 13:50:49
dateupload: 1323367199
tags: digital government service gdslaunch
license: 2
latitude: 51.517382
longitude: -0.120667
accuracy: 16
views: 204
interestingness: 86 out of 96

photo: 6438928591 0d5984f931 7003
owner: 20903957@N04
title: Hong Kong Cultural Centre
originalsecret: null
originalformat: null
o_height: null
o_width: null
datetaken: 2011-11-27 09:39:13
dateupload: 1322784543
tags: nikon naturallight nikkor concerthall grandtheatre 1685 hongkongculturalcentre d300s
license: 0
latitude: 22.411249
longitude: 114.153541
accuracy: 2
views: 17
interestingness: 87 out of 96

photo: 6467033501 bdcf14bcd4 7146
owner: 24256351@N04
title: World's Fair grounds, 1962
originalsecret: 0f18cce878
originalformat: jpg
o_height: 3096
o_width: 2364
datetaken: 1962-03-20 12:52:15
dateupload: 1323194981
tags: seattle 1960s seattlecenter worldsfair century21 seattlemunicipalarchives
license: 4
latitude: 47.619784
longitude: -122.350983
accuracy: 14
views: 128
interestingness: 88 out of 96

photo: 6464400611 22dc98f104 7159
owner: 13816184@N07
title: Beautiful Purple Flower
originalsecret: 0a0476e877
originalformat: jpg
o_height: 2586
o_width: 3708
datetaken: 2011-09-05 10:04:42
dateupload: 1323152183
tags: yellow nationalpark purple sandiego cabrillomonument cabrillo
license: 0
latitude: 32.671152
longitude: -117.237811
accuracy: 15
views: 16
interestingness: 89 out of 96

photo: 6459790395 4a0b8c0353 7152
owner: 47201412@N02
title: Immigration Museum, 400-424 Flinders Street, Melbourne
originalsecret: null
originalformat: null
o_height: null
o_width: null
datetaken: 2011-11-14 11:26:12
dateupload: 1323095246
tags: boy window architecture child australia melbourne victoria flindersstreet customshouse immigrationmuseum
license: 0
latitude: -37.819111
longitude: 144.960458
accuracy: 16
views: 10
interestingness: 90 out of 96

photo: 6459783605 7a41287849 7002
owner: 47201412@N02
title: Immigration Museum, 400-424 Flinders Street, Melbourne
originalsecret: null
originalformat: null
o_height: null
o_width: null
datetaken: 2011-11-14 10:27:34
dateupload: 1323095163
tags: architecture australia melbourne victoria flindersstreet customshouse immigrationmuseum
license: 0
latitude: -37.819437
longitude: 144.960576
accuracy: 16
views: 14
interestingness: 91 out of 96

photo: 6479438485 362ac87397 7023
owner: 7202153@N03
title: Hopi House - wagon wheel - Grand Canyon Village - South Rim
originalsecret: 1e5a6012fc
originalformat: jpg
o_height: 2592
o_width: 3872
datetaken: 2011-11-17 16:36:41
dateupload: 1323391290
tags: park arizona house history wheel retail architecture wagon nationalpark village native district indian grandcanyon south rustic grand canyon historic nativeamerican national american rim southrim hopi wagonwheel grandcanyonnationalpark grandcanyonvillage buiilding hopihouse nationalhistoricdistrict maryjanecolter alhikesaz arizonamemoryproject gc2011 nationalparkrusticarchitecture
license: 2
latitude: 36.057256
longitude: -112.136796
accuracy: 16
views: 28
interestingness: 92 out of 96

photo: 6438449827 b8cce40da5 7023
owner: 12157941@N02
title: N75SP Delaware State Police
originalsecret: 5745d8309f
originalformat: jpg
o_height: 1147
o_width: 1728
datetaken: 2010-09-14 14:17:13
dateupload: 1322777710
tags: usa aviation helicopter bell407 delawarestatepolice rescue1 louangeli rotarywing rescuetraining wilmingtondelaware trooper4 delawareonline n75sp bobmcmahon
license: 0
latitude: 39.766457
longitude: -75.574264
accuracy: 11
views: 26
interestingness: 93 out of 96

photo: 6478941267 8ea437f26a 7164
owner: 7495125@N07
title: "Bogot?, Colombia, Suram?rica" velitas de cerca cayisn 2011. Felices fiestas Para todos!!!!
originalsecret: null
originalformat: null
o_height: null
o_width: null
datetaken: 2011-12-08 17:23:27
dateupload: 1323383007
tags: natal luces interesting colombia bogota fiestas claudia ni?o holydays interesante diciembre villalobos suramerica canddle concordians cayisn navidadenbogota natalbogota2011
license: 0
latitude: 4.696707
longitude: -74.063072
accuracy: 11
views: 13
interestingness: 94 out of 96

photo: 6476330953 246ea816c8 7018
owner: 34916866@N02
title: Neil Williams
originalsecret: 5df7e3b4a1
originalformat: jpg
o_height: 1057
o_width: 1600
datetaken: 2011-12-08 11:28:49
dateupload: 1323344130
tags: digital government service paulfav gdslaunch
license: 2
latitude: 51.517382
longitude: -0.120667
accuracy: 16
views: 245
interestingness: 95 out of 96

photo: 6435801893 96702e3398 7019
owner: 33647353@N02
title: Summer Streets 2011 ? free bike rental / 23rd st.
originalsecret: null
originalformat: null
o_height: null
o_width: null
datetaken: 2011-08-20 10:10:30
dateupload: 1322739607
tags: nyc newyorkcity cycling biking bikeride biketour bikeriding
license: 0
latitude: 40.740961
longitude: -73.985903
accuracy: 15
views: 9
interestingness: 96 out of 96

photo: 6478206795 0aed0973d6 7144
owner: 39073242@N08
title: Campina Grande-PB. INSA (7).
originalsecret: 7782067f60
originalformat: jpg
o_height: 3200
o_width: 5058
datetaken: 2011-12-07 08:48:00
dateupload: 1323373008
tags: do nacional ?instituto ?brasil? brasileiras? ?cidades nordestinas? ?para?ba? ?nordeste? ?campina grandepb? semi?rido? ?insa? ?semi?rido?
license: 0
latitude: -7.275292
longitude: -35.917053
accuracy: 9
views: 1
interestingness: 97 out of 96

photo: 6477795215 1e583a9bf2 7160
owner: 34916866@N02
title: Behind you
originalsecret: 547c35de78
originalformat: jpg
o_height: 1028
o_width: 1599
datetaken: 2011-12-08 13:10:29
dateupload: 1323367183
tags: digital government service gdslaunch
license: 2
latitude: 51.517382
longitude: -0.120667
accuracy: 16
views: 156
interestingness: 98 out of 96

photo: 6476385487 2f9b86e727 7007
owner: 34916866@N02
title: Ian Watmore
originalsecret: 4796cc60f8
originalformat: jpg
o_height: 1027
o_width: 1600
datetaken: 2011-12-08 11:52:01
dateupload: 1323345222
tags: digital government service paulfav gdslaunch
license: 2
latitude: 51.517382
longitude: -0.120667
accuracy: 16
views: 207
interestingness: 99 out of 96

photo: 6476305961 634c7ec9fd 7019
owner: 34916866@N02
title: Francis Maude
originalsecret: 188753400f
originalformat: jpg
o_height: 1016
o_width: 1600
datetaken: 2011-12-08 11:16:04
dateupload: 1323343617
tags: digital government service paulfav gdslaunch
license: 2
latitude: 51.517382
longitude: -0.120667
accuracy: 16
views: 163
interestingness: 100 out of 96

photo: 6474609423 384ee62d02 7015
owner: 39073242@N08
title: Campina Grande-PB. INSA (16).
originalsecret: e13137a339
originalformat: jpg
o_height: 3456
o_width: 5184
datetaken: 2011-12-07 08:42:59
dateupload: 1323309612
tags: do nacional ?instituto ?brasil? brasileiras? ?cidades nordestinas? ?para?ba? ?nordeste? ?campina grandepb? semi?rido? ?insa? ?semi?rido?
license: 0
latitude: -7.275973
longitude: -35.917053
accuracy: 9
views: 3
interestingness: 101 out of 96

photo: 6478103669 075c70e760 7153
owner: 24256351@N04
title: International Fountain at night, 1962
originalsecret: 074e0e1291
originalformat: jpg
o_height: 1200
o_width: 859
datetaken: 1962-04-01 00:00:00
dateupload: 1323371538
tags: seattle night 1960s seattlecenter internationalfountain worldsfair century21 seattlemunicipalarchives
license: 4
latitude: 47.62259
longitude: -122.350082
accuracy: 14
views: 51
interestingness: 102 out of 96

photo: 6476488055 9edd1b9663 7006
owner: 34916866@N02
title: Emer
originalsecret: 5f503697e3
originalformat: jpg
o_height: 1051
o_width: 1600
datetaken: 2011-12-08 11:31:40
dateupload: 1323347386
tags: digital government service paulfav gdslaunch
license: 2
latitude: 51.517382
longitude: -0.120667
accuracy: 16
views: 113
interestingness: 103 out of 96

photo: 6476480399 44b489ccb2 7012
owner: 34916866@N02
title: Richard
originalsecret: d61cb1ce0f
originalformat: jpg
o_height: 1090
o_width: 1600
datetaken: 2011-12-08 12:07:34
dateupload: 1323347234
tags: digital government service paulfav gdslaunch
license: 2
latitude: 51.517382
longitude: -0.120667
accuracy: 16
views: 112
interestingness: 104 out of 96

photo: 6476458959 b41ab7a1d1 7143
owner: 34916866@N02
title: William & Oli
originalsecret: 166d40ed7c
originalformat: jpg
o_height: 1088
o_width: 1600
datetaken: 2011-12-08 12:06:14
dateupload: 1323346803
tags: digital government service paulfav gdslaunch
license: 2
latitude: 51.517382
longitude: -0.120667
accuracy: 16
views: 147
interestingness: 105 out of 96

photo: 6475343985 644bc48ac1 7032
owner: 39343449@N02
title: <i>Pterostylis ciliata</i>
originalsecret: a9e08169a0
originalformat: jpg
o_height: 2250
o_width: 1800
datetaken: 2011-11-13 16:42:07
dateupload: 1323321729
tags: australia orchidaceae westernaustralia westdale pterostylis endemictowesternaustralia pterostylisciliata pterostylispicta
license: 0
latitude: -32.292247
longitude: 116.552968
accuracy: 15
views: 12
interestingness: 106 out of 96

photo: 6466237773 b58ecdcb4b 7150
owner: 14829735@N00
title: Manchester Christmas Market outside the town hall
originalsecret: 1b96ca7371
originalformat: jpg
o_height: 712
o_width: 647
datetaken: 2011-12-06 15:27:41
dateupload: 1323185261
tags: santa xmas manchester market townhall
license: 4
latitude: 53.479232
longitude: -2.245717
accuracy: 16
views: 26
interestingness: 107 out of 96

photo: 6479439711 b6180b09cf 7006
owner: 7202153@N03
title: Hopi House plaque - Grand Canyon Village
originalsecret: c3915064bd
originalformat: jpg
o_height: 2582
o_width: 3858
datetaken: 2011-11-17 16:37:05
dateupload: 1323391309
tags: park county arizona house history sign retail architecture plaque nationalpark village native district indian grandcanyon south rustic grand canyon historic nativeamerican national american rim southrim hopi coconino grandcanyonnationalpark grandcanyonvillage buiilding hopihouse nationalhistoricdistrict coconinocounty maryjanecolter alhikesaz arizonamemoryproject gc2011 nationalparkrusticarchitecture
license: 2
latitude: 36.057256
longitude: -112.136796
accuracy: 16
views: 31
interestingness: 108 out of 96

photo: 6476553009 6c1eb64a2f 7032
owner: 34916866@N02
title: GDS Launch
originalsecret: 16574bcda6
originalformat: jpg
o_height: 1039
o_width: 1599
datetaken: 2011-12-08 12:44:20
dateupload: 1323348575
tags: digital government service paulfav gdslaunch
license: 2
latitude: 51.517382
longitude: -0.120667
accuracy: 16
views: 299
interestingness: 109 out of 96

photo: 6460641341 a60203400d 7022
owner: 25834786@N03
title: Bloomsbury Social Centre
originalsecret: 2269b706ee
originalformat: jpg
o_height: 1493
o_width: 2000
datetaken: 2011-12-03 13:33:35
dateupload: 1323104790
tags: london students university squat bloomsbury soas occupied wc1 squatted gordonsquare socialcentre
license: 5
latitude: 51.523944
longitude: -0.129654
accuracy: 16
views: 47
interestingness: 110 out of 96

photo: 6453857663 192e8d9f68 7173
owner: 29350288@N06
title: Highest Cash Prices Paid Rat Proofing A Building New Orleans
originalsecret: 9be74ab477
originalformat: jpg
o_height: 1158
o_width: 1545
datetaken: 1914-01-01 00:00:00
dateupload: 1323020488
tags: neworleans 1914 canalstreet publicdomain
license: 4
latitude: 29.956793
longitude: -90.074865
accuracy: 15
views: 29
interestingness: 111 out of 96

photo: 6440110351 565aae8216 7149
owner: 7449293@N02
title: Clematis orientalis, Lower Glenwood Canyon, near Glenwood Springs, Garfield County, Colorado 2
originalsecret: 81299915cb
originalformat: jpg
o_height: 4416
o_width: 3312
datetaken: 2011-07-18 12:16:24
dateupload: 1322804368
tags: clematisorientalis
license: 0
latitude: 39.561434
longitude: -107.309689
accuracy: 14
views: 19
interestingness: 112 out of 96

photo: 6440108341 7abe93cca6 7170
owner: 7449293@N02
title: Asclepias subverticillata, Colorado River, Lower Glenwood Canyon, near Glenwood Springs, Garfield County, Colorado 2
originalsecret: a015dee867
originalformat: jpg
o_height: 3312
o_width: 4416
datetaken: 2011-07-18 11:54:06
dateupload: 1322804331
tags: asclepiassubverticillata
license: 0
latitude: 39.561136
longitude: -107.304453
accuracy: 14
views: 14
interestingness: 113 out of 96

photo: 6437797649 71d02ce682 7159
owner: 11787988@N03
title: Exploring the Tunnels
originalsecret: b9db86c0ec
originalformat: jpg
o_height: 3088
o_width: 2056
datetaken: 2011-11-25 17:29:21
dateupload: 1322769335
tags: travel family nature outdoors lasvegas walk nevada hike lakemead tunnels bouldercity sooc historicrailroadtunneltrail
license: 0
latitude: 36.020567
longitude: -114.761793
accuracy: 14
views: 22
interestingness: 114 out of 96

photo: 6437795193 962bb97bd5 7008
owner: 11787988@N03
title: The Desert Tonight
originalsecret: 9fff36e5e6
originalformat: jpg
o_height: 2056
o_width: 3088
datetaken: 2011-11-25 18:20:11
dateupload: 1322769303
tags: travel family nature outdoors lasvegas walk nevada hike lakemead tunnels bouldercity sooc historicrailroadtunneltrail
license: 0
latitude: 36.020567
longitude: -114.761793
accuracy: 14
views: 3
interestingness: 115 out of 96

photo: 6476402581 a9821e4630 7174
owner: 34916866@N02
title: Martha Lane Fox
originalsecret: 2858c3a194
originalformat: jpg
o_height: 1030
o_width: 1599
datetaken: 2011-12-08 11:56:38
dateupload: 1323345591
tags: digital government service paulfav gdslaunch
license: 2
latitude: 51.517382
longitude: -0.120667
accuracy: 16
views: 252
interestingness: 116 out of 96

photo: 6476356063 44ce901ce0 7173
owner: 34916866@N02
title: Chris Chant
originalsecret: c772329008
originalformat: jpg
o_height: 1076
o_width: 1600
datetaken: 2011-12-08 11:31:57
dateupload: 1323344626
tags: digital government service gdslaunch
license: 2
latitude: 51.517382
longitude: -0.120667
accuracy: 16
views: 188
interestingness: 117 out of 96

photo: 6464782837 8bb1a8da4a 7006
owner: 59758788@N02
title: A modern Masterpiece
originalsecret: 3dc66369cb
originalformat: jpg
o_height: 1944
o_width: 2221
datetaken: 2011-12-04 10:04:40
dateupload: 1323159524
tags: 
license: 0
latitude: -32.052134
longitude: 115.742726
accuracy: 15
views: 5
interestingness: 118 out of 96

photo: 6459280067 a2926d2d2d 7024
owner: 71176599@N07
title: Ipswich mural
originalsecret: null
originalformat: null
o_height: null
o_width: null
datetaken: 2011-12-05 12:07:55
dateupload: 1323088001
tags: cabinetmeeting kennethclarke regionalcabinet
license: 0
latitude: 52.087945
longitude: 1.111335
accuracy: 12
views: 76
interestingness: 119 out of 96

photo: 6477057739 150baa79ac 7144
owner: 34916866@N02
title: GDS Launch
originalsecret: 2e55638511
originalformat: jpg
o_height: 1024
o_width: 1599
datetaken: 2011-12-08 12:36:54
dateupload: 1323356854
tags: digital government service paulfav gdslaunch
license: 2
latitude: 51.517382
longitude: -0.120667
accuracy: 16
views: 67
interestingness: 120 out of 96

photo: 6476375209 cdc026191d 7166
owner: 34916866@N02
title: Martha & Sue
originalsecret: 4f55d25c87
originalformat: jpg
o_height: 1118
o_width: 1600
datetaken: 2011-12-08 10:44:13
dateupload: 1323345018
tags: digital government service gdslaunch
license: 2
latitude: 51.517382
longitude: -0.120667
accuracy: 16
views: 195
interestingness: 121 out of 96

photo: 6476361515 5c27d18e64 7145
owner: 34916866@N02
title: Alice Newton
originalsecret: 404c202077
originalformat: jpg
o_height: 1071
o_width: 1600
datetaken: 2011-12-08 11:43:41
dateupload: 1323344739
tags: digital government service gdslaunch
license: 2
latitude: 51.517382
longitude: -0.120667
accuracy: 16
views: 155
interestingness: 122 out of 96

photo: 6475349443 f150da9df9 7159
owner: 39343449@N02
title: Pincushion Triggerplant
originalsecret: 55cb723037
originalformat: jpg
o_height: 2800
o_width: 3500
datetaken: 2011-11-13 17:22:47
dateupload: 1323321832
tags: australia westernaustralia westdale stylidium stylidiaceae endemictowesternaustralia stylidiumuniflorum pincushiontriggerplant
license: 0
latitude: -32.292247
longitude: 116.552968
accuracy: 15
views: 11
interestingness: 123 out of 96

photo: 6465887021 8e7a92fca5 7003
owner: 52775197@N07
title: Education Minister, John O?Dowd, launching this year?s Anti-Bullying Week at the Long Gallery, Stormont.
originalsecret: 15e7c8fa11
originalformat: jpg
o_height: 2368
o_width: 3552
datetaken: 2011-11-15 12:37:51
dateupload: 1323180643
tags: ireland john education forum north week northern minister odowd antibullying esseducation
license: 3
latitude: 54.603593
longitude: -5.833053
accuracy: 13
views: 6
interestingness: 124 out of 96

photo: 6480227317 1d8c2963a4 7033
owner: 26260636@N07
title: OXENHOPE, West Yorkshire - Leemig Reservoir
originalsecret: 504456afcf
originalformat: jpg
o_height: 1944
o_width: 2592
datetaken: 2011-12-01 18:17:41
dateupload: 1323404866
tags: uk greatbritain england west britain dam yorkshire reservoir gb angleterre anglia oxenhope leeming 2011 baraj acumulare
license: 0
latitude: 53.810205
longitude: -1.940116
accuracy: 13
views: 1
interestingness: 125 out of 96

photo: 6479840457 f9114e4ee0 7168
owner: 39073242@N08
title: Campina Grande-PB. INSA (3).
originalsecret: 67660680e6
originalformat: jpg
o_height: 3456
o_width: 5184
datetaken: 2011-12-07 08:41:44
dateupload: 1323398166
tags: do nacional ?instituto ?brasil? brasileiras? ?cidades nordestinas? ?para?ba? ?nordeste? ?campina grandepb? semi?rido? ?insa? ?semi?rido?
license: 0
latitude: -7.279379
longitude: -35.910186
accuracy: 9
views: 0
interestingness: 126 out of 96

photo: 6479837871 f48b2a118f 7147
owner: 39073242@N08
title: Campina Grande-PB. INSA (4).
originalsecret: 5efdbdc396
originalformat: jpg
o_height: 3456
o_width: 5184
datetaken: 2011-12-07 08:41:18
dateupload: 1323398121
tags: do nacional ?instituto ?brasil? brasileiras? ?cidades nordestinas? ?para?ba? ?nordeste? ?campina grandepb? semi?rido? ?insa? ?semi?rido?
license: 0
latitude: -7.275973
longitude: -35.90744
accuracy: 9
views: 0
interestingness: 127 out of 96

photo: 6479835913 e78a90b136 7163
owner: 39073242@N08
title: Campina Grande-PB. INSA (5).
originalsecret: e58b4ae2c3
originalformat: jpg
o_height: 3456
o_width: 5184
datetaken: 2011-12-07 08:40:15
dateupload: 1323398086
tags: do nacional ?instituto ?brasil? brasileiras? ?cidades nordestinas? ?para?ba? ?nordeste? ?campina grandepb? semi?rido? ?insa? ?semi?rido?
license: 0
latitude: -7.279379
longitude: -35.904693
accuracy: 9
views: 0
interestingness: 128 out of 96

photo: 6479291197 457fcfa56a 7022
owner: 24880758@N02
title: RAF Noss Hill WWII Chain Home Radar Station
originalsecret: null
originalformat: null
o_height: null
o_width: null
datetaken: 2004-06-06 10:10:40
dateupload: 1323388698
tags: home station hill chain canmore radar noss rcahms canmore:usr=677 canmore:id=115426
license: 0
latitude: 59.923833
longitude: -1.352497
accuracy: 16
views: 0
interestingness: 129 out of 96

photo: 6478203943 a89b2e61e1 7018
owner: 39073242@N08
title: Campina Grande-PB. INSA (8).
originalsecret: c0e0baa481
originalformat: jpg
o_height: 3456
o_width: 5184
datetaken: 2011-12-07 08:51:42
dateupload: 1323372968
tags: do nacional ?instituto ?brasil? brasileiras? ?cidades nordestinas? ?para?ba? ?nordeste? ?campina grandepb? semi?rido? ?insa? ?semi?rido?
license: 0
latitude: -7.278016
longitude: -35.910186
accuracy: 9
views: 0
interestingness: 130 out of 96

photo: 6478201799 fa2e7f8bdd 7169
owner: 39073242@N08
title: Campina Grande-PB. INSA (9).
originalsecret: 9d36dac31c
originalformat: jpg
o_height: 5184
o_width: 3456
datetaken: 2011-12-07 08:53:13
dateupload: 1323372939
tags: do nacional ?instituto ?brasil? brasileiras? ?cidades nordestinas? ?para?ba? ?nordeste? ?campina grandepb? semi?rido? ?insa? ?semi?rido?
license: 0
latitude: -7.269162
longitude: -35.91156
accuracy: 9
views: 0
interestingness: 131 out of 96

photo: 6478195183 1bb9fc1943 7029
owner: 39073242@N08
title: Campina Grande-PB. INSA (10).
originalsecret: c6912009e7
originalformat: jpg
o_height: 5184
o_width: 3456
datetaken: 2011-12-07 08:52:49
dateupload: 1323372843
tags: do nacional ?instituto ?brasil? brasileiras? ?cidades nordestinas? ?para?ba? ?nordeste? ?campina grandepb? semi?rido? ?insa? ?semi?rido?
license: 0
latitude: -7.276654
longitude: -35.912933
accuracy: 9
views: 4
interestingness: 132 out of 96

photo: 6478173069 9ef3f5126a 7142
owner: 39073242@N08
title: Campina Grande-PB. INSA (11).
originalsecret: e488cd78b1
originalformat: jpg
o_height: 3130
o_width: 4979
datetaken: 2011-12-07 08:54:39
dateupload: 1323372529
tags: do nacional ?instituto ?brasil? brasileiras? ?cidades nordestinas? ?para?ba? ?nordeste? ?campina grandepb? semi?rido? ?insa? ?semi?rido?
license: 0
latitude: -7.274611
longitude: -35.910186
accuracy: 9
views: 0
interestingness: 133 out of 96

photo: 6477903807 359234c177 7016
owner: 53315989@N03
title: Gov. Cuomo at REC Award Ceremony
originalsecret: null
originalformat: null
o_height: null
o_width: null
datetaken: 2011-12-08 10:25:41
dateupload: 1323368741
tags: new york state stage andrew governor now pbs cuomo wmht
license: 0
latitude: 42.651415
longitude: -73.758645
accuracy: 13
views: 2
interestingness: 134 out of 96

photo: 6477018277 5e74b52640 7023
owner: 52775197@N07
title: Education Minister, John O'Dowd (centre) and Peter Morris, BT (left), pictured with pupils and teacher from Strangford Integrated College at a reception for north of Ireland entrants to the BT Young Scientist & Technology Exhibition 2012
originalsecret: a2d980a527
originalformat: jpg
o_height: 2301
o_width: 3307
datetaken: 2011-12-07 15:27:45
dateupload: 1323356257
tags: ireland john education technology north young exhibition reception northern bt minister exibition scientist 2012 odowd entrants esseducation
license: 3
latitude: 54.603593
longitude: -5.833053
accuracy: 13
views: 5
interestingness: 135 out of 96

photo: 6477017999 7369983095 7002
owner: 52775197@N07
title: Education Minister, John O'Dowd (centre) and Peter Morris, BT (left), pictured with pupils and teachers from Our Lady's Grammar School, Newry at a reception for north of Ireland entrants to the BT Young Scientist & Technology Exhibition 2012
originalsecret: 794c3c7ca2
originalformat: jpg
o_height: 2343
o_width: 3307
datetaken: 2011-12-07 15:26:41
dateupload: 1323356253
tags: ireland john education technology north young exhibition reception northern bt minister exibition scientist 2012 odowd entrants esseducation
license: 3
latitude: 54.603618
longitude: -5.833053
accuracy: 13
views: 1
interestingness: 136 out of 96

photo: 6477015881 cef8a38814 7167
owner: 52775197@N07
title: Education Minister, John O'Dowd (right) and Peter Morris, BT (left), pictured with pupil and teachers from Integrated College Dungannon at a reception for north of Ireland entrants to the BT Young Scientist & Technology Exhibition 2012
originalsecret: 56c0ba8142
originalformat: jpg
o_height: 2185
o_width: 3307
datetaken: 2011-12-07 15:24:51
dateupload: 1323356221
tags: ireland john education technology north young exhibition reception northern bt minister exibition scientist 2012 odowd entrants esseducation
license: 3
latitude: 54.603543
longitude: -5.833053
accuracy: 13
views: 1
interestingness: 137 out of 96

photo: 6477015289 3bd6156931 7150
owner: 52775197@N07
title: Education Minister, John O'Dowd (centre) and Peter Morris, BT (left), pictured with a pupil from St Mark's High School, Newry at a reception for north of Ireland entrants to the BT Young Scientist & Technology Exhibition 2012
originalsecret: e05f8e95b9
originalformat: jpg
o_height: 2459
o_width: 3307
datetaken: 2011-12-07 15:23:27
dateupload: 1323356212
tags: ireland john education technology north young exhibition reception northern bt minister exibition scientist 2012 odowd entrants esseducation
license: 3
latitude: 54.603593
longitude: -5.833139
accuracy: 13
views: 0
interestingness: 138 out of 96

photo: 6477012789 4c9f49cf5c 7171
owner: 52775197@N07
title: Education Minister, John O'Dowd (centre) and Peter Morris, BT (left), pictured with pupils and teacher from St Killian's College, Ballymena at a reception for north of Ireland entrants to the BT Young Scientist & Technology Exhibition 2012
originalsecret: d5eb88eeca
originalformat: jpg
o_height: 2089
o_width: 3307
datetaken: 2011-12-07 15:22:28
dateupload: 1323356172
tags: ireland john education technology north young exhibition reception northern bt minister exibition scientist 2012 odowd entrants esseducation
license: 3
latitude: 54.603767
longitude: -5.833139
accuracy: 13
views: 4
interestingness: 139 out of 96

photo: 6477012557 95b144468d 7163
owner: 52775197@N07
title: Education Minister, John O'Dowd (right) and Peter Morris, BT (left), pictured with pupils and teacher from Assumption Grammar School at a reception for north of Ireland entrants to the BT Young Scientist & Technology Exhibition 2012
originalsecret: 5d9fae1eb6
originalformat: jpg
o_height: 2333
o_width: 3307
datetaken: 2011-12-07 15:21:34
dateupload: 1323356168
tags: ireland john education technology north young exhibition reception northern bt minister exibition scientist 2012 odowd entrants esseducation
license: 3
latitude: 54.603543
longitude: -5.832881
accuracy: 13
views: 2
interestingness: 140 out of 96

photo: 6477012303 d47bf98ebf 7157
owner: 52775197@N07
title: Education Minister, John O'Dowd (centre) and Peter Morris, BT (left), pictured with students from SERC at a reception for north of Ireland entrants to the BT Young Scientist & Technology Exhibition 2012
originalsecret: f2a57699ab
originalformat: jpg
o_height: 2273
o_width: 3307
datetaken: 2011-12-07 15:20:47
dateupload: 1323356165
tags: ireland john education technology north young exhibition reception northern bt minister exibition scientist 2012 odowd entrants esseducation
license: 3
latitude: 54.603767
longitude: -5.833139
accuracy: 13
views: 3
interestingness: 141 out of 96

photo: 6477012081 85efbd2ffc 7001
owner: 52775197@N07
title: Education Minister, John O'Dowd (centre) and Peter Morris, BT (left), pictured with pupils and teacher from St Colman's College, Newry at a reception for north of Ireland entrants to the BT Young Scientist & Technology Exhibition 2012
originalsecret: ca873fe6a1
originalformat: jpg
o_height: 2462
o_width: 3307
datetaken: 2011-12-07 15:19:08
dateupload: 1323356161
tags: ireland john education technology north young exhibition reception northern bt minister exibition scientist 2012 odowd entrants esseducation
license: 3
latitude: 54.603693
longitude: -5.833311
accuracy: 13
views: 1
interestingness: 142 out of 96

photo: 6476996665 4204684079 7021
owner: 52775197@N07
title: Education Minister, John O'Dowd (centre) and Peter Morris, BT (left), pictured with pupils and teachers from Wellington College at a reception for north of Ireland entrants to the BT Young Scientist & Technology Exhibition 2012
originalsecret: 38dd31f24f
originalformat: jpg
o_height: 2151
o_width: 3307
datetaken: 2011-12-07 15:16:30
dateupload: 1323355920
tags: ireland john education technology north young exhibition reception northern bt minister exibition scientist 2012 odowd entrants esseducation
license: 3
latitude: 54.603867
longitude: -5.833053
accuracy: 13
views: 1
interestingness: 143 out of 96

photo: 6476996407 c5d2f71553 7010
owner: 52775197@N07
title: Education Minister, John O'Dowd (centre) and Peter Morris, BT (left), pictured with pupil and teacher from Cambridge House Grammar School at a reception for north of Ireland entrants to the BT Young Scientist & Technology Exhibition 2012
originalsecret: 717087a042
originalformat: jpg
o_height: 2380
o_width: 3307
datetaken: 2011-12-07 15:14:40
dateupload: 1323355916
tags: ireland john education technology north young exhibition reception northern bt minister exibition scientist 2012 odowd entrants esseducation
license: 3
latitude: 54.603593
longitude: -5.833053
accuracy: 13
views: 1
interestingness: 144 out of 96

photo: 6476996149 b2d92634d6 7027
owner: 52775197@N07
title: Education Minister, John O'Dowd (centre) and Peter Morris, BT (left), pictured with pupils and teacher from St Mary's College, Derry at a reception for north of Ireland entrants to the BT Young Scientist & Technology Exhibition 2012
originalsecret: 6aef0529dd
originalformat: jpg
o_height: 2257
o_width: 3307
datetaken: 2011-12-07 14:01:17
dateupload: 1323355912
tags: ireland john education technology north young exhibition reception northern bt minister exibition scientist 2012 odowd entrants esseducation
license: 3
latitude: 54.603916
longitude: -5.833139
accuracy: 13
views: 1
interestingness: 145 out of 96

photo: 6476988547 b8cd786675 7034
owner: 52775197@N07
title: Education Minister, John O'Dowd (centre) and Peter Morris, BT (left), pictured with pupils and teacher from Rathmore Grammar School at a reception for north of Ireland entrants to the BT Young Scientist & Technology Exhibition 2012
originalsecret: bc90379eee
originalformat: jpg
o_height: 2197
o_width: 3307
datetaken: 2011-12-07 13:59:48
dateupload: 1323355793
tags: ireland john education technology north young reception northern bt minister exibition scientist 2012 odowd entrants esseducation
license: 3
latitude: 54.603792
longitude: -5.833139
accuracy: 13
views: 1
interestingness: 146 out of 96

photo: 6476988325 aced56dbb1 7147
owner: 52775197@N07
title: Education Minister, John O'Dowd (centre) and Peter Morris, BT (left), pictured with pupils and teachers from St Patrick's High School, Armagh at a reception for north of Ireland entrants to the BT Young Scientist & Technology Exhibition 2012
originalsecret: 9b0479615a
originalformat: jpg
o_height: 2285
o_width: 3307
datetaken: 2011-12-07 13:58:57
dateupload: 1323355789
tags: ireland john education technology north young exhibition reception northern bt minister exibition scientist 2012 odowd entrants esseducation
license: 3
latitude: 54.603867
longitude: -5.833225
accuracy: 13
views: 0
interestingness: 147 out of 96

photo: 6476988065 90e9f9ea4b 7148
owner: 52775197@N07
title: Education Minister, John O'Dowd (centre) and Peter Morris, BT (left), pictured with pupils and teacher from Methodist College at a reception for north of Ireland entrants to the BT Young Scientist & Technology Exhibition 2012
originalsecret: cac7c0e296
originalformat: jpg
o_height: 2254
o_width: 3307
datetaken: 2011-12-07 13:58:14
dateupload: 1323355785
tags: ireland john education technology north young exhibition reception northern bt minister exibition scientist 2012 odowd entrants esseducation
license: 3
latitude: 54.603792
longitude: -5.833053
accuracy: 13
views: 1
interestingness: 148 out of 96

photo: 6476982769 1104b0f5d9 7022
owner: 52775197@N07
title: Education Minister, John O'Dowd (centre) and Peter Morris, BT (left), pictured with pupils and teachers from Christian Brothers Grammar School at a reception for north of Ireland entrants to the BT Young Scientist & Technology Exhibition 2012
originalsecret: ac2207f08c
originalformat: jpg
o_height: 2269
o_width: 3307
datetaken: 2011-12-07 13:56:55
dateupload: 1323355701
tags: ireland john education technology north young exhibition reception northern bt minister exibition scientist 2012 odowd entrants esseducation
license: 3
latitude: 54.603668
longitude: -5.832967
accuracy: 13
views: 0
interestingness: 149 out of 96

photo: 6476982501 31d8ffc4e7 7174
owner: 52775197@N07
title: Education Minister, John O'Dowd (centre) and Peter Morris, BT (left), pictured with pupils and teachers from St Mary's, Irvinestown at a reception for north of Ireland entrants to the BT Young Scientist & Technology Exhibition 2012
originalsecret: 36a53d3655
originalformat: jpg
o_height: 2454
o_width: 3307
datetaken: 2011-12-07 13:56:07
dateupload: 1323355697
tags: ireland john education technology north young exhibition reception northern bt minister exibition scientist 2012 odowd entrants esseducation
license: 3
latitude: 54.603643
longitude: -5.833139
accuracy: 13
views: 1
interestingness: 150 out of 96

photo: 6476982279 7793d4a363 7002
owner: 52775197@N07
title: Education Minister, John O'Dowd (centre) and Peter Morris, BT (left), pictured with pupils and teacher from Oakgrove Integrated College at a reception for north of Ireland entrants to the BT Young Scientist & Technology Exhibition 2012
originalsecret: aa254ca596
originalformat: jpg
o_height: 2279
o_width: 3307
datetaken: 2011-12-07 13:54:54
dateupload: 1323355693
tags: ireland john education technology north young exhibition reception northern bt minister exibition scientist 2012 odowd entrants esseducation
license: 3
latitude: 54.603916
longitude: -5.832967
accuracy: 13
views: 0
interestingness: 151 out of 96

photo: 6476970445 73fe6bdb64 7167
owner: 52775197@N07
title: Education Minister, John O'Dowd (centre) and Peter Morris, BT (left), pictured with pupils and teacher from Bangor Grammar School at a reception for north of Ireland entrants to the BT Young Scientist & Technology Exhibition 2012
originalsecret: a46ac699dd
originalformat: jpg
o_height: 2244
o_width: 3307
datetaken: 2011-12-07 13:53:48
dateupload: 1323355503
tags: ireland john education technology north young exhibition reception northern bt minister exibition scientist 2012 odowd entrants esseducation
license: 3
latitude: 54.603543
longitude: -5.832881
accuracy: 13
views: 0
interestingness: 152 out of 96

photo: 6476970241 abf9495ec8 7149
owner: 52775197@N07
title: Education Minister, John O'Dowd (centre) and Peter Morris, BT (left), pictured with pupils and teachers from St Mary's, Limavady at a reception for north of Ireland entrants to the BT Young Scientist & Technology Exhibition 2012
originalsecret: 34a1b94d45
originalformat: jpg
o_height: 2384
o_width: 3307
datetaken: 2011-12-07 13:52:47
dateupload: 1323355500
tags: ireland john education technology north young exhibition reception northern bt minister exibition scientist 2012 odowd entrants esseducation
license: 3
latitude: 54.603717
longitude: -5.833139
accuracy: 13
views: 0
interestingness: 153 out of 96

photo: 6476969995 035e05f29f 7158
owner: 52775197@N07
title: Education Minister, John O'Dowd (centre) and Peter Morris, BT (left), pictured with pupils and teacher from Loreto Grammar School at a reception for north of Ireland entrants to the BT Young Scientist & Technology Exhibition 2012
originalsecret: a4043007eb
originalformat: jpg
o_height: 2230
o_width: 3307
datetaken: 2011-12-07 13:51:36
dateupload: 1323355496
tags: ireland john education technology north young exhibition reception northern bt minister exibition scientist 2012 odowd entrants esseducation
license: 3
latitude: 54.603842
longitude: -5.833139
accuracy: 13
views: 0
interestingness: 154 out of 96

photo: 6476969719 401d8f7d5a 7023
owner: 52775197@N07
title: Education Minister, John O'Dowd (centre) and Peter Morris, BT (left), pictured with pupils and teacher from Edmund Rice College at a reception for north of Ireland entrants to the BT Young Scientist & Technology Exhibition 2012
originalsecret: be10d98c97
originalformat: jpg
o_height: 2577
o_width: 3307
datetaken: 2011-12-07 13:50:39
dateupload: 1323355492
tags: ireland john education technology north young exhibition reception northern bt minister exibition scientist 2012 odowd entrants esseducation
license: 3
latitude: 54.603369
longitude: -5.833139
accuracy: 13
views: 0
interestingness: 155 out of 96

photo: 6476969397 4c81c5cf0b 7010
owner: 52775197@N07
title: Education Minister, John O'Dowd (centre) and Peter Morris, BT (left), pictured with pupils and teacher from Ballyclare High School at a reception for north of Ireland entrants to the BT Young Scientist & Technology Exhibition 2012
originalsecret: 8394a5696a
originalformat: jpg
o_height: 2497
o_width: 3307
datetaken: 2011-12-07 13:49:37
dateupload: 1323355487
tags: ireland john education technology north young exhibition reception northern bt minister exibition scientist 2012 odowd entrants esseducation
license: 3
latitude: 54.603792
longitude: -5.833053
accuracy: 13
views: 0
interestingness: 156 out of 96

photo: 6476551907 17c595e411 7031
owner: 34916866@N02
title: Mike
originalsecret: cc9477b1f0
originalformat: jpg
o_height: 1161
o_width: 1600
datetaken: 2011-12-08 11:01:15
dateupload: 1323348555
tags: digital government service gdslaunch
license: 2
latitude: 51.517382
longitude: -0.120667
accuracy: 16
views: 119
interestingness: 157 out of 96

photo: 6476487677 8de85d34de 7012
owner: 34916866@N02
title: Mike Bracken
originalsecret: 7ef42751cb
originalformat: jpg
o_height: 1103
o_width: 1600
datetaken: 2011-12-08 11:11:37
dateupload: 1323347379
tags: digital government service gdslaunch
license: 2
latitude: 51.517382
longitude: -0.120667
accuracy: 16
views: 123
interestingness: 158 out of 96

photo: 6476480083 773e978b54 7158
owner: 34916866@N02
title: Chris arrives
originalsecret: 1b6e12b1f5
originalformat: jpg
o_height: 3534
o_width: 5358
datetaken: 2011-12-08 11:09:21
dateupload: 1323347227
tags: digital government service gdslaunch
license: 2
latitude: 51.517382
longitude: -0.120667
accuracy: 16
views: 121
interestingness: 159 out of 96

photo: 6476478773 837ab27e46 7027
owner: 34916866@N02
title: Peter
originalsecret: 39d9802e42
originalformat: jpg
o_height: 1035
o_width: 1600
datetaken: 2011-12-08 10:54:25
dateupload: 1323347200
tags: digital government service gdslaunch
license: 2
latitude: 51.517382
longitude: -0.120667
accuracy: 16
views: 122
interestingness: 160 out of 96

photo: 6476402187 66e435508a 7035
owner: 34916866@N02
title: Martha Lane Fox
originalsecret: d3b43026ec
originalformat: jpg
o_height: 1019
o_width: 1600
datetaken: 2011-12-08 11:55:25
dateupload: 1323345581
tags: digital government service gdslaunch
license: 2
latitude: 51.517382
longitude: -0.120667
accuracy: 16
views: 118
interestingness: 161 out of 96

photo: 6476378765 2f98b8f6d2 7008
owner: 34916866@N02
title: Alice & Jordan
originalsecret: 7a00039e73
originalformat: jpg
o_height: 1076
o_width: 1600
datetaken: 2011-12-08 11:04:57
dateupload: 1323345094
tags: digital government service gdslaunch
license: 2
latitude: 51.517382
longitude: -0.120667
accuracy: 16
views: 140
interestingness: 162 out of 96

photo: 6476375563 d40b02068d 7032
owner: 34916866@N02
title: Martha
originalsecret: be283afa31
originalformat: jpg
o_height: 1057
o_width: 1600
datetaken: 2011-12-08 11:36:59
dateupload: 1323345026
tags: digital government service gdslaunch
license: 2
latitude: 51.517382
longitude: -0.120667
accuracy: 16
views: 131
interestingness: 163 out of 96

photo: 6476027267 50b03c2113 7002
owner: 8073513@N03
title: Tim-ber!
originalsecret: b122ef67c3
originalformat: jpg
o_height: 4032
o_width: 3024
datetaken: 2011-12-06 14:17:35
dateupload: 1323337301
tags: berkeley crt construction action forestry chainsaw logging lbnl cpl berkeleylab eucalypus olympus40150
license: 4
latitude: 37.87556
longitude: -122.25293
accuracy: 16
views: 10
interestingness: 164 out of 96

photo: 6475949437 5e1ccde08d 7157
owner: 29780116@N03
title: Sir Geoffrey Adams in India 7-8 December 2011
originalsecret: 359a4bab0f
originalformat: jpg
o_height: 1944
o_width: 2592
datetaken: 2011-07-29 19:53:22
dateupload: 1323335428
tags: uk india office high december britain embassy british foreign commission commonwealth fco bhc 2011 britishhighcommission icwa jamiamiliaislamia arabspring wwwukinindiacom httpukinindiafcogovuk ukinindiafcogovuk httpukinindiafcogovukhi sirgeoffreyadams indoarabculturalcentre sudhirtdevare profzikrurrehman
license: 0
latitude: 28.56024
longitude: 77.290556
accuracy: 16
views: 2
interestingness: 165 out of 96

photo: 6475947689 970f318775 7141
owner: 29780116@N03
title: Sir Geoffrey Adams in India 7-8 December 2011
originalsecret: 4ac0d6d741
originalformat: jpg
o_height: 1944
o_width: 2592
datetaken: 2011-07-29 19:50:38
dateupload: 1323335387
tags: uk india office high december britain embassy british foreign commission commonwealth fco bhc 2011 britishhighcommission icwa jamiamiliaislamia arabspring wwwukinindiacom httpukinindiafcogovuk ukinindiafcogovuk httpukinindiafcogovukhi sirgeoffreyadams indoarabculturalcentre sudhirtdevare profzikrurrehman
license: 0
latitude: 28.56024
longitude: 77.290556
accuracy: 16
views: 4
interestingness: 166 out of 96

photo: 6475946107 07951bbf36 7162
owner: 29780116@N03
title: Sir Geoffrey Adams in India 7-8 December 2011
originalsecret: dca657ed80
originalformat: jpg
o_height: 1944
o_width: 2592
datetaken: 2011-07-29 19:49:00
dateupload: 1323335346
tags: uk india office high december britain embassy british foreign commission commonwealth fco bhc 2011 britishhighcommission icwa jamiamiliaislamia arabspring wwwukinindiacom httpukinindiafcogovuk ukinindiafcogovuk httpukinindiafcogovukhi sirgeoffreyadams indoarabculturalcentre sudhirtdevare profzikrurrehman
license: 0
latitude: 28.56024
longitude: 77.290556
accuracy: 16
views: 5
interestingness: 167 out of 96

photo: 6475944319 cba55b4289 7033
owner: 29780116@N03
title: Sir Geoffrey Adams in India 7-8 December 2011
originalsecret: 243529ba01
originalformat: jpg
o_height: 1944
o_width: 2592
datetaken: 2011-07-29 19:34:33
dateupload: 1323335303
tags: uk india office high december britain embassy british foreign commission commonwealth fco bhc 2011 britishhighcommission icwa jamiamiliaislamia arabspring wwwukinindiacom httpukinindiafcogovuk ukinindiafcogovuk httpukinindiafcogovukhi sirgeoffreyadams indoarabculturalcentre sudhirtdevare profzikrurrehman
license: 0
latitude: 28.56024
longitude: 77.290556
accuracy: 16
views: 4
interestingness: 168 out of 96

photo: 6475942587 bf38460818 7026
owner: 29780116@N03
title: Sir Geoffrey Adams in India 7-8 December 2011
originalsecret: 33ae8295f2
originalformat: jpg
o_height: 1944
o_width: 2592
datetaken: 2011-07-29 19:33:59
dateupload: 1323335260
tags: uk india office high december britain embassy british foreign commission commonwealth fco bhc 2011 britishhighcommission icwa jamiamiliaislamia arabspring wwwukinindiacom httpukinindiafcogovuk ukinindiafcogovuk httpukinindiafcogovukhi sirgeoffreyadams indoarabculturalcentre sudhirtdevare profzikrurrehman
license: 0
latitude: 28.56024
longitude: 77.290556
accuracy: 16
views: 4
interestingness: 169 out of 96

photo: 6475940949 e3b857e0a6 7023
owner: 29780116@N03
title: Sir Geoffrey Adams in India 7-8 December 2011
originalsecret: 0cfc95f778
originalformat: jpg
o_height: 1944
o_width: 2592
datetaken: 2011-07-29 19:33:47
dateupload: 1323335217
tags: uk india office high december britain embassy british foreign commission commonwealth fco bhc 2011 britishhighcommission icwa jamiamiliaislamia arabspring wwwukinindiacom httpukinindiafcogovuk ukinindiafcogovuk httpukinindiafcogovukhi sirgeoffreyadams indoarabculturalcentre sudhirtdevare profzikrurrehman
license: 0
latitude: 28.56024
longitude: 77.290556
accuracy: 16
views: 2
interestingness: 170 out of 96

photo: 6475939269 f194cb1848 7144
owner: 29780116@N03
title: Sir Geoffrey Adams in India 7-8 December 2011
originalsecret: df7b9bb4fd
originalformat: jpg
o_height: 1944
o_width: 2592
datetaken: 2011-07-29 20:09:58
dateupload: 1323335174
tags: uk india office high december britain embassy british foreign commission commonwealth fco bhc 2011 britishhighcommission icwa jamiamiliaislamia arabspring wwwukinindiacom httpukinindiafcogovuk ukinindiafcogovuk httpukinindiafcogovukhi sirgeoffreyadams indoarabculturalcentre sudhirtdevare profzikrurrehman
license: 0
latitude: 28.56024
longitude: 77.290556
accuracy: 16
views: 2
interestingness: 171 out of 96

photo: 6475937675 1931e93026 7020
owner: 29780116@N03
title: Sir Geoffrey Adams in India 7-8 December 2011
originalsecret: 391edaf51a
originalformat: jpg
o_height: 1944
o_width: 2592
datetaken: 2011-07-29 19:58:49
dateupload: 1323335136
tags: wwwukinindiacom httpukinindiafcogovuk uk india britain british ukinindiafcogovuk 2011 httpukinindiafcogovukhi high commission embassy foreign commonwealth office fco bhc britishhighcommission sirgeoffreyadams arabspring indoarabculturalcentre jamiamiliaislamia december sudhirtdevare icwa profzikrurrehman
license: 0
latitude: 28.56024
longitude: 77.290556
accuracy: 16
views: 2
interestingness: 172 out of 96

photo: 6475936005 32ae0628dd 7014
owner: 29780116@N03
title: Sir Geoffrey Adams in India 7-8 December 2011
originalsecret: 41e9dbb89e
originalformat: jpg
o_height: 1944
o_width: 2592
datetaken: 2011-07-29 19:55:10
dateupload: 1323335097
tags: uk india office high december britain embassy british foreign commission commonwealth fco bhc 2011 britishhighcommission icwa jamiamiliaislamia arabspring wwwukinindiacom httpukinindiafcogovuk ukinindiafcogovuk httpukinindiafcogovukhi sirgeoffreyadams indoarabculturalcentre sudhirtdevare profzikrurrehman
license: 0
latitude: 28.56024
longitude: 77.290556
accuracy: 16
views: 4
interestingness: 173 out of 96

photo: 6475450293 91efae022f 7168
owner: 29780116@N03
title: Urban Regeneration Mission to Kolkata
originalsecret: dc532fa2a6
originalformat: jpg
o_height: 536
o_width: 800
datetaken: 2011-11-28 23:01:52
dateupload: 1323323929
tags: uk india december britain embassy deputy british sanjay foreignandcommonwealthoffice 2011 britishhighcommission kolktata ukti commissio wwwukinindiacom httpukinindiafcogovuk ukinindiafcogovuk wadvani httpukinindiafcogovukhi
license: 0
latitude: 22.527066
longitude: 88.344626
accuracy: 14
views: 4
interestingness: 174 out of 96

photo: 6475450249 bc088c522f 7023
owner: 29780116@N03
title: Urban Regeneration Mission to Kolkata
originalsecret: 88e32a7461
originalformat: jpg
o_height: 571
o_width: 800
datetaken: 2011-11-28 21:40:42
dateupload: 1323323928
tags: uk india december britain embassy deputy british sanjay foreignandcommonwealthoffice 2011 britishhighcommission kolktata ukti commissio wwwukinindiacom httpukinindiafcogovuk ukinindiafcogovuk wadvani httpukinindiafcogovukhi
license: 0
latitude: 22.527066
longitude: 88.344626
accuracy: 14
views: 3
interestingness: 175 out of 96

photo: 6475450211 8f92a44718 7006
owner: 29780116@N03
title: Urban Regeneration Mission to Kolkata
originalsecret: 51eeb2b579
originalformat: jpg
o_height: 536
o_width: 800
datetaken: 2011-11-28 23:01:17
dateupload: 1323323927
tags: uk india december britain embassy deputy british sanjay foreignandcommonwealthoffice 2011 britishhighcommission kolktata ukti commissio wwwukinindiacom httpukinindiafcogovuk ukinindiafcogovuk wadvani httpukinindiafcogovukhi
license: 0
latitude: 22.527066
longitude: 88.344626
accuracy: 14
views: 4
interestingness: 176 out of 96

photo: 6475450175 c90cf819ec 7030
owner: 29780116@N03
title: Urban Regeneration Mission to Kolkata
originalsecret: b1fec7890f
originalformat: jpg
o_height: 536
o_width: 800
datetaken: 2011-11-28 22:40:44
dateupload: 1323323926
tags: uk india december britain embassy deputy british sanjay foreignandcommonwealthoffice 2011 britishhighcommission kolktata ukti commissio wwwukinindiacom httpukinindiafcogovuk ukinindiafcogovuk wadvani httpukinindiafcogovukhi
license: 0
latitude: 22.527066
longitude: 88.344626
accuracy: 14
views: 4
interestingness: 177 out of 96

photo: 6475450139 251bfe5449 7030
owner: 29780116@N03
title: Urban Regeneration Mission to Kolkata
originalsecret: ce8866340f
originalformat: jpg
o_height: 536
o_width: 800
datetaken: 2011-11-28 23:02:35
dateupload: 1323323925
tags: uk india december britain embassy deputy british sanjay foreignandcommonwealthoffice 2011 britishhighcommission kolktata ukti commissio wwwukinindiacom httpukinindiafcogovuk ukinindiafcogovuk wadvani httpukinindiafcogovukhi
license: 0
latitude: 22.527066
longitude: 88.344626
accuracy: 14
views: 3
interestingness: 178 out of 96

photo: 6475450081 44da57c40c 7003
owner: 29780116@N03
title: Urban Regeneration Mission to Kolkata
originalsecret: ecb57d0076
originalformat: jpg
o_height: 571
o_width: 800
datetaken: 2011-11-28 23:00:04
dateupload: 1323323925
tags: uk india december britain embassy deputy british sanjay foreignandcommonwealthoffice 2011 britishhighcommission kolktata ukti commissio wwwukinindiacom httpukinindiafcogovuk ukinindiafcogovuk wadvani httpukinindiafcogovukhi
license: 0
latitude: 22.531367
longitude: 88.344025
accuracy: 14
views: 4
interestingness: 179 out of 96

photo: 6475450035 b63cb85509 7006
owner: 29780116@N03
title: Urban Regeneration Mission to Kolkata
originalsecret: 4bfa0e9058
originalformat: jpg
o_height: 536
o_width: 800
datetaken: 2011-11-28 23:00:51
dateupload: 1323323924
tags: uk india december britain embassy deputy british sanjay foreignandcommonwealthoffice 2011 britishhighcommission kolktata ukti commissio wwwukinindiacom httpukinindiafcogovuk ukinindiafcogovuk wadvani httpukinindiafcogovukhi
license: 0
latitude: 22.531367
longitude: 88.344025
accuracy: 14
views: 4
interestingness: 180 out of 96

photo: 6475450001 2d4609fd54 7160
owner: 29780116@N03
title: Urban Regeneration Mission to Kolkata
originalsecret: f706f69c94
originalformat: jpg
o_height: 536
o_width: 800
datetaken: 2011-11-28 22:33:13
dateupload: 1323323923
tags: uk india december britain embassy deputy british sanjay foreignandcommonwealthoffice 2011 britishhighcommission kolktata ukti commissio wwwukinindiacom httpukinindiafcogovuk ukinindiafcogovuk wadvani httpukinindiafcogovukhi
license: 0
latitude: 22.527066
longitude: 88.344626
accuracy: 14
views: 5
interestingness: 181 out of 96

photo: 6475449963 7987d4d78b 7032
owner: 29780116@N03
title: Urban Regeneration Mission to Kolkata
originalsecret: 156f79356b
originalformat: jpg
o_height: 536
o_width: 800
datetaken: 2011-11-28 22:45:04
dateupload: 1323323922
tags: uk india december britain embassy deputy british sanjay foreignandcommonwealthoffice 2011 britishhighcommission kolktata ukti commissio wwwukinindiacom httpukinindiafcogovuk ukinindiafcogovuk wadvani httpukinindiafcogovukhi
license: 0
latitude: 22.527066
longitude: 88.344626
accuracy: 14
views: 4
interestingness: 182 out of 96

photo: 6475449895 90b1b6161a 7168
owner: 29780116@N03
title: Urban Regeneration Mission to Kolkata
originalsecret: f728be7b34
originalformat: jpg
o_height: 536
o_width: 800
datetaken: 2011-11-29 00:33:35
dateupload: 1323323920
tags: uk india december britain embassy deputy british sanjay foreignandcommonwealthoffice 2011 britishhighcommission kolktata ukti commissio wwwukinindiacom httpukinindiafcogovuk ukinindiafcogovuk wadvani httpukinindiafcogovukhi
license: 0
latitude: 22.527066
longitude: 88.344626
accuracy: 14
views: 2
interestingness: 183 out of 96

photo: 6475449767 4a30cb72ff 7147
owner: 29780116@N03
title: Urban Regeneration Mission to Kolkata
originalsecret: 83497a66d1
originalformat: jpg
o_height: 536
o_width: 800
datetaken: 2011-11-29 00:35:39
dateupload: 1323323917
tags: uk india december britain embassy deputy british sanjay foreignandcommonwealthoffice 2011 britishhighcommission kolktata ukti commissio wwwukinindiacom httpukinindiafcogovuk ukinindiafcogovuk wadvani httpukinindiafcogovukhi
license: 0
latitude: 22.527066
longitude: 88.344626
accuracy: 14
views: 5
interestingness: 184 out of 96

photo: 6475449715 46ae27835b 7166
owner: 29780116@N03
title: Urban Regeneration Mission to Kolkata
originalsecret: 58e75df6b7
originalformat: jpg
o_height: 536
o_width: 800
datetaken: 2011-11-29 00:55:45
dateupload: 1323323917
tags: uk india december britain embassy deputy british sanjay foreignandcommonwealthoffice 2011 britishhighcommission kolktata ukti commissio wwwukinindiacom httpukinindiafcogovuk ukinindiafcogovuk wadvani httpukinindiafcogovukhi
license: 0
latitude: 22.527066
longitude: 88.344626
accuracy: 14
views: 0
interestingness: 185 out of 96

photo: 6475449657 02e705cfb2 7151
owner: 29780116@N03
title: Urban Regeneration Mission to Kolkata
originalsecret: 5b0e18c5f0
originalformat: jpg
o_height: 571
o_width: 800
datetaken: 2011-11-28 23:57:15
dateupload: 1323323915
tags: uk india december britain embassy deputy british sanjay foreignandcommonwealthoffice 2011 britishhighcommission kolktata ukti commissio wwwukinindiacom httpukinindiafcogovuk ukinindiafcogovuk wadvani httpukinindiafcogovukhi
license: 0
latitude: 22.527066
longitude: 88.344626
accuracy: 14
views: 3
interestingness: 186 out of 96

photo: 6475449619 578928914e 7174
owner: 29780116@N03
title: Urban Regeneration Mission to Kolkata
originalsecret: af18aba77c
originalformat: jpg
o_height: 536
o_width: 800
datetaken: 2011-11-28 23:46:25
dateupload: 1323323914
tags: uk india december britain embassy deputy british sanjay foreignandcommonwealthoffice 2011 britishhighcommission kolktata ukti commissio wwwukinindiacom httpukinindiafcogovuk ukinindiafcogovuk wadvani httpukinindiafcogovukhi
license: 0
latitude: 22.527066
longitude: 88.344626
accuracy: 14
views: 3
interestingness: 187 out of 96

photo: 6475449577 5a4404c27a 7010
owner: 29780116@N03
title: Urban Regeneration Mission to Kolkata
originalsecret: d9f39acd1e
originalformat: jpg
o_height: 536
o_width: 800
datetaken: 2011-11-28 23:06:41
dateupload: 1323323913
tags: uk india december britain embassy deputy british sanjay foreignandcommonwealthoffice 2011 britishhighcommission kolktata ukti commissio wwwukinindiacom httpukinindiafcogovuk ukinindiafcogovuk wadvani httpukinindiafcogovukhi
license: 0
latitude: 22.527066
longitude: 88.344626
accuracy: 14
views: 3
interestingness: 188 out of 96

photo: 6475449555 fb813544f4 7028
owner: 29780116@N03
title: Urban Regeneration Mission to Kolkata
originalsecret: ef0c23993e
originalformat: jpg
o_height: 536
o_width: 800
datetaken: 2011-11-28 23:21:06
dateupload: 1323323912
tags: uk india december britain embassy deputy british sanjay foreignandcommonwealthoffice 2011 britishhighcommission kolktata ukti commissio wwwukinindiacom httpukinindiafcogovuk ukinindiafcogovuk wadvani httpukinindiafcogovukhi
license: 0
latitude: 22.527066
longitude: 88.344626
accuracy: 14
views: 3
interestingness: 189 out of 96

photo: 6475449527 1514fd364d 7027
owner: 29780116@N03
title: Urban Regeneration Mission to Kolkata
originalsecret: 835ca09c98
originalformat: jpg
o_height: 571
o_width: 800
datetaken: 2011-11-28 23:06:34
dateupload: 1323323912
tags: uk india december britain embassy deputy british sanjay foreignandcommonwealthoffice 2011 britishhighcommission kolktata ukti commissio wwwukinindiacom httpukinindiafcogovuk ukinindiafcogovuk wadvani httpukinindiafcogovukhi
license: 0
latitude: 22.527066
longitude: 88.344626
accuracy: 14
views: 0
interestingness: 190 out of 96

photo: 6475449493 38acd64a44 7015
owner: 29780116@N03
title: Urban Regeneration Mission to Kolkata
originalsecret: 2837559b36
originalformat: jpg
o_height: 536
o_width: 800
datetaken: 2011-11-29 00:56:09
dateupload: 1323323911
tags: uk india december britain embassy deputy british sanjay foreignandcommonwealthoffice 2011 britishhighcommission kolktata ukti commissio wwwukinindiacom httpukinindiafcogovuk ukinindiafcogovuk wadvani httpukinindiafcogovukhi
license: 0
latitude: 22.527066
longitude: 88.344626
accuracy: 14
views: 3
interestingness: 191 out of 96

photo: 6474611899 f2a68efc1f 7168
owner: 39073242@N08
title: Campina Grande-PB. INSA (14).
originalsecret: d0532ffd97
originalformat: jpg
o_height: 4673
o_width: 3152
datetaken: 2011-12-07 09:00:37
dateupload: 1323309651
tags: do nacional ?instituto ?brasil? brasileiras? ?cidades nordestinas? ?para?ba? ?nordeste? ?campina grandepb? semi?rido? ?insa? ?semi?rido?
license: 0
latitude: -7.277335
longitude: -35.915679
accuracy: 9
views: 2
interestingness: 192 out of 96

photo: 6474610743 6803935b24 7168
owner: 39073242@N08
title: Campina Grande-PB. INSA (15).
originalsecret: 3f287e9462
originalformat: jpg
o_height: 5184
o_width: 3456
datetaken: 2011-12-07 09:00:20
dateupload: 1323309633
tags: do nacional ?instituto ?brasil? brasileiras? ?cidades nordestinas? ?para?ba? ?nordeste? ?campina grandepb? semi?rido? ?insa? ?semi?rido?
license: 0
latitude: -7.275292
longitude: -35.908813
accuracy: 9
views: 2
interestingness: 193 out of 96

photo: 6474606737 fed5b49ca1 7167
owner: 39073242@N08
title: Campina Grande-PB. INSA (17).
originalsecret: 255d6bd4aa
originalformat: jpg
o_height: 3212
o_width: 5046
datetaken: 2011-12-07 08:46:30
dateupload: 1323309573
tags: do nacional ?instituto ?brasil? brasileiras? ?cidades nordestinas? ?para?ba? ?nordeste? ?campina grandepb? semi?rido? ?insa? ?semi?rido?
license: 0
latitude: -7.278016
longitude: -35.917053
accuracy: 9
views: 2
interestingness: 194 out of 96

photo: 6474604931 9fa6d4f4a1 7006
owner: 39073242@N08
title: Campina Grande-PB. INSA (18).
originalsecret: 9f27499dbd
originalformat: jpg
o_height: 3086
o_width: 4847
datetaken: 2011-12-07 08:52:20
dateupload: 1323309548
tags: do nacional ?instituto ?brasil? brasileiras? ?cidades nordestinas? ?para?ba? ?nordeste? ?campina grandepb? semi?rido? ?insa? ?semi?rido?
license: 0
latitude: -7.276654
longitude: -35.906066
accuracy: 9
views: 0
interestingness: 195 out of 96

photo: 6474603295 fd72c6ed44 7175
owner: 39073242@N08
title: Campina Grande-PB. INSA (19).
originalsecret: a7c6bcf898
originalformat: jpg
o_height: 3456
o_width: 5184
datetaken: 2011-12-07 08:52:27
dateupload: 1323309524
tags: do nacional ?instituto ?brasil? brasileiras? ?cidades nordestinas? ?para?ba? ?nordeste? ?campina grandepb? semi?rido? ?insa? ?semi?rido?
license: 0
latitude: -7.28006
longitude: -35.90744
accuracy: 9
views: 0
interestingness: 196 out of 96

photo: 6474601345 8f79ce7d50 7026
owner: 39073242@N08
title: Campina Grande-PB. INSA (20).
originalsecret: 499c58b2df
originalformat: jpg
o_height: 3456
o_width: 5184
datetaken: 2011-12-07 08:55:00
dateupload: 1323309496
tags: do nacional ?instituto ?brasil? brasileiras? ?cidades nordestinas? ?para?ba? ?nordeste? ?campina grandepb? semi?rido? ?insa? ?semi?rido?
license: 0
latitude: -7.275292
longitude: -35.914306
accuracy: 9
views: 0
interestingness: 197 out of 96

photo: 6474420701 8048e0bf11 7020
owner: 24880758@N02
title: RAF Grutness (Compass Head) WWII Chain Home Low and Chain Home Extra Low Radar Station
originalsecret: null
originalformat: null
o_height: null
o_width: null
datetaken: 2004-06-06 14:01:42
dateupload: 1323306432
tags: home station head low chain canmore compass radar grutness rcahms canmore:usr=677 canmore:id=115258
license: 0
latitude: 59.867336
longitude: -1.273614
accuracy: 16
views: 4
interestingness: 198 out of 96

photo: 6474417217 a65f02a217 7035
owner: 24880758@N02
title: RAF Grutness (Compass Head) WWII Chain Home Low and Chain Home Extra Low Radar Station
originalsecret: null
originalformat: null
o_height: null
o_width: null
datetaken: 2004-06-06 14:01:38
dateupload: 1323306366
tags: home station head low chain canmore compass radar grutness rcahms canmore:usr=677 canmore:id=115258
license: 0
latitude: 59.867336
longitude: -1.273614
accuracy: 16
views: 1
interestingness: 199 out of 96

photo: 6474413553 be9879bcc5 7019
owner: 24880758@N02
title: RAF Grutness (Compass Head) WWII Chain Home Low and Chain Home Extra Low Radar Station
originalsecret: null
originalformat: null
o_height: null
o_width: null
datetaken: 2004-06-06 13:59:50
dateupload: 1323306297
tags: home station head low chain canmore compass radar grutness rcahms canmore:usr=677 canmore:id=115258
license: 0
latitude: 59.867336
longitude: -1.273614
accuracy: 16
views: 2
interestingness: 200 out of 96

photo: 6474410651 fa90ccd5f8 7164
owner: 24880758@N02
title: RAF Grutness (Compass Head) WWII Chain Home Low and Chain Home Extra Low Radar Station
originalsecret: null
originalformat: null
o_height: null
o_width: null
datetaken: 2004-06-06 13:58:25
dateupload: 1323306244
tags: home station head low chain canmore compass radar grutness rcahms canmore:usr=677 canmore:id=115258
license: 0
latitude: 59.867336
longitude: -1.273614
accuracy: 16
views: 1
interestingness: 201 out of 96

photo: 6474401925 dc60d5b5ae 7009
owner: 24880758@N02
title: RAF Grutness (Compass Head) WWII Chain Home Low and Chain Home Extra Low Radar Station
originalsecret: null
originalformat: null
o_height: null
o_width: null
datetaken: 2004-06-06 13:57:00
dateupload: 1323306100
tags: home station head low chain canmore compass radar grutness rcahms canmore:usr=677 canmore:id=115258
license: 0
latitude: 59.867336
longitude: -1.273614
accuracy: 16
views: 0
interestingness: 202 out of 96

photo: 6474395723 92d4a30b66 7031
owner: 24880758@N02
title: RAF Grutness (Compass Head) WWII Chain Home Low and Chain Home Extra Low Radar Station
originalsecret: null
originalformat: null
o_height: null
o_width: null
datetaken: 2004-06-06 13:56:09
dateupload: 1323306002
tags: home station head low chain canmore compass radar grutness rcahms canmore:usr=677 canmore:id=115258
license: 0
latitude: 59.867336
longitude: -1.273614
accuracy: 16
views: 0
interestingness: 203 out of 96

photo: 6474390161 219f5e1505 7009
owner: 24880758@N02
title: RAF Grutness (Compass Head) WWII Chain Home Low and Chain Home Extra Low Radar Station
originalsecret: null
originalformat: null
o_height: null
o_width: null
datetaken: 2004-06-06 13:55:18
dateupload: 1323305910
tags: home station head low chain canmore compass radar grutness rcahms canmore:usr=677 canmore:id=115258
license: 0
latitude: 59.867336
longitude: -1.273614
accuracy: 16
views: 0
interestingness: 204 out of 96

photo: 6474381157 6c2478e025 7170
owner: 24880758@N02
title: RAF Grutness (Compass Head) WWII Chain Home Low and Chain Home Extra Low Radar Station
originalsecret: null
originalformat: null
o_height: null
o_width: null
datetaken: 2004-06-06 13:54:29
dateupload: 1323305762
tags: home station head low chain canmore compass radar grutness rcahms canmore:usr=677 canmore:id=115258
license: 0
latitude: 59.867336
longitude: -1.273614
accuracy: 16
views: 0
interestingness: 205 out of 96

photo: 6474376969 6b2a4fde8c 7005
owner: 24880758@N02
title: RAF Grutness (Compass Head) WWII Chain Home Low and Chain Home Extra Low Radar Station
originalsecret: null
originalformat: null
o_height: null
o_width: null
datetaken: 2004-06-06 13:53:40
dateupload: 1323305691
tags: compass head grutness chain home low radar station rcahms canmore canmore:usr=677 canmore:id=115258
license: 0
latitude: 59.867336
longitude: -1.273614
accuracy: 16
views: 0
