
mintime: 1322697600 maxtime: 1322852359.92
numimgs: 272
total pages: 2
visiting only 2 pages ( up to 500 images)
photo: 6437514183 26464911d3 7146
owner: 39137917@N02
title: Queen Mary @ Long Beach
originalsecret: 6b5ecdfdda
originalformat: jpg
o_height: 951
o_width: 1200
datetaken: 2011-06-23 20:46:08
dateupload: 1322765433
tags: 7d america amerika canon eos holland losangeles me metuit marceltuit nederland thenetherlands usa2011 unitedstatesofamerica blauwuur bluehour california californie canoneos7d cruiseship holiday langesluitertijd longbeach longexposure marcha nachtfotografie nightphotography queenmary roadtrip rondreis vakantie2011
license: 3
latitude: 33.753603
longitude: -118.192301
accuracy: 15
views: 187
interestingness: 1 out of 272

photo: 6434722497 eaceb3af82 7016
owner: 29396071@N02
title: M33 NGC 598 Triangulum Galaxy LRGB+HA (reprocess)
originalsecret: 5f9db1a457
originalformat: jpg
o_height: 2299
o_width: 3191
datetaken: 2011-12-04 07:30:32
dateupload: 1322715776
tags: camera sky monochrome field night stars photography pier backyard fotografie photos michigan space ngc shed science images astro fremont observatory telescope galaxy m33 terry astronomy imaging triangulum ha hancock alpha ccd universe wo hydrogen paramount tmb 4000 osc teleskop astronomie byo f7 mks deepsky 598 68mm lrgb autoguider flattener Astrometrydotnet:status=solved qhy5 130ss Astrometrydotnet:version=14400 gt1100s qhy9m wwwastrofactorscom Astrometrydotnet:id=alpha20111215786719
license: 0
latitude: 43.365234
longitude: -85.93892
accuracy: 16
views: 339
interestingness: 2 out of 272

photo: 6436256453 eaa24234f5 7170
owner: 15465898@N05
title: New Snow, Grand Tetons
originalsecret: 378a7aa5bd
originalformat: jpg
o_height: 576
o_width: 864
datetaken: 2011-10-10 08:47:23
dateupload: 1322748092
tags: newsnowgrandtetonnationalparkjacksonholewyomingbuckrailfencesagebrush grandtetonsblueskydaryllhunter
license: 0
latitude: 43.770187
longitude: -110.571212
accuracy: 16
views: 229
interestingness: 3 out of 272

photo: 6436011097 f7d1bcd33f 7167
owner: 14198543@N07
title: The Grand Duchess of San Francisco
originalsecret: 1c8769c460
originalformat: jpg
o_height: 768
o_width: 1024
datetaken: 2011-09-06 19:40:28
dateupload: 1322743790
tags: california travel bridge sign golden photo gate san francisco different photos unique famous goldengatebridge blinkagain ggnpc11 themostphotographedthing
license: 0
latitude: 37.809068
longitude: -122.47663
accuracy: 16
views: 857
interestingness: 4 out of 272

photo: 6433934045 a3ba864e55 7163
owner: 54191867@N02
title: Yala into the blue
originalsecret: 6d71fa5985
originalformat: jpg
o_height: 667
o_width: 1000
datetaken: 2011-11-28 12:21:15
dateupload: 1322704088
tags: sunset boat safari sri lanka yala
license: 0
latitude: 6.245521
longitude: 81.366577
accuracy: 9
views: 48
interestingness: 5 out of 272

photo: 6442329501 2b05cf64b9 7034
owner: 41901814@N07
title: Full Hipstamatic Combinations Guide (including new Foodie SnapPak)
originalsecret: 6fee412f4b
originalformat: jpg
o_height: 5658
o_width: 6202
datetaken: 2011-12-02 20:09:07
dateupload: 1322845747
tags: hipstamatic
license: 0
latitude: 46.336735
longitude: 48.032569
accuracy: 12
views: 356
interestingness: 6 out of 272

photo: 6429157883 1862f7fc67 6050
owner: 41254428@N05
title: The Hallway
originalsecret: null
originalformat: null
o_height: null
o_width: null
datetaken: 2011-09-21 18:07:55
dateupload: 1322699037
tags: light shadow blackandwhite bw monochrome lines contrast canon blackwhite taiwan beautifullight wideangle indoor line taipei contrasty wideanglelens llens digitalmonochrome geo76 canoneos5dmarkii 1635mmf28llens ????
license: 0
latitude: 25.028197
longitude: 121.532515
accuracy: 16
views: 60
interestingness: 7 out of 272

photo: 6442703361 4a7cc95753 7004
owner: 30749855@N05
title: MILANO...Abbazia di Chiaravalle...la "Resurrezione" di Giacomo Manz?.
originalsecret: f3b99d692d
originalformat: jpg
o_height: 2045
o_width: 1005
datetaken: 2011-11-27 16:58:54
dateupload: 1322850829
tags: milano sculture abbazia chiese chiaravalle mardiam40 allegrisinasceosidiventa
license: 0
latitude: 45.417179
longitude: 9.23978
accuracy: 11
views: 78
interestingness: 8 out of 272

photo: 6441557707 c7b95b6c21 7008
owner: 55370236@N07
title: Dec 02, 2011 [Day 032]
originalsecret: 440170a6cb
originalformat: jpg
o_height: 1920
o_width: 2560
datetaken: 2011-12-02 05:00:00
dateupload: 1322838780
tags: startrek book december 1987 sony cybershot spock bones year2 starfleet guide enterprise kirk ncc1701 captainkirk ussenterprise mccoy mrspock dscf717 366 2011 sonycybershotdscf717 shanejohnson drmccoy startrektos ussenterprisencc1701 jamesseattle sciencefictionfriday?s startrekmrscottsguidetotheenterprisebasedupontheengineeringlogsofchiefengineermontgomeryscott
license: 0
latitude: 47.677206
longitude: -122.201786
accuracy: 13
views: 27
interestingness: 9 out of 272

photo: 6428062843 5874dff4de 6037
owner: 41254428@N05
title: The Hallway II
originalsecret: null
originalformat: null
o_height: null
o_width: null
datetaken: 2011-09-21 18:35:07
dateupload: 1322781040
tags: light shadow blackandwhite bw monochrome lines contrast canon blackwhite taiwan beautifullight wideangle indoor line taipei contrasty wideanglelens llens digitalmonochrome geo76 canoneos5dmarkii 1635mmf28llens ????
license: 0
latitude: 25.028197
longitude: 121.532515
accuracy: 16
views: 40
interestingness: 10 out of 272

photo: 6438428355 8552ef2194 7013
owner: 39793483@N03
title: NGC2244 (The AstroTech RC setup saga continues ...)
originalsecret: null
originalformat: null
o_height: null
o_width: null
datetaken: 2011-12-01 16:38:40
dateupload: 1322777419
tags: rc paramount paramountme ha3nm astrotech10 fstl6303moagnarrowbandastrondon
license: 0
latitude: 40.769215
longitude: -73.903012
accuracy: 15
views: 50
interestingness: 11 out of 272

photo: 6438104305 b2e407e033 7010
owner: 21371749@N06
title: El Infiernillo
originalsecret: 5398b5c8d3
originalformat: jpg
o_height: 576
o_width: 1024
datetaken: 2010-04-11 09:09:35
dateupload: 1322773281
tags: mountains color landscape mexico islands nikon dam aerial helicopter koala aerialphotography presa 2010 agusta guerrero d300 tokina1224mmf4 infiernillo erickmonroy aw119ke grodesdeelaire guiaarqypaisaje aerialproject regioncostagrande
license: 0
latitude: 18.695196
longitude: -101.908836
accuracy: 11
views: 87
interestingness: 12 out of 272

photo: 6437003041 466daf2802 7018
owner: 82854217@N00
title: St Albans Cathedral.
originalsecret: null
originalformat: null
o_height: null
o_width: null
datetaken: 2011-09-17 11:12:27
dateupload: 1322758536
tags: autumn england cathedral hertfordshire stalbans listedbuilding stalbanscathedral tamron1750 gradeilistedbuilding
license: 0
latitude: 51.750427
longitude: -0.343108
accuracy: 14
views: 69
interestingness: 13 out of 272

photo: 6436130527 0557020b9b 7147
owner: 76033499@N00
title: White-lined tree frog (Phyllomedusa vaillantii)
originalsecret: null
originalformat: null
o_height: null
o_width: null
datetaken: 2011-04-10 20:10:30
dateupload: 1322745907
tags: ecuador yachana lpjc phyllomedusavaillantii
license: 0
latitude: -0.949329
longitude: -77.418251
accuracy: 16
views: 28
interestingness: 14 out of 272

photo: 6436759633 9d2ffafe10 7163
owner: 8774105@N07
title: Himba Ferrari....
originalsecret: null
originalformat: null
o_height: null
o_width: null
datetaken: 2011-05-17 11:46:26
dateupload: 1322755312
tags: ferrari namibia himba damaraland
license: 0
latitude: -19.757979
longitude: 14.729919
accuracy: 10
views: 35
interestingness: 15 out of 272

photo: 6436475963 062c9ca3d6 7168
owner: 24574316@N07
title: The Grand Traverse Lighthouse [1/2]
originalsecret: 0f7ba9062a
originalformat: jpg
o_height: 1713
o_width: 2048
datetaken: 2011-09-18 15:27:39
dateupload: 1322751347
tags: county michigan vibrant lakemichigan panasonic lighhouse grandtraversebay leelanau northport grandtraverse leelanaustatepark fz18 jimflix llmsmitraversecity
license: 3
latitude: 45.210977
longitude: -85.546889
accuracy: 15
views: 59
interestingness: 16 out of 272

photo: 6436186539 f10aaf8c51 7026
owner: 55426164@N00
title: Wedding Canyon, Colorado National Monument
originalsecret: 3ce2fbf8b6
originalformat: jpg
o_height: 829
o_width: 1229
datetaken: 2011-09-06 09:25:41
dateupload: 1322746888
tags: colorado parks canyons professionalphotographer nationalmonuments coloradonationalmonument westernlandscapes photoworkshops phototours phototourguide jmwnaturesimagescom audiovisualphotopresentations
license: 0
latitude: 39.102877
longitude: -108.727043
accuracy: 16
views: 46
interestingness: 17 out of 272

photo: 6442687915 fbcf947ba7 7008
owner: 58942099@N03
title: Rapids in Yellowstone
originalsecret: null
originalformat: null
o_height: null
o_width: null
datetaken: 2011-07-27 20:34:03
dateupload: 1322850611
tags: park travel blue trees summer usa holiday colour green nature water america landscape nikon montana roadtrip rapids idaho yellowstone wyoming usavacation
license: 0
latitude: 44.620121
longitude: -110.49089
accuracy: 16
views: 26
interestingness: 18 out of 272

photo: 6436932191 9433e4eb4d 7151
owner: 72427312@N00
title: Coney Island Co. sidewheeler Island Queen at Cincinnati
originalsecret: null
originalformat: null
o_height: null
o_width: null
datetaken: 2011-12-01 07:20:40
dateupload: 1322757607
tags: ferry river boat dock ship side vessel cargo quay steam wheeler passenger stern steamer freigth
license: 0
latitude: 39.094364
longitude: -84.504604
accuracy: 11
views: 23
interestingness: 19 out of 272

photo: 6435819947 6c2bfd4211 7161
owner: 55935853@N00
title: College Arms, Bloomsbury, WC1
originalsecret: 19523e8e6f
originalformat: jpg
o_height: 3220
o_width: 2208
datetaken: 2011-11-29 14:11:26
dateupload: 1322739973
tags: england london bloomsbury pubs storestreet wc1e wc1 thecollegearms rgl collegearms freehouse londonboroughofcamden universitytavern thecamdenarms camdenarms studentpub camdenhotel faucetinnpub faucetinnpubcopub faucetinnpubcompanypub theuniversitytavern thecamdenhotel
license: 5
latitude: 51.519909
longitude: -0.131835
accuracy: 16
views: 16
interestingness: 20 out of 272

photo: 6440683687 3a7bd8dd24 7170
owner: 69323676@N08
title: Arm raus, Als Anhalter durch die Galaxis
originalsecret: 85ff6fdfa8
originalformat: jpg
o_height: 998
o_width: 2139
datetaken: 2011-05-23 11:59:30
dateupload: 1322817077
tags: plant pflanze thehitchhikersguidetothegalaxy douglasadams papaver mohn
license: 0
latitude: 52.203819
longitude: 10.513229
accuracy: 16
views: 5
interestingness: 21 out of 272

photo: 6436527589 d22a3a311b 7007
owner: 8981098@N07
title: Dar el-Makhzen. Door detail.
originalsecret: 4d7dc76850
originalformat: jpg
o_height: 2621
o_width: 1966
datetaken: 2011-10-12 09:43:03
dateupload: 1322752111
tags: africa travel architecture canon geotagged morocco fez maroc royalpalace fes peregrin darelmakhzen alma?rib ???????????? lindadevolder placedesalaouites powershotsx30 f?seldjedid f?zeldjedid
license: 0
latitude: 34.039858
longitude: -5.007019
accuracy: 11
views: 8
interestingness: 22 out of 272

photo: 6442505197 768a6f47b9 7159
owner: 90158348@N00
title: Inter-faith prayer room, Highcross, Leicester
originalsecret: f00b0a9d6a
originalformat: jpg
o_height: 1542
o_width: 2056
datetaken: 2011-12-02 14:22:36
dateupload: 1322848090
tags: 
license: 1
latitude: 52.63611
longitude: -1.136033
accuracy: 15
views: 33
interestingness: 23 out of 272

photo: 6440032467 4659527451 7172
owner: 52019819@N05
title: CN 8957 north
originalsecret: c03214c2b8
originalformat: jpg
o_height: 683
o_width: 1024
datetaken: 2011-11-30 14:24:00
dateupload: 1322802948
tags: water cn illinois freight sd70m
license: 0
latitude: 42.298532
longitude: -88.004908
accuracy: 14
views: 31
interestingness: 24 out of 272

photo: 6442057181 8e0390a388 7008
owner: 24271543@N03
title: Morlanne, Pyr?n?es Atlantiques: portail de l'?glise Saint Laurent
originalsecret: 9e0292d573
originalformat: jpg
o_height: 3216
o_width: 2612
datetaken: 2011-11-13 16:40:30
dateupload: 1322842181
tags: door france southwest puerta gate 64 porta porte portal t?r portail sudouest aquitaine b?arn pyr?n?esatlantiques morlanne morlana
license: 0
latitude: 43.513428
longitude: -0.534435
accuracy: 15
views: 2
interestingness: 25 out of 272

photo: 6436278797 92dda87efe 7160
owner: 8981098@N07
title: Dar el-Makhzen
originalsecret: 67a6d2375b
originalformat: jpg
o_height: 2609
o_width: 1956
datetaken: 2011-10-12 09:37:33
dateupload: 1322748449
tags: africa travel architecture canon geotagged morocco fez maroc royalpalace fes peregrin darelmakhzen alma?rib ???????????? lindadevolder placedesalaouites powershotsx30 f?seldjedid f?zeldjedid
license: 0
latitude: 34.039858
longitude: -5.007019
accuracy: 11
views: 13
interestingness: 26 out of 272

photo: 6436095231 784790bea3 7023
owner: 23525093@N07
title: Prayers of Abandonment
originalsecret: 4d45c4fb0c
originalformat: jpg
o_height: 683
o_width: 1024
datetaken: 2011-12-01 04:24:56
dateupload: 1322745282
tags: ocean longexposure blue beach bluehour reverebeach twighlight thebluehour
license: 0
latitude: 42.420225
longitude: -70.985927
accuracy: 13
views: 17
interestingness: 27 out of 272

photo: 6442593867 3ce63e1832 7146
owner: 34003718@N07
title: kalymnos_thetis_cup_27
originalsecret: null
originalformat: null
o_height: null
o_width: null
datetaken: 2011-12-02 20:08:17
dateupload: 1322849297
tags: greece greekislands kalymnos dodecanese ?????? kalymnosisland ?????????? ???????? ????????????? kalymnosweb wwwkalymnoswebgr kalymnosrealestate
license: 0
latitude: 36.960179
longitude: 26.964569
accuracy: 12
views: 11
interestingness: 28 out of 272

photo: 6442807097 1f0c4aa6b2 7166
owner: 42285427@N04
title: RM1933 AEC Routemaster - 2 d?cembre 2011 (3)
originalsecret: b907b72b93
originalformat: jpg
o_height: 2448
o_width: 3264
datetaken: 2011-12-02 15:20:56
dateupload: 1322852296
tags: uk england france bus london scale buses de miniatures la miniature corgi model pin december tour sightseeing models pins 94 londres guide 1977 reine argent rm mod?le jubil? r?duits r?duit mod?les letramdetours padicha
license: 0
latitude: 51.50632
longitude: -0.12714
accuracy: 11
views: 14
interestingness: 29 out of 272

photo: 6442604149 a01338c9bc 7155
owner: 34003718@N07
title: kalymnos_thetis_cup_31
originalsecret: null
originalformat: null
o_height: null
o_width: null
datetaken: 2011-12-02 20:10:38
dateupload: 1322849438
tags: greece greekislands kalymnos dodecanese ?????? kalymnosisland ?????????? ???????? ????????????? kalymnosweb wwwkalymnoswebgr kalymnosrealestate
license: 0
latitude: 36.960179
longitude: 26.964569
accuracy: 12
views: 8
interestingness: 30 out of 272

photo: 6442599021 43c978aafb 7011
owner: 34003718@N07
title: kalymnos_thetis_cup_29
originalsecret: null
originalformat: null
o_height: null
o_width: null
datetaken: 2011-12-02 20:09:29
dateupload: 1322849369
tags: greece greekislands kalymnos dodecanese ?????? kalymnosisland ?????????? ???????? ????????????? kalymnosweb wwwkalymnoswebgr kalymnosrealestate
license: 0
latitude: 36.960179
longitude: 26.964569
accuracy: 12
views: 4
interestingness: 31 out of 272

photo: 6442529225 7568fbb31c 7032
owner: 34003718@N07
title: kalymnos_thetis_cup_2
originalsecret: null
originalformat: null
o_height: null
o_width: null
datetaken: 2011-12-02 19:53:32
dateupload: 1322848412
tags: greece greekislands kalymnos dodecanese ?????? kalymnosisland ?????????? ???????? ????????????? kalymnosweb wwwkalymnoswebgr kalymnosrealestate
license: 0
latitude: 36.960179
longitude: 26.964569
accuracy: 12
views: 22
interestingness: 32 out of 272

photo: 6441365347 d91d4d1838 7154
owner: 34003718@N07
title: ????????_kalymnosweb_64
originalsecret: null
originalformat: null
o_height: null
o_width: null
datetaken: 2011-12-02 15:16:12
dateupload: 1322831772
tags: greece greekislands kalymnos dodecanese ?????? kalymnosisland ?????????? ???????? ????????????? kalymnosweb wwwkalymnoswebgr kalymnosrealestate
license: 0
latitude: 36.971701
longitude: 26.934957
accuracy: 12
views: 2
interestingness: 33 out of 272

photo: 6442605057 d69e8cbac3 7161
owner: 34003718@N07
title: GOOGLE_US
originalsecret: null
originalformat: null
o_height: null
o_width: null
datetaken: 2011-12-02 20:10:51
dateupload: 1322849451
tags: greece greekislands kalymnos dodecanese ?????? kalymnosisland ?????????? ???????? ????????????? kalymnosweb wwwkalymnoswebgr kalymnosrealestate
license: 0
latitude: 36.960179
longitude: 26.964569
accuracy: 12
views: 3
interestingness: 34 out of 272

photo: 6442601595 c39583275f 7148
owner: 34003718@N07
title: kalymnos_thetis_cup_30
originalsecret: null
originalformat: null
o_height: null
o_width: null
datetaken: 2011-12-02 20:10:04
dateupload: 1322849404
tags: greece greekislands kalymnos dodecanese ?????? kalymnosisland ?????????? ???????? ????????????? kalymnosweb wwwkalymnoswebgr kalymnosrealestate
license: 0
latitude: 36.960179
longitude: 26.964569
accuracy: 12
views: 3
interestingness: 35 out of 272

photo: 6442596553 fdcbc4172a 7007
owner: 34003718@N07
title: kalymnos_thetis_cup_28
originalsecret: null
originalformat: null
o_height: null
o_width: null
datetaken: 2011-12-02 20:08:56
dateupload: 1322849336
tags: greece greekislands kalymnos dodecanese ?????? kalymnosisland ?????????? ???????? ????????????? kalymnosweb wwwkalymnoswebgr kalymnosrealestate
license: 0
latitude: 36.960179
longitude: 26.964569
accuracy: 12
views: 3
interestingness: 36 out of 272

photo: 6442592187 c721a5988b 7013
owner: 34003718@N07
title: kalymnos_thetis_cup_26
originalsecret: null
originalformat: null
o_height: null
o_width: null
datetaken: 2011-12-02 20:07:56
dateupload: 1322849276
tags: greece greekislands kalymnos dodecanese ?????? kalymnosisland ?????????? ???????? ????????????? kalymnosweb wwwkalymnoswebgr kalymnosrealestate
license: 0
latitude: 36.960179
longitude: 26.964569
accuracy: 12
views: 5
interestingness: 37 out of 272

photo: 6442590023 00ba7dc752 7013
owner: 34003718@N07
title: kalymnos_thetis_cup_25
originalsecret: null
originalformat: null
o_height: null
o_width: null
datetaken: 2011-12-02 20:07:26
dateupload: 1322849246
tags: greece greekislands kalymnos dodecanese ?????? kalymnosisland ?????????? ???????? ????????????? kalymnosweb wwwkalymnoswebgr kalymnosrealestate
license: 0
latitude: 36.960179
longitude: 26.964569
accuracy: 12
views: 3
interestingness: 38 out of 272

photo: 6442588173 6a3ab18bce 7003
owner: 34003718@N07
title: kalymnos_thetis_cup_24
originalsecret: null
originalformat: null
o_height: null
o_width: null
datetaken: 2011-12-02 20:06:59
dateupload: 1322849219
tags: greece greekislands kalymnos dodecanese ?????? kalymnosisland ?????????? ???????? ????????????? kalymnosweb wwwkalymnoswebgr kalymnosrealestate
license: 0
latitude: 36.960179
longitude: 26.964569
accuracy: 12
views: 3
interestingness: 39 out of 272

photo: 6442586447 73a1352bbd 7008
owner: 34003718@N07
title: kalymnos_thetis_cup_23
originalsecret: null
originalformat: null
o_height: null
o_width: null
datetaken: 2011-12-02 20:06:34
dateupload: 1322849194
tags: greece greekislands kalymnos dodecanese ?????? kalymnosisland ?????????? ???????? ????????????? kalymnosweb wwwkalymnoswebgr kalymnosrealestate
license: 0
latitude: 36.960179
longitude: 26.964569
accuracy: 12
views: 24
interestingness: 40 out of 272

photo: 6442584185 b26aff94ab 7005
owner: 34003718@N07
title: kalymnos_thetis_cup_22
originalsecret: null
originalformat: null
o_height: null
o_width: null
datetaken: 2011-12-02 20:06:03
dateupload: 1322849163
tags: greece greekislands kalymnos dodecanese ?????? kalymnosisland ?????????? ???????? ????????????? kalymnosweb wwwkalymnoswebgr kalymnosrealestate
license: 0
latitude: 36.960179
longitude: 26.964569
accuracy: 12
views: 6
interestingness: 41 out of 272

photo: 6442582129 cb07439f49 7008
owner: 34003718@N07
title: kalymnos_thetis_cup_21
originalsecret: null
originalformat: null
o_height: null
o_width: null
datetaken: 2011-12-02 20:05:35
dateupload: 1322849135
tags: greece greekislands kalymnos dodecanese ?????? kalymnosisland ?????????? ???????? ????????????? kalymnosweb wwwkalymnoswebgr kalymnosrealestate
license: 0
latitude: 36.960179
longitude: 26.964569
accuracy: 12
views: 8
interestingness: 42 out of 272

photo: 6442579791 1117aba03b 7171
owner: 34003718@N07
title: kalymnos_thetis_cup_20
originalsecret: null
originalformat: null
o_height: null
o_width: null
datetaken: 2011-12-02 20:05:03
dateupload: 1322849103
tags: greece greekislands kalymnos dodecanese ?????? kalymnosisland ?????????? ???????? ????????????? kalymnosweb wwwkalymnoswebgr kalymnosrealestate
license: 0
latitude: 36.960179
longitude: 26.964569
accuracy: 12
views: 4
interestingness: 43 out of 272

photo: 6442573965 c0fcd8ec60 7146
owner: 34003718@N07
title: kalymnos_thetis_cup_18
originalsecret: null
originalformat: null
o_height: null
o_width: null
datetaken: 2011-12-02 20:03:46
dateupload: 1322849026
tags: greece greekislands kalymnos dodecanese ?????? kalymnosisland ?????????? ???????? ????????????? kalymnosweb wwwkalymnoswebgr kalymnosrealestate
license: 0
latitude: 36.960179
longitude: 26.964569
accuracy: 12
views: 3
interestingness: 44 out of 272

photo: 6442571649 6dc51d9b5a 7012
owner: 34003718@N07
title: kalymnos_thetis_cup_17
originalsecret: null
originalformat: null
o_height: null
o_width: null
datetaken: 2011-12-02 20:03:15
dateupload: 1322848995
tags: greece greekislands kalymnos dodecanese ?????? kalymnosisland ?????????? ???????? ????????????? kalymnosweb wwwkalymnoswebgr kalymnosrealestate
license: 0
latitude: 36.960179
longitude: 26.964569
accuracy: 12
views: 3
interestingness: 45 out of 272

photo: 6442566831 9734e08633 7154
owner: 34003718@N07
title: kalymnos_thetis_cup_16
originalsecret: null
originalformat: null
o_height: null
o_width: null
datetaken: 2011-12-02 20:02:08
dateupload: 1322848928
tags: greece greekislands kalymnos dodecanese ?????? kalymnosisland ?????????? ???????? ????????????? kalymnosweb wwwkalymnoswebgr kalymnosrealestate
license: 0
latitude: 36.960179
longitude: 26.964569
accuracy: 12
views: 9
interestingness: 46 out of 272

photo: 6442563721 d66a8e4e85 7146
owner: 34003718@N07
title: kalymnos_thetis_cup_15
originalsecret: null
originalformat: null
o_height: null
o_width: null
datetaken: 2011-12-02 20:01:23
dateupload: 1322848883
tags: greece greekislands kalymnos dodecanese ?????? kalymnosisland ?????????? ???????? ????????????? kalymnosweb wwwkalymnoswebgr kalymnosrealestate
license: 0
latitude: 36.960179
longitude: 26.964569
accuracy: 12
views: 4
interestingness: 47 out of 272

photo: 6442560949 bcbd44cb1e 7027
owner: 34003718@N07
title: kalymnos_thetis_cup_14
originalsecret: null
originalformat: null
o_height: null
o_width: null
datetaken: 2011-12-02 20:00:46
dateupload: 1322848846
tags: greece greekislands kalymnos dodecanese ?????? kalymnosisland ?????????? ???????? ????????????? kalymnosweb wwwkalymnoswebgr kalymnosrealestate
license: 0
latitude: 36.960179
longitude: 26.964569
accuracy: 12
views: 3
interestingness: 48 out of 272

photo: 6442557059 41c3b94e47 7011
owner: 34003718@N07
title: kalymnos_thetis_cup_13
originalsecret: null
originalformat: null
o_height: null
o_width: null
datetaken: 2011-12-02 19:59:53
dateupload: 1322848793
tags: greece greekislands kalymnos dodecanese ?????? kalymnosisland ?????????? ???????? ????????????? kalymnosweb wwwkalymnoswebgr kalymnosrealestate
license: 0
latitude: 36.960179
longitude: 26.964569
accuracy: 12
views: 0
interestingness: 49 out of 272

photo: 6442554397 a246d4cca7 7141
owner: 34003718@N07
title: kalymnos_thetis_cup_12
originalsecret: null
originalformat: null
o_height: null
o_width: null
datetaken: 2011-12-02 19:59:17
dateupload: 1322848757
tags: greece greekislands kalymnos dodecanese ?????? kalymnosisland ?????????? ???????? ????????????? kalymnosweb wwwkalymnoswebgr kalymnosrealestate
license: 0
latitude: 36.960179
longitude: 26.964569
accuracy: 12
views: 40
interestingness: 50 out of 272

photo: 6442551875 d3734de454 7153
owner: 34003718@N07
title: kalymnos_thetis_cup_11
originalsecret: null
originalformat: null
o_height: null
o_width: null
datetaken: 2011-12-02 19:58:43
dateupload: 1322848723
tags: greece greekislands kalymnos dodecanese ?????? kalymnosisland ?????????? ???????? ????????????? kalymnosweb wwwkalymnoswebgr kalymnosrealestate
license: 0
latitude: 36.960179
longitude: 26.964569
accuracy: 12
views: 2
interestingness: 51 out of 272

photo: 6442548813 bda5bb3b4b 7144
owner: 34003718@N07
title: kalymnos_thetis_cup_10
originalsecret: null
originalformat: null
o_height: null
o_width: null
datetaken: 2011-12-02 19:58:01
dateupload: 1322848681
tags: greece greekislands kalymnos dodecanese ?????? kalymnosisland ?????????? ???????? ????????????? kalymnosweb wwwkalymnoswebgr kalymnosrealestate
license: 0
latitude: 36.960179
longitude: 26.964569
accuracy: 12
views: 25
interestingness: 52 out of 272

photo: 6442545909 847fb28c15 7149
owner: 34003718@N07
title: kalymnos_thetis_cup_9
originalsecret: null
originalformat: null
o_height: null
o_width: null
datetaken: 2011-12-02 19:57:20
dateupload: 1322848640
tags: greece greekislands kalymnos dodecanese ?????? kalymnosisland ?????????? ???????? ????????????? kalymnosweb wwwkalymnoswebgr kalymnosrealestate
license: 0
latitude: 36.960179
longitude: 26.964569
accuracy: 12
views: 6
interestingness: 53 out of 272

photo: 6442542947 ae4ca6e342 7155
owner: 34003718@N07
title: kalymnos_thetis_cup_8
originalsecret: null
originalformat: null
o_height: null
o_width: null
datetaken: 2011-12-02 19:56:38
dateupload: 1322848598
tags: greece greekislands kalymnos dodecanese ?????? kalymnosisland ?????????? ???????? ????????????? kalymnosweb wwwkalymnoswebgr kalymnosrealestate
license: 0
latitude: 36.960179
longitude: 26.964569
accuracy: 12
views: 0
interestingness: 54 out of 272

photo: 6442540831 8862c8f20c 7148
owner: 34003718@N07
title: kalymnos_thetis_cup_7
originalsecret: null
originalformat: null
o_height: null
o_width: null
datetaken: 2011-12-02 19:56:10
dateupload: 1322848570
tags: greece greekislands kalymnos dodecanese ?????? kalymnosisland ?????????? ???????? ????????????? kalymnosweb wwwkalymnoswebgr kalymnosrealestate
license: 0
latitude: 36.960179
longitude: 26.964569
accuracy: 12
views: 0
interestingness: 55 out of 272

photo: 6442538353 c58b0d135f 7015
owner: 34003718@N07
title: kalymnos_thetis_cup_6
originalsecret: null
originalformat: null
o_height: null
o_width: null
datetaken: 2011-12-02 19:55:36
dateupload: 1322848536
tags: greece greekislands kalymnos dodecanese ?????? kalymnosisland ?????????? ???????? ????????????? kalymnosweb wwwkalymnoswebgr kalymnosrealestate
license: 0
latitude: 36.960179
longitude: 26.964569
accuracy: 12
views: 1
interestingness: 56 out of 272

photo: 6442536061 97e838695c 7155
owner: 34003718@N07
title: kalymnos_thetis_cup_5
originalsecret: null
originalformat: null
o_height: null
o_width: null
datetaken: 2011-12-02 19:55:04
dateupload: 1322848504
tags: greece greekislands kalymnos dodecanese ?????? kalymnosisland ?????????? ???????? ????????????? kalymnosweb wwwkalymnoswebgr kalymnosrealestate
license: 0
latitude: 36.960179
longitude: 26.964569
accuracy: 12
views: 1
interestingness: 57 out of 272

photo: 6442533841 27e41dfa3e 7168
owner: 34003718@N07
title: kalymnos_thetis_cup_4
originalsecret: null
originalformat: null
o_height: null
o_width: null
datetaken: 2011-12-02 19:54:37
dateupload: 1322848477
tags: greece greekislands kalymnos dodecanese ?????? kalymnosisland ?????????? ???????? ????????????? kalymnosweb wwwkalymnoswebgr kalymnosrealestate
license: 0
latitude: 36.960179
longitude: 26.964569
accuracy: 12
views: 1
interestingness: 58 out of 272

photo: 6442531409 71f18c5617 7001
owner: 34003718@N07
title: kalymnos_thetis_cup_3
originalsecret: null
originalformat: null
o_height: null
o_width: null
datetaken: 2011-12-02 19:54:03
dateupload: 1322848443
tags: greece greekislands kalymnos dodecanese ?????? kalymnosisland ?????????? ???????? ????????????? kalymnosweb wwwkalymnoswebgr kalymnosrealestate
license: 0
latitude: 36.960179
longitude: 26.964569
accuracy: 12
views: 2
interestingness: 59 out of 272

photo: 6442527207 6669c27233 7003
owner: 34003718@N07
title: kalymnos_thetis_cup_1
originalsecret: null
originalformat: null
o_height: null
o_width: null
datetaken: 2011-12-02 19:53:07
dateupload: 1322848387
tags: greece greekislands kalymnos dodecanese ?????? kalymnosisland ?????????? ???????? ????????????? kalymnosweb wwwkalymnoswebgr kalymnosrealestate
license: 0
latitude: 36.960179
longitude: 26.964569
accuracy: 12
views: 5
interestingness: 60 out of 272

photo: 6442021545 ea97e5d85d 7167
owner: 24271543@N03
title: Morlanne, Pyr?n?es Atlantiques: ?glise Saint Laurent
originalsecret: b624d71606
originalformat: jpg
o_height: 3000
o_width: 4000
datetaken: 2011-11-13 16:47:57
dateupload: 1322841696
tags: france southwest church iglesia 64 chiesa eliza ?glise kerk kirsche sudouest aquitaine b?arn pyr?n?esatlantiques morlanne ?glisesaintlaurent morlana
license: 0
latitude: 43.513428
longitude: -0.534435
accuracy: 15
views: 2
interestingness: 61 out of 272

photo: 6442009803 d63a7a0743 7153
owner: 24271543@N03
title: Morlanne, Pyr?n?es Atlantiques: ?glise Saint Laurent
originalsecret: 1384d45848
originalformat: jpg
o_height: 3083
o_width: 2877
datetaken: 2011-11-13 16:47:13
dateupload: 1322841528
tags: france southwest church iglesia 64 chiesa eliza ?glise kerk kirsche sudouest aquitaine b?arn pyr?n?esatlantiques morlanne ?glisesaintlaurent morlana
license: 0
latitude: 43.513428
longitude: -0.534435
accuracy: 15
views: 1
interestingness: 62 out of 272

photo: 6441779865 6ff6197400 7031
owner: 55935853@N00
title: Browns of Brockley, Brockley, SE4
originalsecret: b20583cb50
originalformat: jpg
o_height: 1859
o_width: 2788
datetaken: 2010-03-21 14:45:13
dateupload: 1322838278
tags: england london browns coffeeshops cafes brockley rgl se4 londonboroughoflewisham dandelionblue coulgatestreet brownsofbrockley
license: 5
latitude: 51.464381
longitude: -0.037025
accuracy: 16
views: 16
interestingness: 63 out of 272

photo: 6441420731 4056ecdf9f 7009
owner: 34003718@N07
title: GOOGLE_US
originalsecret: null
originalformat: null
o_height: null
o_width: null
datetaken: 2011-12-02 15:33:16
dateupload: 1322832796
tags: greece greekislands kalymnos dodecanese ?????? kalymnosisland ?????????? ???????? ????????????? kalymnosweb wwwkalymnoswebgr kalymnosrealestate
license: 0
latitude: 36.971701
longitude: 26.934957
accuracy: 12
views: 1
interestingness: 64 out of 272

photo: 6441415485 bcb4648b31 7017
owner: 34003718@N07
title: ????????_kalymnosweb_90
originalsecret: null
originalformat: null
o_height: null
o_width: null
datetaken: 2011-12-02 15:31:51
dateupload: 1322832711
tags: greece greekislands kalymnos dodecanese ?????? kalymnosisland ?????????? ???????? ????????????? kalymnosweb wwwkalymnoswebgr kalymnosrealestate
license: 0
latitude: 36.971701
longitude: 26.934957
accuracy: 12
views: 1
interestingness: 65 out of 272

photo: 6441414021 7fb110162d 7004
owner: 34003718@N07
title: ????????_kalymnosweb_89
originalsecret: null
originalformat: null
o_height: null
o_width: null
datetaken: 2011-12-02 15:31:26
dateupload: 1322832686
tags: greece greekislands kalymnos dodecanese ?????? kalymnosisland ?????????? ???????? ????????????? kalymnosweb wwwkalymnoswebgr kalymnosrealestate
license: 0
latitude: 36.971701
longitude: 26.934957
accuracy: 12
views: 1
interestingness: 66 out of 272

photo: 6441411309 e712827050 7015
owner: 34003718@N07
title: ????????_kalymnosweb_87
originalsecret: null
originalformat: null
o_height: null
o_width: null
datetaken: 2011-12-02 15:30:38
dateupload: 1322832638
tags: greece greekislands kalymnos dodecanese ?????? kalymnosisland ?????????? ???????? ????????????? kalymnosweb wwwkalymnoswebgr kalymnosrealestate
license: 0
latitude: 36.971701
longitude: 26.934957
accuracy: 12
views: 1
interestingness: 67 out of 272

photo: 6441409957 9e4b914b81 7009
owner: 34003718@N07
title: ????????_kalymnosweb_86
originalsecret: null
originalformat: null
o_height: null
o_width: null
datetaken: 2011-12-02 15:30:14
dateupload: 1322832614
tags: greece greekislands kalymnos dodecanese ?????? kalymnosisland ?????????? ???????? ????????????? kalymnosweb wwwkalymnoswebgr kalymnosrealestate
license: 0
latitude: 36.971701
longitude: 26.934957
accuracy: 12
views: 1
interestingness: 68 out of 272

photo: 6441408461 fab36c71e9 7162
owner: 34003718@N07
title: ????????_kalymnosweb_85
originalsecret: null
originalformat: null
o_height: null
o_width: null
datetaken: 2011-12-02 15:29:48
dateupload: 1322832588
tags: greece greekislands kalymnos dodecanese ?????? kalymnosisland ?????????? ???????? ????????????? kalymnosweb wwwkalymnoswebgr kalymnosrealestate
license: 0
latitude: 36.971701
longitude: 26.934957
accuracy: 12
views: 1
interestingness: 69 out of 272

photo: 6441407105 d9e1a0efd3 7143
owner: 34003718@N07
title: ????????_kalymnosweb_84
originalsecret: null
originalformat: null
o_height: null
o_width: null
datetaken: 2011-12-02 15:29:25
dateupload: 1322832565
tags: greece greekislands kalymnos dodecanese ?????? kalymnosisland ?????????? ???????? ????????????? kalymnosweb wwwkalymnoswebgr kalymnosrealestate
license: 0
latitude: 36.971701
longitude: 26.934957
accuracy: 12
views: 2
interestingness: 70 out of 272

photo: 6441405485 e639ee10d7 7030
owner: 34003718@N07
title: ????????_kalymnosweb_83
originalsecret: null
originalformat: null
o_height: null
o_width: null
datetaken: 2011-12-02 15:28:55
dateupload: 1322832535
tags: greece greekislands kalymnos dodecanese ?????? kalymnosisland ?????????? ???????? ????????????? kalymnosweb wwwkalymnoswebgr kalymnosrealestate
license: 0
latitude: 36.971701
longitude: 26.934957
accuracy: 12
views: 1
interestingness: 71 out of 272

photo: 6441402901 9a3854d6b5 7022
owner: 34003718@N07
title: ????????_kalymnosweb_81
originalsecret: null
originalformat: null
o_height: null
o_width: null
datetaken: 2011-12-02 15:28:04
dateupload: 1322832484
tags: greece greekislands kalymnos dodecanese ?????? kalymnosisland ?????????? ???????? ????????????? kalymnosweb wwwkalymnoswebgr kalymnosrealestate
license: 0
latitude: 36.971701
longitude: 26.934957
accuracy: 12
views: 1
interestingness: 72 out of 272

photo: 6441401669 e9af98be8f 7145
owner: 34003718@N07
title: ????????_kalymnosweb_80
originalsecret: null
originalformat: null
o_height: null
o_width: null
datetaken: 2011-12-02 15:27:38
dateupload: 1322832458
tags: greece greekislands kalymnos dodecanese ?????? kalymnosisland ?????????? ???????? ????????????? kalymnosweb wwwkalymnoswebgr kalymnosrealestate
license: 0
latitude: 36.971701
longitude: 26.934957
accuracy: 12
views: 1
interestingness: 73 out of 272

photo: 6441400475 11b479eb92 7168
owner: 34003718@N07
title: ????????_kalymnosweb_79
originalsecret: null
originalformat: null
o_height: null
o_width: null
datetaken: 2011-12-02 15:27:12
dateupload: 1322832432
tags: greece greekislands kalymnos dodecanese ?????? kalymnosisland ?????????? ???????? ????????????? kalymnosweb wwwkalymnoswebgr kalymnosrealestate
license: 0
latitude: 36.971701
longitude: 26.934957
accuracy: 12
views: 1
interestingness: 74 out of 272

photo: 6441399173 3a461e08a5 7034
owner: 34003718@N07
title: ????????_kalymnosweb_78
originalsecret: null
originalformat: null
o_height: null
o_width: null
datetaken: 2011-12-02 15:26:43
dateupload: 1322832403
tags: greece greekislands kalymnos dodecanese ?????? kalymnosisland ?????????? ???????? ????????????? kalymnosweb wwwkalymnoswebgr kalymnosrealestate
license: 0
latitude: 36.971701
longitude: 26.934957
accuracy: 12
views: 1
interestingness: 75 out of 272

photo: 6441397849 048f362a51 7023
owner: 34003718@N07
title: ????????_kalymnosweb_77
originalsecret: null
originalformat: null
o_height: null
o_width: null
datetaken: 2011-12-02 15:26:19
dateupload: 1322832379
tags: greece greekislands kalymnos dodecanese ?????? kalymnosisland ?????????? ???????? ????????????? kalymnosweb wwwkalymnoswebgr kalymnosrealestate
license: 0
latitude: 36.971701
longitude: 26.934957
accuracy: 12
views: 1
interestingness: 76 out of 272

photo: 6441396567 864ca78769 7158
owner: 34003718@N07
title: ????????_kalymnosweb_76
originalsecret: null
originalformat: null
o_height: null
o_width: null
datetaken: 2011-12-02 15:25:53
dateupload: 1322832353
tags: greece greekislands kalymnos dodecanese ?????? kalymnosisland ?????????? ???????? ????????????? kalymnosweb wwwkalymnoswebgr kalymnosrealestate
license: 0
latitude: 36.971701
longitude: 26.934957
accuracy: 12
views: 1
interestingness: 77 out of 272

photo: 6441395391 c385569e91 7175
owner: 34003718@N07
title: ????????_kalymnosweb_75
originalsecret: null
originalformat: null
o_height: null
o_width: null
datetaken: 2011-12-02 15:25:29
dateupload: 1322832329
tags: greece greekislands kalymnos dodecanese ?????? kalymnosisland ?????????? ???????? ????????????? kalymnosweb wwwkalymnoswebgr kalymnosrealestate
license: 0
latitude: 36.971701
longitude: 26.934957
accuracy: 12
views: 1
interestingness: 78 out of 272

photo: 6441394199 ba9c54846d 7008
owner: 34003718@N07
title: ????????_kalymnosweb_74
originalsecret: null
originalformat: null
o_height: null
o_width: null
datetaken: 2011-12-02 15:25:07
dateupload: 1322832307
tags: greece greekislands kalymnos dodecanese ?????? kalymnosisland ?????????? ???????? ????????????? kalymnosweb wwwkalymnoswebgr kalymnosrealestate
license: 0
latitude: 36.971701
longitude: 26.934957
accuracy: 12
views: 2
interestingness: 79 out of 272

photo: 6441392725 c93f7f816d 7147
owner: 34003718@N07
title: ????????_kalymnosweb_73
originalsecret: null
originalformat: null
o_height: null
o_width: null
datetaken: 2011-12-02 15:24:40
dateupload: 1322832280
tags: greece greekislands kalymnos dodecanese ?????? kalymnosisland ?????????? ???????? ????????????? kalymnosweb wwwkalymnoswebgr kalymnosrealestate
license: 0
latitude: 36.971701
longitude: 26.934957
accuracy: 12
views: 1
interestingness: 80 out of 272

photo: 6441389717 c78e117d6d 7155
owner: 34003718@N07
title: ????????_kalymnosweb_72
originalsecret: null
originalformat: null
o_height: null
o_width: null
datetaken: 2011-12-02 15:23:43
dateupload: 1322832223
tags: greece greekislands kalymnos dodecanese ?????? kalymnosisland ?????????? ???????? ????????????? kalymnosweb wwwkalymnoswebgr kalymnosrealestate
license: 0
latitude: 36.971701
longitude: 26.934957
accuracy: 12
views: 1
interestingness: 81 out of 272

photo: 6441387039 7cb48fca03 7006
owner: 34003718@N07
title: ????????_kalymnosweb_71
originalsecret: null
originalformat: null
o_height: null
o_width: null
datetaken: 2011-12-02 15:22:52
dateupload: 1322832172
tags: greece greekislands kalymnos dodecanese ?????? kalymnosisland ?????????? ???????? ????????????? kalymnosweb wwwkalymnoswebgr kalymnosrealestate
license: 0
latitude: 36.971701
longitude: 26.934957
accuracy: 12
views: 1
interestingness: 82 out of 272

photo: 6441383647 1c89cca152 7151
owner: 34003718@N07
title: ????????_kalymnosweb_70
originalsecret: null
originalformat: null
o_height: null
o_width: null
datetaken: 2011-12-02 15:21:49
dateupload: 1322832109
tags: greece greekislands kalymnos dodecanese ?????? kalymnosisland ?????????? ???????? ????????????? kalymnosweb wwwkalymnoswebgr kalymnosrealestate
license: 0
latitude: 36.971701
longitude: 26.934957
accuracy: 12
views: 1
interestingness: 83 out of 272

photo: 6441381181 fa89ace869 7025
owner: 34003718@N07
title: ????????_kalymnosweb_69
originalsecret: null
originalformat: null
o_height: null
o_width: null
datetaken: 2011-12-02 15:21:05
dateupload: 1322832065
tags: greece greekislands kalymnos dodecanese ?????? kalymnosisland ?????????? ???????? ????????????? kalymnosweb wwwkalymnoswebgr kalymnosrealestate
license: 0
latitude: 36.971701
longitude: 26.934957
accuracy: 12
views: 1
interestingness: 84 out of 272

photo: 6441375597 40afd87ecb 7007
owner: 34003718@N07
title: ????????_kalymnosweb_67
originalsecret: null
originalformat: null
o_height: null
o_width: null
datetaken: 2011-12-02 15:19:22
dateupload: 1322831962
tags: greece greekislands kalymnos dodecanese ?????? kalymnosisland ?????????? ???????? ????????????? kalymnosweb wwwkalymnoswebgr kalymnosrealestate
license: 0
latitude: 36.971701
longitude: 26.934957
accuracy: 12
views: 0
interestingness: 85 out of 272

photo: 6441373105 2f9149ccac 7019
owner: 34003718@N07
title: ????????_kalymnosweb_66
originalsecret: null
originalformat: null
o_height: null
o_width: null
datetaken: 2011-12-02 15:18:36
dateupload: 1322831916
tags: greece greekislands kalymnos dodecanese ?????? kalymnosisland ?????????? ???????? ????????????? kalymnosweb wwwkalymnoswebgr kalymnosrealestate
license: 0
latitude: 36.971701
longitude: 26.934957
accuracy: 12
views: 1
interestingness: 86 out of 272

photo: 6441369525 2383ea55c3 7168
owner: 34003718@N07
title: ????????_kalymnosweb_65
originalsecret: null
originalformat: null
o_height: null
o_width: null
datetaken: 2011-12-02 15:17:30
dateupload: 1322831850
tags: greece greekislands kalymnos dodecanese ?????? kalymnosisland ?????????? ???????? ????????????? kalymnosweb wwwkalymnoswebgr kalymnosrealestate
license: 0
latitude: 36.971701
longitude: 26.934957
accuracy: 12
views: 0
interestingness: 87 out of 272

photo: 6441361773 3e0146256e 7033
owner: 34003718@N07
title: ????????_kalymnosweb_63
originalsecret: null
originalformat: null
o_height: null
o_width: null
datetaken: 2011-12-02 15:15:06
dateupload: 1322831706
tags: greece greekislands kalymnos dodecanese ?????? kalymnosisland ?????????? ???????? ????????????? kalymnosweb wwwkalymnoswebgr kalymnosrealestate
license: 0
latitude: 36.971701
longitude: 26.934957
accuracy: 12
views: 0
interestingness: 88 out of 272

photo: 6441358237 0781d40f7d 7026
owner: 34003718@N07
title: ????????_kalymnosweb_62
originalsecret: null
originalformat: null
o_height: null
o_width: null
datetaken: 2011-12-02 15:14:03
dateupload: 1322831643
tags: greece greekislands kalymnos dodecanese ?????? kalymnosisland ?????????? ???????? ????????????? kalymnosweb wwwkalymnoswebgr kalymnosrealestate
license: 0
latitude: 36.971701
longitude: 26.934957
accuracy: 12
views: 0
interestingness: 89 out of 272

photo: 6441354341 38a40b84f0 7007
owner: 34003718@N07
title: ????????_kalymnosweb_61
originalsecret: null
originalformat: null
o_height: null
o_width: null
datetaken: 2011-12-02 15:12:53
dateupload: 1322831573
tags: greece greekislands kalymnos dodecanese ?????? kalymnosisland ?????????? ???????? ????????????? kalymnosweb wwwkalymnoswebgr kalymnosrealestate
license: 0
latitude: 36.971701
longitude: 26.934957
accuracy: 12
views: 0
interestingness: 90 out of 272

photo: 6441350537 d96aedf05c 7148
owner: 34003718@N07
title: ????????_kalymnosweb_60
originalsecret: null
originalformat: null
o_height: null
o_width: null
datetaken: 2011-12-02 15:11:44
dateupload: 1322831504
tags: greece greekislands kalymnos dodecanese ?????? kalymnosisland ?????????? ???????? ????????????? kalymnosweb wwwkalymnoswebgr kalymnosrealestate
license: 0
latitude: 36.971701
longitude: 26.934957
accuracy: 12
views: 1
interestingness: 91 out of 272

photo: 6441346961 d9a45dd361 7173
owner: 34003718@N07
title: ????????_kalymnosweb_59
originalsecret: null
originalformat: null
o_height: null
o_width: null
datetaken: 2011-12-02 15:10:35
dateupload: 1322831435
tags: greece greekislands kalymnos dodecanese ?????? kalymnosisland ?????????? ???????? ????????????? kalymnosweb wwwkalymnoswebgr kalymnosrealestate
license: 0
latitude: 36.971701
longitude: 26.934957
accuracy: 12
views: 1
interestingness: 92 out of 272

photo: 6441343175 d3556d8eb1 7157
owner: 34003718@N07
title: ????????_kalymnosweb_58
originalsecret: null
originalformat: null
o_height: null
o_width: null
datetaken: 2011-12-02 15:09:25
dateupload: 1322831365
tags: greece greekislands kalymnos dodecanese ?????? kalymnosisland ?????????? ???????? ????????????? kalymnosweb wwwkalymnoswebgr kalymnosrealestate
license: 0
latitude: 36.971701
longitude: 26.934957
accuracy: 12
views: 0
interestingness: 93 out of 272

photo: 6441339715 e8a81d0850 7019
owner: 34003718@N07
title: ????????_kalymnosweb_57
originalsecret: null
originalformat: null
o_height: null
o_width: null
datetaken: 2011-12-02 15:08:23
dateupload: 1322831303
tags: greece greekislands kalymnos dodecanese ?????? kalymnosisland ?????????? ???????? ????????????? kalymnosweb wwwkalymnoswebgr kalymnosrealestate
license: 0
latitude: 36.971701
longitude: 26.934957
accuracy: 12
views: 0
interestingness: 94 out of 272

photo: 6441332391 5a36b2c7a6 7033
owner: 34003718@N07
title: ????????_kalymnosweb_55
originalsecret: null
originalformat: null
o_height: null
o_width: null
datetaken: 2011-12-02 15:06:12
dateupload: 1322831172
tags: greece greekislands kalymnos dodecanese ?????? kalymnosisland ?????????? ???????? ????????????? kalymnosweb wwwkalymnoswebgr kalymnosrealestate
license: 0
latitude: 36.971701
longitude: 26.934957
accuracy: 12
views: 0
interestingness: 95 out of 272

photo: 6441328755 82dbbebc1a 7035
owner: 34003718@N07
title: ????????_kalymnosweb_54
originalsecret: null
originalformat: null
o_height: null
o_width: null
datetaken: 2011-12-02 15:05:07
dateupload: 1322831107
tags: greece greekislands kalymnos dodecanese ?????? kalymnosisland ?????????? ???????? ????????????? kalymnosweb wwwkalymnoswebgr kalymnosrealestate
license: 0
latitude: 36.971701
longitude: 26.934957
accuracy: 12
views: 0
interestingness: 96 out of 272

photo: 6441324479 5832ceefc1 7025
owner: 34003718@N07
title: ????????_kalymnosweb_53
originalsecret: null
originalformat: null
o_height: null
o_width: null
datetaken: 2011-12-02 15:03:55
dateupload: 1322831035
tags: greece greekislands kalymnos dodecanese ?????? kalymnosisland ?????????? ???????? ????????????? kalymnosweb wwwkalymnoswebgr kalymnosrealestate
license: 0
latitude: 36.971701
longitude: 26.934957
accuracy: 12
views: 0
interestingness: 97 out of 272

photo: 6441320701 7c78c75245 7008
owner: 34003718@N07
title: ????????_kalymnosweb_52
originalsecret: null
originalformat: null
o_height: null
o_width: null
datetaken: 2011-12-02 15:02:46
dateupload: 1322830966
tags: greece greekislands kalymnos dodecanese ?????? kalymnosisland ?????????? ???????? ????????????? kalymnosweb wwwkalymnoswebgr kalymnosrealestate
license: 0
latitude: 36.971701
longitude: 26.934957
accuracy: 12
views: 0
interestingness: 98 out of 272

photo: 6441316871 69e2428b61 7147
owner: 34003718@N07
title: ????????_kalymnosweb_51
originalsecret: null
originalformat: null
o_height: null
o_width: null
datetaken: 2011-12-02 15:01:40
dateupload: 1322830900
tags: greece greekislands kalymnos dodecanese ?????? kalymnosisland ?????????? ???????? ????????????? kalymnosweb wwwkalymnoswebgr kalymnosrealestate
license: 0
latitude: 36.971701
longitude: 26.934957
accuracy: 12
views: 0
interestingness: 99 out of 272

photo: 6441313461 4acf02b8c0 7153
owner: 34003718@N07
title: ????????_kalymnosweb_50
originalsecret: null
originalformat: null
o_height: null
o_width: null
datetaken: 2011-12-02 15:00:39
dateupload: 1322830839
tags: greece greekislands kalymnos dodecanese ?????? kalymnosisland ?????????? ???????? ????????????? kalymnosweb wwwkalymnoswebgr kalymnosrealestate
license: 0
latitude: 36.971701
longitude: 26.934957
accuracy: 12
views: 0
interestingness: 100 out of 272

photo: 6441310095 b11c10c726 7174
owner: 34003718@N07
title: ????????_kalymnosweb_49
originalsecret: null
originalformat: null
o_height: null
o_width: null
datetaken: 2011-12-02 14:59:40
dateupload: 1322830780
tags: greece greekislands kalymnos dodecanese ?????? kalymnosisland ?????????? ???????? ????????????? kalymnosweb wwwkalymnoswebgr kalymnosrealestate
license: 0
latitude: 36.971701
longitude: 26.934957
accuracy: 12
views: 0
interestingness: 101 out of 272

photo: 6441306281 c83f18333f 7009
owner: 34003718@N07
title: ????????_kalymnosweb_48
originalsecret: null
originalformat: null
o_height: null
o_width: null
datetaken: 2011-12-02 14:58:33
dateupload: 1322830713
tags: greece greekislands kalymnos dodecanese ?????? kalymnosisland ?????????? ???????? ????????????? kalymnosweb wwwkalymnoswebgr kalymnosrealestate
license: 0
latitude: 36.971701
longitude: 26.934957
accuracy: 12
views: 0
interestingness: 102 out of 272

photo: 6441302249 99333f5580 7031
owner: 34003718@N07
title: ????????_kalymnosweb_47
originalsecret: null
originalformat: null
o_height: null
o_width: null
datetaken: 2011-12-02 14:57:27
dateupload: 1322830647
tags: greece greekislands kalymnos dodecanese ?????? kalymnosisland ?????????? ???????? ????????????? kalymnosweb wwwkalymnoswebgr kalymnosrealestate
license: 0
latitude: 36.971701
longitude: 26.934957
accuracy: 12
views: 0
interestingness: 103 out of 272

photo: 6441298807 4827a8aa6e 7155
owner: 34003718@N07
title: ????????_kalymnosweb_46
originalsecret: null
originalformat: null
o_height: null
o_width: null
datetaken: 2011-12-02 14:56:25
dateupload: 1322830585
tags: greece greekislands kalymnos dodecanese ?????? kalymnosisland ?????????? ???????? ????????????? kalymnosweb wwwkalymnoswebgr kalymnosrealestate
license: 0
latitude: 36.971701
longitude: 26.934957
accuracy: 12
views: 0
interestingness: 104 out of 272

photo: 6441294979 fd9d5d334b 7001
owner: 34003718@N07
title: ????????_kalymnosweb_45
originalsecret: null
originalformat: null
o_height: null
o_width: null
datetaken: 2011-12-02 14:55:18
dateupload: 1322830518
tags: greece greekislands kalymnos dodecanese ?????? kalymnosisland ?????????? ???????? ????????????? kalymnosweb wwwkalymnoswebgr kalymnosrealestate
license: 0
latitude: 36.971701
longitude: 26.934957
accuracy: 12
views: 0
interestingness: 105 out of 272

photo: 6441290707 162770fb72 7020
owner: 34003718@N07
title: ????????_kalymnosweb_44
originalsecret: null
originalformat: null
o_height: null
o_width: null
datetaken: 2011-12-02 14:54:04
dateupload: 1322830444
tags: greece greekislands kalymnos dodecanese ?????? kalymnosisland ?????????? ???????? ????????????? kalymnosweb wwwkalymnoswebgr kalymnosrealestate
license: 0
latitude: 36.971701
longitude: 26.934957
accuracy: 12
views: 0
interestingness: 106 out of 272

photo: 6441286325 2417ca164a 7160
owner: 34003718@N07
title: ????????_kalymnosweb_43
originalsecret: null
originalformat: null
o_height: null
o_width: null
datetaken: 2011-12-02 14:52:54
dateupload: 1322830374
tags: greece greekislands kalymnos dodecanese ?????? kalymnosisland ?????????? ???????? ????????????? kalymnosweb wwwkalymnoswebgr kalymnosrealestate
license: 0
latitude: 36.971701
longitude: 26.934957
accuracy: 12
views: 0
interestingness: 107 out of 272

photo: 6441282629 c6019b52c0 7161
owner: 34003718@N07
title: ????????_kalymnosweb_42
originalsecret: null
originalformat: null
o_height: null
o_width: null
datetaken: 2011-12-02 14:51:49
dateupload: 1322830309
tags: greece greekislands kalymnos dodecanese ?????? kalymnosisland ?????????? ???????? ????????????? kalymnosweb wwwkalymnoswebgr kalymnosrealestate
license: 0
latitude: 36.971701
longitude: 26.934957
accuracy: 12
views: 0
interestingness: 108 out of 272

photo: 6441278747 50f140fb98 7158
owner: 34003718@N07
title: ????????_kalymnosweb_41
originalsecret: null
originalformat: null
o_height: null
o_width: null
datetaken: 2011-12-02 14:50:38
dateupload: 1322830238
tags: greece greekislands kalymnos dodecanese ?????? kalymnosisland ?????????? ???????? ????????????? kalymnosweb wwwkalymnoswebgr kalymnosrealestate
license: 0
latitude: 36.971701
longitude: 26.934957
accuracy: 12
views: 0
interestingness: 109 out of 272

photo: 6441275241 2b7fc1b8a6 7150
owner: 34003718@N07
title: ????????_kalymnosweb_40
originalsecret: null
originalformat: null
o_height: null
o_width: null
datetaken: 2011-12-02 14:49:34
dateupload: 1322830174
tags: greece greekislands kalymnos dodecanese ?????? kalymnosisland ?????????? ???????? ????????????? kalymnosweb wwwkalymnoswebgr kalymnosrealestate
license: 0
latitude: 36.971701
longitude: 26.934957
accuracy: 12
views: 0
interestingness: 110 out of 272

photo: 6441271485 01c3636d29 7034
owner: 34003718@N07
title: ????????_kalymnosweb_39
originalsecret: null
originalformat: null
o_height: null
o_width: null
datetaken: 2011-12-02 14:48:28
dateupload: 1322830108
tags: greece greekislands kalymnos dodecanese ?????? kalymnosisland ?????????? ???????? ????????????? kalymnosweb wwwkalymnoswebgr kalymnosrealestate
license: 0
latitude: 36.971701
longitude: 26.934957
accuracy: 12
views: 0
interestingness: 111 out of 272

photo: 6441267789 d43d7ce407 7147
owner: 34003718@N07
title: ????????_kalymnosweb_38
originalsecret: null
originalformat: null
o_height: null
o_width: null
datetaken: 2011-12-02 14:47:24
dateupload: 1322830044
tags: greece greekislands kalymnos dodecanese ?????? kalymnosisland ?????????? ???????? ????????????? kalymnosweb wwwkalymnoswebgr kalymnosrealestate
license: 0
latitude: 36.971701
longitude: 26.934957
accuracy: 12
views: 0
interestingness: 112 out of 272

photo: 6441264369 c6abaf41ff 7015
owner: 34003718@N07
title: ????????_kalymnosweb_37
originalsecret: null
originalformat: null
o_height: null
o_width: null
datetaken: 2011-12-02 14:46:22
dateupload: 1322829982
tags: greece greekislands kalymnos dodecanese ?????? kalymnosisland ?????????? ???????? ????????????? kalymnosweb wwwkalymnoswebgr kalymnosrealestate
license: 0
latitude: 36.971701
longitude: 26.934957
accuracy: 12
views: 0
interestingness: 113 out of 272

photo: 6441260657 d07b160cb1 7151
owner: 34003718@N07
title: ????????_kalymnosweb_36
originalsecret: null
originalformat: null
o_height: null
o_width: null
datetaken: 2011-12-02 14:45:17
dateupload: 1322829917
tags: greece greekislands kalymnos dodecanese ?????? kalymnosisland ?????????? ???????? ????????????? kalymnosweb wwwkalymnoswebgr kalymnosrealestate
license: 0
latitude: 36.971701
longitude: 26.934957
accuracy: 12
views: 0
interestingness: 114 out of 272

photo: 6441256743 0f9ccffaf6 7158
owner: 34003718@N07
title: ????????_kalymnosweb_35
originalsecret: null
originalformat: null
o_height: null
o_width: null
datetaken: 2011-12-02 14:44:05
dateupload: 1322829845
tags: greece greekislands kalymnos dodecanese ?????? kalymnosisland ?????????? ???????? ????????????? kalymnosweb wwwkalymnoswebgr kalymnosrealestate
license: 0
latitude: 36.971701
longitude: 26.934957
accuracy: 12
views: 1
interestingness: 115 out of 272

photo: 6441253403 dda82ebb1b 7017
owner: 34003718@N07
title: ????????_kalymnosweb_34
originalsecret: null
originalformat: null
o_height: null
o_width: null
datetaken: 2011-12-02 14:43:05
dateupload: 1322829785
tags: greece greekislands kalymnos dodecanese ?????? kalymnosisland ?????????? ???????? ????????????? kalymnosweb wwwkalymnoswebgr kalymnosrealestate
license: 0
latitude: 36.971701
longitude: 26.934957
accuracy: 12
views: 0
interestingness: 116 out of 272

photo: 6441249231 ea811dd4a6 7153
owner: 34003718@N07
title: ????????_kalymnosweb_33
originalsecret: null
originalformat: null
o_height: null
o_width: null
datetaken: 2011-12-02 14:41:49
dateupload: 1322829709
tags: greece greekislands kalymnos dodecanese ?????? kalymnosisland ?????????? ???????? ????????????? kalymnosweb wwwkalymnoswebgr kalymnosrealestate
license: 0
latitude: 36.971701
longitude: 26.934957
accuracy: 12
views: 0
interestingness: 117 out of 272

photo: 6441245897 27105ff9a2 7156
owner: 34003718@N07
title: ????????_kalymnosweb_32
originalsecret: null
originalformat: null
o_height: null
o_width: null
datetaken: 2011-12-02 14:40:45
dateupload: 1322829645
tags: greece greekislands kalymnos dodecanese ?????? kalymnosisland ?????????? ???????? ????????????? kalymnosweb wwwkalymnoswebgr kalymnosrealestate
license: 0
latitude: 36.971701
longitude: 26.934957
accuracy: 12
views: 0
interestingness: 118 out of 272

photo: 6441241547 abda886ac8 7001
owner: 34003718@N07
title: ????????_kalymnosweb_31
originalsecret: null
originalformat: null
o_height: null
o_width: null
datetaken: 2011-12-02 14:39:29
dateupload: 1322829569
tags: greece greekislands kalymnos dodecanese ?????? kalymnosisland ?????????? ???????? ????????????? kalymnosweb wwwkalymnoswebgr kalymnosrealestate
license: 0
latitude: 36.971701
longitude: 26.934957
accuracy: 12
views: 0
interestingness: 119 out of 272

photo: 6441238085 ebc19c0cb9 7175
owner: 34003718@N07
title: ????????_kalymnosweb_30
originalsecret: null
originalformat: null
o_height: null
o_width: null
datetaken: 2011-12-02 14:38:27
dateupload: 1322829507
tags: greece greekislands kalymnos dodecanese ?????? kalymnosisland ?????????? ???????? ????????????? kalymnosweb wwwkalymnoswebgr kalymnosrealestate
license: 0
latitude: 36.971701
longitude: 26.934957
accuracy: 12
views: 0
interestingness: 120 out of 272

photo: 6441235735 c5886c4f13 7026
owner: 34003718@N07
title: ????????_kalymnosweb_29
originalsecret: null
originalformat: null
o_height: null
o_width: null
datetaken: 2011-12-02 14:37:40
dateupload: 1322829460
tags: greece greekislands kalymnos dodecanese ?????? kalymnosisland ?????????? ???????? ????????????? kalymnosweb wwwkalymnoswebgr kalymnosrealestate
license: 0
latitude: 36.971701
longitude: 26.934957
accuracy: 12
views: 0
interestingness: 121 out of 272

photo: 6441232529 a5ce1341a7 7026
owner: 34003718@N07
title: ????????_kalymnosweb_28
originalsecret: null
originalformat: null
o_height: null
o_width: null
datetaken: 2011-12-02 14:36:37
dateupload: 1322829397
tags: greece greekislands kalymnos dodecanese ?????? kalymnosisland ?????????? ???????? ????????????? kalymnosweb wwwkalymnoswebgr kalymnosrealestate
license: 0
latitude: 36.971701
longitude: 26.934957
accuracy: 12
views: 0
interestingness: 122 out of 272

photo: 6441229107 05471d65e8 7002
owner: 34003718@N07
title: ????????_kalymnosweb_27
originalsecret: null
originalformat: null
o_height: null
o_width: null
datetaken: 2011-12-02 14:35:32
dateupload: 1322829332
tags: greece greekislands kalymnos dodecanese ?????? kalymnosisland ?????????? ???????? ????????????? kalymnosweb wwwkalymnoswebgr kalymnosrealestate
license: 0
latitude: 36.971701
longitude: 26.934957
accuracy: 12
views: 0
interestingness: 123 out of 272

photo: 6441225837 6073b73276 7164
owner: 34003718@N07
title: ????????_kalymnosweb_26
originalsecret: null
originalformat: null
o_height: null
o_width: null
datetaken: 2011-12-02 14:34:29
dateupload: 1322829269
tags: greece greekislands kalymnos dodecanese ?????? kalymnosisland ?????????? ???????? ????????????? kalymnosweb wwwkalymnoswebgr kalymnosrealestate
license: 0
latitude: 36.971701
longitude: 26.934957
accuracy: 12
views: 0
interestingness: 124 out of 272

photo: 6441222351 ed0b882869 7032
owner: 34003718@N07
title: ????????_kalymnosweb_25
originalsecret: null
originalformat: null
o_height: null
o_width: null
datetaken: 2011-12-02 14:33:25
dateupload: 1322829205
tags: greece greekislands kalymnos dodecanese ?????? kalymnosisland ?????????? ???????? ????????????? kalymnosweb wwwkalymnoswebgr kalymnosrealestate
license: 0
latitude: 36.971701
longitude: 26.934957
accuracy: 12
views: 0
interestingness: 125 out of 272

photo: 6441218745 6de749b873 7007
owner: 34003718@N07
title: ????????_kalymnosweb_24
originalsecret: null
originalformat: null
o_height: null
o_width: null
datetaken: 2011-12-02 14:32:17
dateupload: 1322829137
tags: greece greekislands kalymnos dodecanese ?????? kalymnosisland ?????????? ???????? ????????????? kalymnosweb wwwkalymnoswebgr kalymnosrealestate
license: 0
latitude: 36.971701
longitude: 26.934957
accuracy: 12
views: 0
interestingness: 126 out of 272

photo: 6441215317 09fa5ee237 7142
owner: 34003718@N07
title: ????????_kalymnosweb_23
originalsecret: null
originalformat: null
o_height: null
o_width: null
datetaken: 2011-12-02 14:31:12
dateupload: 1322829072
tags: greece greekislands kalymnos dodecanese ?????? kalymnosisland ?????????? ???????? ????????????? kalymnosweb wwwkalymnoswebgr kalymnosrealestate
license: 0
latitude: 36.971701
longitude: 26.934957
accuracy: 12
views: 0
interestingness: 127 out of 272

photo: 6441212161 d55dd029f1 7034
owner: 34003718@N07
title: ????????_kalymnosweb_22
originalsecret: null
originalformat: null
o_height: null
o_width: null
datetaken: 2011-12-02 14:30:04
dateupload: 1322829004
tags: greece greekislands kalymnos dodecanese ?????? kalymnosisland ?????????? ???????? ????????????? kalymnosweb wwwkalymnoswebgr kalymnosrealestate
license: 0
latitude: 36.971701
longitude: 26.934957
accuracy: 12
views: 0
interestingness: 128 out of 272

photo: 6441208869 b9976c2b8e 7021
owner: 34003718@N07
title: ????????_kalymnosweb_21
originalsecret: null
originalformat: null
o_height: null
o_width: null
datetaken: 2011-12-02 14:28:58
dateupload: 1322828938
tags: greece greekislands kalymnos dodecanese ?????? kalymnosisland ?????????? ???????? ????????????? kalymnosweb wwwkalymnoswebgr kalymnosrealestate
license: 0
latitude: 36.971701
longitude: 26.934957
accuracy: 12
views: 0
interestingness: 129 out of 272

photo: 6441206161 9514a02fc6 7013
owner: 34003718@N07
title: ????????_kalymnosweb_20
originalsecret: null
originalformat: null
o_height: null
o_width: null
datetaken: 2011-12-02 14:28:02
dateupload: 1322828882
tags: greece greekislands kalymnos dodecanese ?????? kalymnosisland ?????????? ???????? ????????????? kalymnosweb wwwkalymnoswebgr kalymnosrealestate
license: 0
latitude: 36.971701
longitude: 26.934957
accuracy: 12
views: 0
interestingness: 130 out of 272

photo: 6441203121 235ea46d8d 7154
owner: 34003718@N07
title: ????????_kalymnosweb_19
originalsecret: null
originalformat: null
o_height: null
o_width: null
datetaken: 2011-12-02 14:26:58
dateupload: 1322828818
tags: greece greekislands kalymnos dodecanese ?????? kalymnosisland ?????????? ???????? ????????????? kalymnosweb wwwkalymnoswebgr kalymnosrealestate
license: 0
latitude: 36.971701
longitude: 26.934957
accuracy: 12
views: 0
interestingness: 131 out of 272

photo: 6441199741 408973e808 7150
owner: 34003718@N07
title: ????????_kalymnosweb_18
originalsecret: null
originalformat: null
o_height: null
o_width: null
datetaken: 2011-12-02 14:25:53
dateupload: 1322828753
tags: greece greekislands kalymnos dodecanese ?????? kalymnosisland ?????????? ???????? ????????????? kalymnosweb wwwkalymnoswebgr kalymnosrealestate
license: 0
latitude: 36.971701
longitude: 26.934957
accuracy: 12
views: 0
interestingness: 132 out of 272

photo: 6441196041 a9745cc807 7141
owner: 34003718@N07
title: ????????_kalymnosweb_17
originalsecret: null
originalformat: null
o_height: null
o_width: null
datetaken: 2011-12-02 14:24:42
dateupload: 1322828682
tags: greece greekislands kalymnos dodecanese ?????? kalymnosisland ?????????? ???????? ????????????? kalymnosweb wwwkalymnoswebgr kalymnosrealestate
license: 0
latitude: 36.971701
longitude: 26.934957
accuracy: 12
views: 0
interestingness: 133 out of 272

photo: 6441192637 44dd93ac76 7001
owner: 34003718@N07
title: ????????_kalymnosweb_16
originalsecret: null
originalformat: null
o_height: null
o_width: null
datetaken: 2011-12-02 14:23:31
dateupload: 1322828611
tags: greece greekislands kalymnos dodecanese ?????? kalymnosisland ?????????? ???????? ????????????? kalymnosweb wwwkalymnoswebgr kalymnosrealestate
license: 0
latitude: 36.971701
longitude: 26.934957
accuracy: 12
views: 1
interestingness: 134 out of 272

photo: 6441189061 e547d96e73 7006
owner: 34003718@N07
title: ????????_kalymnosweb_15
originalsecret: null
originalformat: null
o_height: null
o_width: null
datetaken: 2011-12-02 14:22:18
dateupload: 1322828538
tags: greece greekislands kalymnos dodecanese ?????? kalymnosisland ?????????? ???????? ????????????? kalymnosweb wwwkalymnoswebgr kalymnosrealestate
license: 0
latitude: 36.971701
longitude: 26.934957
accuracy: 12
views: 0
interestingness: 135 out of 272

photo: 6441188661 6907c83692 7141
owner: 67429865@N06
title: Floating Market
originalsecret: null
originalformat: null
o_height: null
o_width: null
datetaken: 2011-09-06 08:03:06
dateupload: 1322828529
tags: life travel people canon river eos delta vietnam chi ho minh saigon mekong 40d
license: 0
latitude: 10.697466
longitude: 105.169715
accuracy: 12
views: 6
interestingness: 136 out of 272

photo: 6441185029 7f45c7f21d 7150
owner: 34003718@N07
title: ????????_kalymnosweb_14
originalsecret: null
originalformat: null
o_height: null
o_width: null
datetaken: 2011-12-02 14:20:52
dateupload: 1322828452
tags: greece greekislands kalymnos dodecanese ?????? kalymnosisland ?????????? ???????? ????????????? kalymnosweb wwwkalymnoswebgr kalymnosrealestate
license: 0
latitude: 36.971701
longitude: 26.934957
accuracy: 12
views: 0
interestingness: 137 out of 272

photo: 6441181311 e886c777b0 7033
owner: 34003718@N07
title: ????????_kalymnosweb_13
originalsecret: null
originalformat: null
o_height: null
o_width: null
datetaken: 2011-12-02 14:19:37
dateupload: 1322828377
tags: greece greekislands kalymnos dodecanese ?????? kalymnosisland ?????????? ???????? ????????????? kalymnosweb wwwkalymnoswebgr kalymnosrealestate
license: 0
latitude: 36.971701
longitude: 26.934957
accuracy: 12
views: 0
interestingness: 138 out of 272

photo: 6441177241 3d3c9bbcd0 7033
owner: 34003718@N07
title: ????????_kalymnosweb_12
originalsecret: null
originalformat: null
o_height: null
o_width: null
datetaken: 2011-12-02 14:18:18
dateupload: 1322828298
tags: greece greekislands kalymnos dodecanese ?????? kalymnosisland ?????????? ???????? ????????????? kalymnosweb wwwkalymnoswebgr kalymnosrealestate
license: 0
latitude: 36.971701
longitude: 26.934957
accuracy: 12
views: 0
interestingness: 139 out of 272

photo: 6441172747 62e9b5fd2b 7028
owner: 34003718@N07
title: ????????_kalymnosweb_11
originalsecret: null
originalformat: null
o_height: null
o_width: null
datetaken: 2011-12-02 14:16:52
dateupload: 1322828212
tags: greece greekislands kalymnos dodecanese ?????? kalymnosisland ?????????? ???????? ????????????? kalymnosweb wwwkalymnoswebgr kalymnosrealestate
license: 0
latitude: 36.971701
longitude: 26.934957
accuracy: 12
views: 0
interestingness: 140 out of 272

photo: 6441168559 71ec2840a4 7020
owner: 34003718@N07
title: ????????_kalymnosweb_10
originalsecret: null
originalformat: null
o_height: null
o_width: null
datetaken: 2011-12-02 14:15:29
dateupload: 1322828129
tags: greece greekislands kalymnos dodecanese ?????? kalymnosisland ?????????? ???????? ????????????? kalymnosweb wwwkalymnoswebgr kalymnosrealestate
license: 0
latitude: 36.971701
longitude: 26.934957
accuracy: 12
views: 0
interestingness: 141 out of 272

photo: 6441164213 2532814c21 7008
owner: 34003718@N07
title: ????????_kalymnosweb_9
originalsecret: null
originalformat: null
o_height: null
o_width: null
datetaken: 2011-12-02 14:14:01
dateupload: 1322828041
tags: greece greekislands kalymnos dodecanese ?????? kalymnosisland ?????????? ???????? ????????????? kalymnosweb wwwkalymnoswebgr kalymnosrealestate
license: 0
latitude: 36.971701
longitude: 26.934957
accuracy: 12
views: 0
interestingness: 142 out of 272

photo: 6441159819 e17590d984 7007
owner: 34003718@N07
title: ????????_kalymnosweb_8
originalsecret: null
originalformat: null
o_height: null
o_width: null
datetaken: 2011-12-02 14:12:32
dateupload: 1322827952
tags: greece greekislands kalymnos dodecanese ?????? kalymnosisland ?????????? ???????? ????????????? kalymnosweb wwwkalymnoswebgr kalymnosrealestate
license: 0
latitude: 36.971701
longitude: 26.934957
accuracy: 12
views: 0
interestingness: 143 out of 272

photo: 6441156293 d1b7378653 7025
owner: 34003718@N07
title: ????????_kalymnosweb_7
originalsecret: null
originalformat: null
o_height: null
o_width: null
datetaken: 2011-12-02 14:11:17
dateupload: 1322827877
tags: greece greekislands kalymnos dodecanese ?????? kalymnosisland ?????????? ???????? ????????????? kalymnosweb wwwkalymnoswebgr kalymnosrealestate
license: 0
latitude: 36.971701
longitude: 26.934957
accuracy: 12
views: 0
interestingness: 144 out of 272

photo: 6441153087 be075de039 7161
owner: 34003718@N07
title: ????????_kalymnosweb_6
originalsecret: null
originalformat: null
o_height: null
o_width: null
datetaken: 2011-12-02 14:10:12
dateupload: 1322827812
tags: greece greekislands kalymnos dodecanese ?????? kalymnosisland ?????????? ???????? ????????????? kalymnosweb wwwkalymnoswebgr kalymnosrealestate
license: 0
latitude: 36.971701
longitude: 26.934957
accuracy: 12
views: 0
interestingness: 145 out of 272

photo: 6441149973 eef94021c7 7155
owner: 34003718@N07
title: ????????_kalymnosweb_5
originalsecret: null
originalformat: null
o_height: null
o_width: null
datetaken: 2011-12-02 14:09:08
dateupload: 1322827748
tags: greece greekislands kalymnos dodecanese ?????? kalymnosisland ?????????? ???????? ????????????? kalymnosweb wwwkalymnoswebgr kalymnosrealestate
license: 0
latitude: 36.971701
longitude: 26.934957
accuracy: 12
views: 0
interestingness: 146 out of 272

photo: 6441146941 c0be92a911 7032
owner: 34003718@N07
title: ????????_kalymnosweb_4
originalsecret: null
originalformat: null
o_height: null
o_width: null
datetaken: 2011-12-02 14:08:03
dateupload: 1322827683
tags: greece greekislands kalymnos dodecanese ?????? kalymnosisland ?????????? ???????? ????????????? kalymnosweb wwwkalymnoswebgr kalymnosrealestate
license: 0
latitude: 36.971701
longitude: 26.934957
accuracy: 12
views: 0
interestingness: 147 out of 272

photo: 6441144101 f89082018d 7029
owner: 34003718@N07
title: ????????_kalymnosweb_3
originalsecret: null
originalformat: null
o_height: null
o_width: null
datetaken: 2011-12-02 14:06:59
dateupload: 1322827619
tags: greece greekislands kalymnos dodecanese ?????? kalymnosisland ?????????? ???????? ????????????? kalymnosweb wwwkalymnoswebgr kalymnosrealestate
license: 0
latitude: 36.971701
longitude: 26.934957
accuracy: 12
views: 0
interestingness: 148 out of 272

photo: 6441140885 5a29309b0c 7020
owner: 34003718@N07
title: ????????_kalymnosweb_2
originalsecret: null
originalformat: null
o_height: null
o_width: null
datetaken: 2011-12-02 14:05:49
dateupload: 1322827549
tags: greece greekislands kalymnos dodecanese ?????? kalymnosisland ?????????? ???????? ????????????? kalymnosweb wwwkalymnoswebgr kalymnosrealestate
license: 0
latitude: 36.971701
longitude: 26.934957
accuracy: 12
views: 0
interestingness: 149 out of 272

photo: 6441137335 22ec5057ff 7001
owner: 34003718@N07
title: ????????_kalymnosweb_1
originalsecret: null
originalformat: null
o_height: null
o_width: null
datetaken: 2011-12-02 14:04:32
dateupload: 1322827472
tags: greece greekislands kalymnos dodecanese ?????? kalymnosisland ?????????? ???????? ????????????? kalymnosweb wwwkalymnoswebgr kalymnosrealestate
license: 0
latitude: 36.971701
longitude: 26.934957
accuracy: 12
views: 0
interestingness: 150 out of 272

photo: 6438829707 7c57a9b44a 7143
owner: 60850520@N05
title: Xfiles
originalsecret: 91aef27b80
originalformat: jpg
o_height: 400
o_width: 400
datetaken: 2011-12-02 10:43:33
dateupload: 1322783013
tags: above light usa man danger work warning out u2 point fire arthur is yahoo truth flickr do all risk with view time who dr space alien perspective cancer calm hike aliens dent vision galaxy will shuttle conspiracy area mulder there stare laser vehicle b2 government 23 hikers guide tardis bomber relative robinson abduction hazard remain zone stay axiom saucer spacecraft scully hitch upon xfiles dimensions timelord enters 23hq navar yahoo7 zonavar navarzo navarzo2 navarzo3 navarzo4
license: 0
latitude: 37.235
longitude: -115.811111
accuracy: 1
views: 14
interestingness: 151 out of 272

photo: 6437780999 bd2d0958db 7008
owner: 12057104@N05
title: KiliDay1_20110716_BN_018
originalsecret: null
originalformat: null
o_height: null
o_width: null
datetaken: 2011-07-16 08:45:20
dateupload: 1322769123
tags: mountain kilimanjaro tanzania climb hike dayone kili
license: 0
latitude: -3.009555
longitude: 37.102203
accuracy: 10
views: 15
interestingness: 152 out of 272

photo: 6436479721 e1b4024e47 7022
owner: 8981098@N07
title: Dar el-Makhzen
originalsecret: 260611815b
originalformat: jpg
o_height: 1740
o_width: 1305
datetaken: 2011-10-12 09:40:32
dateupload: 1322751402
tags: africa travel architecture canon geotagged morocco fez maroc royalpalace fes peregrin darelmakhzen alma?rib ???????????? lindadevolder placedesalaouites powershotsx30 f?seldjedid f?zeldjedid
license: 0
latitude: 34.039858
longitude: -5.007019
accuracy: 11
views: 25
interestingness: 153 out of 272

photo: 6436455875 1c72aefa04 7012
owner: 8981098@N07
title: Dar el-Makhzen
originalsecret: 266f4e31b9
originalformat: jpg
o_height: 1760
o_width: 1320
datetaken: 2011-10-12 09:39:44
dateupload: 1322751047
tags: africa travel architecture canon geotagged morocco fez maroc royalpalace fes peregrin darelmakhzen alma?rib ???????????? lindadevolder placedesalaouites powershotsx30 f?seldjedid f?zeldjedid
license: 0
latitude: 34.039858
longitude: -5.007019
accuracy: 11
views: 8
interestingness: 154 out of 272

photo: 6436386333 fae0936a7b 7012
owner: 8981098@N07
title: Dar el-Makhzen
originalsecret: a630f16aa4
originalformat: jpg
o_height: 2640
o_width: 1980
datetaken: 2011-10-12 09:39:34
dateupload: 1322750023
tags: africa travel architecture canon geotagged morocco fez maroc royalpalace fes peregrin darelmakhzen alma?rib ???????????? lindadevolder placedesalaouites powershotsx30 f?seldjedid f?zeldjedid
license: 0
latitude: 34.039858
longitude: -5.007019
accuracy: 11
views: 11
interestingness: 155 out of 272

photo: 6442287953 6662a717a4 7025
owner: 33928144@N07
title: Hertfordshire: St Albans: WHITE HART TAP
originalsecret: ce910cd1e2
originalformat: jpg
o_height: 1980
o_width: 2640
datetaken: 2011-11-30 16:43:02
dateupload: 1322845196
tags: camera bar photo pub stalbans publichouse whiteharttap gbg2012
license: 0
latitude: 51.74877
longitude: -0.336295
accuracy: 16
views: 4
interestingness: 156 out of 272

photo: 6439079349 f685225270 7022
owner: 42811327@N02
title: The People of Peru
originalsecret: 83323a4438
originalformat: jpg
o_height: 2283
o_width: 3425
datetaken: 2011-10-06 03:34:25
dateupload: 1322786893
tags: people lake peru amazon jungle guide peruvian sandoval quechua
license: 3
latitude: -12.566292
longitude: -69.325447
accuracy: 10
views: 3
interestingness: 157 out of 272

photo: 6442283977 5f7f0bb265 7013
owner: 33928144@N07
title: Hertfordshire: St Albans: THE GARIBALDI
originalsecret: 812e856ce5
originalformat: jpg
o_height: 2304
o_width: 3072
datetaken: 2011-11-30 16:41:42
dateupload: 1322845140
tags: camera photo pub stalbans publichouse thegaribaldi gbg2012
license: 0
latitude: 51.748554
longitude: -0.337089
accuracy: 16
views: 2
interestingness: 158 out of 272

photo: 6435425381 91a52cd1e0 7025
owner: 55482176@N04
title: Gioved? per i Giovani @ CCC Strozzina
originalsecret: f503734e5f
originalformat: jpg
o_height: 850
o_width: 1280
datetaken: 2011-11-24 22:12:58
dateupload: 1322730963
tags: artecontemporanea palazzostrozzi centrostrozzina cccstrozzina franziskanori decliningdemocracy gioved?giovani
license: 0
latitude: 43.771364
longitude: 11.251711
accuracy: 16
views: 31
interestingness: 159 out of 272

photo: 6439937825 38d592f117 7016
owner: 44124482892@N01
title: Hubby listening to our guide.
originalsecret: 296898f9d7
originalformat: jpg
o_height: 612
o_width: 612
datetaken: 2011-12-02 12:45:37
dateupload: 1322801137
tags: square squareformat rise iphoneography instagramapp uploaded:by=instagram foursquare:venue=4bd877965cf276b0ac539d00
license: 3
latitude: 39.916056
longitude: 116.39079
accuracy: 16
views: 1
interestingness: 160 out of 272

photo: 6435429455 9c0c82786a 7020
owner: 55482176@N04
title: Gioved? per i Giovani @ CCC Strozzina
originalsecret: 8ac8710a80
originalformat: jpg
o_height: 850
o_width: 1280
datetaken: 2011-11-17 15:49:12
dateupload: 1322731059
tags: artecontemporanea palazzostrozzi centrostrozzina cccstrozzina franziskanori decliningdemocracy gioved?giovani
license: 0
latitude: 43.771364
longitude: 11.251711
accuracy: 16
views: 17
interestingness: 161 out of 272

photo: 6435429333 e720740ef8 7175
owner: 55482176@N04
title: Gioved? per i Giovani @ CCC Strozzina
originalsecret: 369bc08db7
originalformat: jpg
o_height: 850
o_width: 1280
datetaken: 2011-11-17 15:49:34
dateupload: 1322731056
tags: artecontemporanea palazzostrozzi centrostrozzina cccstrozzina franziskanori decliningdemocracy gioved?giovani
license: 0
latitude: 43.771364
longitude: 11.251711
accuracy: 16
views: 16
interestingness: 162 out of 272

photo: 6435429199 bbe7a4837e 7031
owner: 55482176@N04
title: Gioved? per i Giovani @ CCC Strozzina
originalsecret: b071206a26
originalformat: jpg
o_height: 850
o_width: 1280
datetaken: 2011-11-17 17:03:46
dateupload: 1322731053
tags: artecontemporanea palazzostrozzi centrostrozzina cccstrozzina franziskanori decliningdemocracy gioved?giovani
license: 0
latitude: 43.771364
longitude: 11.251711
accuracy: 16
views: 16
interestingness: 163 out of 272

photo: 6435429075 c4e4359dbf 7031
owner: 55482176@N04
title: Gioved? per i Giovani @ CCC Strozzina
originalsecret: 2a907c6980
originalformat: jpg
o_height: 850
o_width: 1280
datetaken: 2011-11-17 17:04:31
dateupload: 1322731050
tags: artecontemporanea palazzostrozzi centrostrozzina cccstrozzina franziskanori decliningdemocracy gioved?giovani
license: 0
latitude: 43.771364
longitude: 11.251711
accuracy: 16
views: 10
interestingness: 164 out of 272

photo: 6435428947 4a9a0b081f 7141
owner: 55482176@N04
title: Gioved? per i Giovani @ CCC Strozzina
originalsecret: f5b7be621c
originalformat: jpg
o_height: 850
o_width: 1280
datetaken: 2011-11-17 17:04:38
dateupload: 1322731047
tags: artecontemporanea palazzostrozzi centrostrozzina cccstrozzina franziskanori decliningdemocracy gioved?giovani
license: 0
latitude: 43.771364
longitude: 11.251711
accuracy: 16
views: 11
interestingness: 165 out of 272

photo: 6435428819 de2a5dcd0a 7027
owner: 55482176@N04
title: Gioved? per i Giovani @ CCC Strozzina
originalsecret: c137fabc52
originalformat: jpg
o_height: 850
o_width: 1280
datetaken: 2011-11-17 17:05:20
dateupload: 1322731045
tags: artecontemporanea palazzostrozzi centrostrozzina cccstrozzina franziskanori decliningdemocracy gioved?giovani
license: 0
latitude: 43.771364
longitude: 11.251711
accuracy: 16
views: 10
interestingness: 166 out of 272

photo: 6435428697 21e8c39690 7035
owner: 55482176@N04
title: Gioved? per i Giovani @ CCC Strozzina
originalsecret: a2175754a2
originalformat: jpg
o_height: 850
o_width: 1280
datetaken: 2011-11-17 17:05:58
dateupload: 1322731042
tags: artecontemporanea palazzostrozzi centrostrozzina cccstrozzina franziskanori decliningdemocracy gioved?giovani
license: 0
latitude: 43.771364
longitude: 11.251711
accuracy: 16
views: 10
interestingness: 167 out of 272

photo: 6435428561 4816bc913c 7163
owner: 55482176@N04
title: Gioved? per i Giovani @ CCC Strozzina
originalsecret: 8870755b34
originalformat: jpg
o_height: 850
o_width: 1280
datetaken: 2011-11-17 17:39:11
dateupload: 1322731039
tags: artecontemporanea palazzostrozzi centrostrozzina cccstrozzina franziskanori decliningdemocracy gioved?giovani
license: 0
latitude: 43.771364
longitude: 11.251711
accuracy: 16
views: 13
interestingness: 168 out of 272

photo: 6435428433 8b9e88f83a 7147
owner: 55482176@N04
title: Gioved? per i Giovani @ CCC Strozzina
originalsecret: 9099e5d489
originalformat: jpg
o_height: 850
o_width: 1280
datetaken: 2011-11-17 17:39:44
dateupload: 1322731036
tags: artecontemporanea palazzostrozzi centrostrozzina cccstrozzina franziskanori decliningdemocracy gioved?giovani
license: 0
latitude: 43.771364
longitude: 11.251711
accuracy: 16
views: 12
interestingness: 169 out of 272

photo: 6435428317 a80f6bb41c 7143
owner: 55482176@N04
title: Gioved? per i Giovani @ CCC Strozzina
originalsecret: 092336e2dd
originalformat: jpg
o_height: 850
o_width: 1280
datetaken: 2011-11-17 17:39:46
dateupload: 1322731033
tags: artecontemporanea palazzostrozzi centrostrozzina cccstrozzina franziskanori decliningdemocracy gioved?giovani
license: 0
latitude: 43.771364
longitude: 11.251711
accuracy: 16
views: 13
interestingness: 170 out of 272

photo: 6435428207 ef0e77689b 7145
owner: 55482176@N04
title: Gioved? per i Giovani @ CCC Strozzina
originalsecret: 5a8c7cd6df
originalformat: jpg
o_height: 850
o_width: 1280
datetaken: 2011-11-17 17:41:10
dateupload: 1322731030
tags: artecontemporanea palazzostrozzi centrostrozzina cccstrozzina franziskanori decliningdemocracy gioved?giovani
license: 0
latitude: 43.771364
longitude: 11.251711
accuracy: 16
views: 14
interestingness: 171 out of 272

photo: 6435427919 49c00a31a6 7021
owner: 55482176@N04
title: Gioved? per i Giovani @ CCC Strozzina
originalsecret: e5124a81ee
originalformat: jpg
o_height: 850
o_width: 1280
datetaken: 2011-11-24 20:17:16
dateupload: 1322731024
tags: artecontemporanea palazzostrozzi centrostrozzina cccstrozzina franziskanori decliningdemocracy gioved?giovani
license: 0
latitude: 43.771364
longitude: 11.251711
accuracy: 16
views: 11
interestingness: 172 out of 272

photo: 6435427789 10558f3902 7143
owner: 55482176@N04
title: Gioved? per i Giovani @ CCC Strozzina
originalsecret: ba9ab7d0dd
originalformat: jpg
o_height: 850
o_width: 1280
datetaken: 2011-11-24 20:23:29
dateupload: 1322731021
tags: artecontemporanea palazzostrozzi centrostrozzina cccstrozzina franziskanori decliningdemocracy gioved?giovani
license: 0
latitude: 43.771364
longitude: 11.251711
accuracy: 16
views: 10
interestingness: 173 out of 272

photo: 6435427659 68e33c24e9 7168
owner: 55482176@N04
title: Gioved? per i Giovani @ CCC Strozzina
originalsecret: d1870ebf9c
originalformat: jpg
o_height: 850
o_width: 1280
datetaken: 2011-11-24 22:15:21
dateupload: 1322731018
tags: artecontemporanea palazzostrozzi centrostrozzina cccstrozzina franziskanori decliningdemocracy gioved?giovani
license: 0
latitude: 43.771364
longitude: 11.251711
accuracy: 16
views: 11
interestingness: 174 out of 272

photo: 6435427547 a5c3362561 7005
owner: 55482176@N04
title: Gioved? per i Giovani @ CCC Strozzina
originalsecret: 520d94c1b5
originalformat: jpg
o_height: 850
o_width: 1280
datetaken: 2011-11-24 20:24:47
dateupload: 1322731015
tags: artecontemporanea palazzostrozzi centrostrozzina cccstrozzina franziskanori decliningdemocracy gioved?giovani
license: 0
latitude: 43.771364
longitude: 11.251711
accuracy: 16
views: 11
interestingness: 175 out of 272

photo: 6435427425 4f804eeffe 7150
owner: 55482176@N04
title: Gioved? per i Giovani @ CCC Strozzina
originalsecret: 185009b31f
originalformat: jpg
o_height: 850
o_width: 1280
datetaken: 2011-11-24 22:00:54
dateupload: 1322731012
tags: artecontemporanea palazzostrozzi centrostrozzina cccstrozzina franziskanori decliningdemocracy gioved?giovani
license: 0
latitude: 43.771364
longitude: 11.251711
accuracy: 16
views: 12
interestingness: 176 out of 272

photo: 6435427323 1296effc28 7022
owner: 55482176@N04
title: Gioved? per i Giovani @ CCC Strozzina
originalsecret: 53de3cd82b
originalformat: jpg
o_height: 850
o_width: 1280
datetaken: 2011-11-24 22:00:03
dateupload: 1322731009
tags: artecontemporanea palazzostrozzi centrostrozzina cccstrozzina franziskanori decliningdemocracy gioved?giovani
license: 0
latitude: 43.771364
longitude: 11.251711
accuracy: 16
views: 13
interestingness: 177 out of 272

photo: 6435427171 bc9b8465e5 7141
owner: 55482176@N04
title: Gioved? per i Giovani @ CCC Strozzina
originalsecret: 398d7f5d1b
originalformat: jpg
o_height: 850
o_width: 1280
datetaken: 2011-11-24 20:27:40
dateupload: 1322731006
tags: artecontemporanea palazzostrozzi centrostrozzina cccstrozzina franziskanori decliningdemocracy gioved?giovani
license: 0
latitude: 43.771364
longitude: 11.251711
accuracy: 16
views: 14
interestingness: 178 out of 272

photo: 6435427051 6a635521b5 7026
owner: 55482176@N04
title: Gioved? per i Giovani @ CCC Strozzina
originalsecret: b8895c0598
originalformat: jpg
o_height: 850
o_width: 1280
datetaken: 2011-11-24 21:52:46
dateupload: 1322731004
tags: artecontemporanea palazzostrozzi centrostrozzina cccstrozzina franziskanori decliningdemocracy gioved?giovani
license: 0
latitude: 43.771364
longitude: 11.251711
accuracy: 16
views: 14
interestingness: 179 out of 272

photo: 6435426935 20bcb233ae 7025
owner: 55482176@N04
title: Gioved? per i Giovani @ CCC Strozzina
originalsecret: 4d64fe047c
originalformat: jpg
o_height: 850
o_width: 1280
datetaken: 2011-11-24 21:52:01
dateupload: 1322731001
tags: artecontemporanea palazzostrozzi centrostrozzina cccstrozzina franziskanori decliningdemocracy gioved?giovani
license: 0
latitude: 43.771364
longitude: 11.251711
accuracy: 16
views: 15
interestingness: 180 out of 272

photo: 6435426821 5dabef1bd6 7157
owner: 55482176@N04
title: Gioved? per i Giovani @ CCC Strozzina
originalsecret: 4ed1571b78
originalformat: jpg
o_height: 850
o_width: 1280
datetaken: 2011-11-24 21:50:22
dateupload: 1322730998
tags: artecontemporanea palazzostrozzi centrostrozzina cccstrozzina franziskanori decliningdemocracy gioved?giovani
license: 0
latitude: 43.771364
longitude: 11.251711
accuracy: 16
views: 21
interestingness: 181 out of 272

photo: 6435426709 85ac96c343 7005
owner: 55482176@N04
title: Gioved? per i Giovani @ CCC Strozzina
originalsecret: b5d631b78f
originalformat: jpg
o_height: 850
o_width: 1280
datetaken: 2011-11-24 21:33:28
dateupload: 1322730995
tags: artecontemporanea palazzostrozzi centrostrozzina cccstrozzina franziskanori decliningdemocracy gioved?giovani
license: 0
latitude: 43.771364
longitude: 11.251711
accuracy: 16
views: 19
interestingness: 182 out of 272

photo: 6435426591 21b853a334 7025
owner: 55482176@N04
title: Gioved? per i Giovani @ CCC Strozzina
originalsecret: 961131a649
originalformat: jpg
o_height: 850
o_width: 1280
datetaken: 2011-11-24 21:16:26
dateupload: 1322730992
tags: artecontemporanea palazzostrozzi centrostrozzina cccstrozzina franziskanori decliningdemocracy gioved?giovani
license: 0
latitude: 43.771364
longitude: 11.251711
accuracy: 16
views: 15
interestingness: 183 out of 272

photo: 6435426485 bf221dfafb 7029
owner: 55482176@N04
title: Gioved? per i Giovani @ CCC Strozzina
originalsecret: 5383d26100
originalformat: jpg
o_height: 850
o_width: 1280
datetaken: 2011-11-24 21:10:01
dateupload: 1322730989
tags: artecontemporanea palazzostrozzi centrostrozzina cccstrozzina franziskanori decliningdemocracy gioved?giovani
license: 0
latitude: 43.771364
longitude: 11.251711
accuracy: 16
views: 16
interestingness: 184 out of 272

photo: 6435426347 c2bf287e29 7144
owner: 55482176@N04
title: Gioved? per i Giovani @ CCC Strozzina
originalsecret: ebf31acb33
originalformat: jpg
o_height: 850
o_width: 1280
datetaken: 2011-11-24 21:07:12
dateupload: 1322730986
tags: artecontemporanea palazzostrozzi centrostrozzina cccstrozzina franziskanori decliningdemocracy gioved?giovani
license: 0
latitude: 43.771364
longitude: 11.251711
accuracy: 16
views: 15
interestingness: 185 out of 272

photo: 6435426231 d6ff694946 7157
owner: 55482176@N04
title: Gioved? per i Giovani @ CCC Strozzina
originalsecret: 207624a6b7
originalformat: jpg
o_height: 850
o_width: 1280
datetaken: 2011-11-24 21:06:15
dateupload: 1322730983
tags: artecontemporanea palazzostrozzi centrostrozzina cccstrozzina franziskanori decliningdemocracy gioved?giovani
license: 0
latitude: 43.771364
longitude: 11.251711
accuracy: 16
views: 14
interestingness: 186 out of 272

photo: 6435426107 1806574f1f 7018
owner: 55482176@N04
title: Gioved? per i Giovani @ CCC Strozzina
originalsecret: 8bf6229b18
originalformat: jpg
o_height: 850
o_width: 1280
datetaken: 2011-11-24 21:03:38
dateupload: 1322730980
tags: artecontemporanea palazzostrozzi centrostrozzina cccstrozzina franziskanori decliningdemocracy gioved?giovani
license: 0
latitude: 43.771364
longitude: 11.251711
accuracy: 16
views: 15
interestingness: 187 out of 272

photo: 6435425999 950a01a714 7163
owner: 55482176@N04
title: Gioved? per i Giovani @ CCC Strozzina
originalsecret: 41aa463a19
originalformat: jpg
o_height: 850
o_width: 1280
datetaken: 2011-11-24 21:00:06
dateupload: 1322730977
tags: artecontemporanea palazzostrozzi centrostrozzina cccstrozzina franziskanori decliningdemocracy gioved?giovani
license: 0
latitude: 43.771364
longitude: 11.251711
accuracy: 16
views: 13
interestingness: 188 out of 272

photo: 6435425877 486e19a001 7002
owner: 55482176@N04
title: Gioved? per i Giovani @ CCC Strozzina
originalsecret: 6b0b6bf91f
originalformat: jpg
o_height: 850
o_width: 1280
datetaken: 2011-11-24 20:56:24
dateupload: 1322730974
tags: artecontemporanea palazzostrozzi centrostrozzina cccstrozzina franziskanori decliningdemocracy gioved?giovani
license: 0
latitude: 43.771364
longitude: 11.251711
accuracy: 16
views: 12
interestingness: 189 out of 272

photo: 6435425763 35c84fe529 7024
owner: 55482176@N04
title: Gioved? per i Giovani @ CCC Strozzina
originalsecret: a9a6340c85
originalformat: jpg
o_height: 850
o_width: 1280
datetaken: 2011-11-24 20:50:04
dateupload: 1322730971
tags: artecontemporanea palazzostrozzi centrostrozzina cccstrozzina franziskanori decliningdemocracy gioved?giovani
license: 0
latitude: 43.771364
longitude: 11.251711
accuracy: 16
views: 14
interestingness: 190 out of 272

photo: 6435425639 5e697a07ec 7153
owner: 55482176@N04
title: Gioved? per i Giovani @ CCC Strozzina
originalsecret: 273af5181a
originalformat: jpg
o_height: 850
o_width: 1280
datetaken: 2011-11-24 20:40:51
dateupload: 1322730969
tags: artecontemporanea palazzostrozzi centrostrozzina cccstrozzina franziskanori decliningdemocracy gioved?giovani
license: 0
latitude: 43.771364
longitude: 11.251711
accuracy: 16
views: 16
interestingness: 191 out of 272

photo: 6435425517 146524aace 7162
owner: 55482176@N04
title: Gioved? per i Giovani @ CCC Strozzina
originalsecret: 63f8347761
originalformat: jpg
o_height: 850
o_width: 1280
datetaken: 2011-11-24 20:29:31
dateupload: 1322730966
tags: artecontemporanea palazzostrozzi centrostrozzina cccstrozzina franziskanori decliningdemocracy gioved?giovani
license: 0
latitude: 43.771364
longitude: 11.251711
accuracy: 16
views: 16
interestingness: 192 out of 272

photo: 6436223225 44c9677f42 7142
owner: 71081220@N04
title: Tax Accountant
originalsecret: null
originalformat: null
o_height: null
o_width: null
datetaken: 2011-12-01 07:52:06
dateupload: 1322747526
tags: texas tx taxaccountant smallbusinessaccountant fortworthcpa accountantingfirm
license: 0
latitude: 32.68518
longitude: -97.392463
accuracy: 16
views: 0
interestingness: 193 out of 272

photo: 6434190045 c68103b29e 7161
owner: 11348240@N00
title: Guide Dogs
originalsecret: null
originalformat: null
o_height: null
o_width: null
datetaken: 2011-12-01 13:48:36
dateupload: 1322707764
tags: 
license: 0
latitude: -37.789471
longitude: 145.028715
accuracy: 13
views: 97
interestingness: 194 out of 272

photo: 6435475033 ca0f459888 7021
owner: 18353215@N00
title: Sandhill Cranes landing
originalsecret: 7a1df98ba7
originalformat: jpg
o_height: 399
o_width: 600
datetaken: 2011-12-01 02:35:56
dateupload: 1322732156
tags: cranes sandhill
license: 0
latitude: 32.07267
longitude: -109.881965
accuracy: 16
views: 5
interestingness: 195 out of 272

photo: 6435056283 c32b82fa50 7002
owner: 68761759@N05
title: Oligotoma nigra (Black Webspinner)
originalsecret: null
originalformat: null
o_height: null
o_width: null
datetaken: 2000-01-21 04:23:16
dateupload: 1322722367
tags: taxonomy:binomial=oligotomanigra hightechhighinsectsofsandiegofieldguide geo:lat=329383203 geo:lon=117120315
license: 2
latitude: 32.715679
longitude: -117.16172
accuracy: 11
views: 2
interestingness: 196 out of 272

photo: 6434921779 6ab48905c6 7006
owner: 66736112@N02
title: Bret - Green Guides Cycling cover
originalsecret: null
originalformat: null
o_height: null
o_width: null
datetaken: 2011-11-30 10:15:13
dateupload: 1322719538
tags: bret goatees bsnyc bikesnobnyc thetimetravelingtshirtwearingretrofredfromtheplanettridork
license: 0
latitude: -37.7718
longitude: 144.960694
accuracy: 13
views: 2
interestingness: 197 out of 272

photo: 6433731209 7b6933dc3e 7156
owner: 61084879@N04
title: Lights will guide you home...
originalsecret: null
originalformat: null
o_height: null
o_width: null
datetaken: 2011-11-30 15:51:24
dateupload: 1322701061
tags: 
license: 0
latitude: 53.47739
longitude: -2.247905
accuracy: 15
views: 3
interestingness: 198 out of 272

photo: 6440759279 5f44e5f131 7002
owner: 32140916@N02
title: Council Chamber, Frizington
originalsecret: 1b06320bcc
originalformat: jpg
o_height: 480
o_width: 640
datetaken: 2011-10-27 00:00:00
dateupload: 1322818953
tags: cumbria townhall councilchamber frizington
license: 0
latitude: 54.548297
longitude: -3.486914
accuracy: 14
views: 5
interestingness: 199 out of 272

photo: 6437314551 674cdba34e 7160
owner: 85155079@N00
title: Nous avec notre guide
originalsecret: null
originalformat: null
o_height: null
o_width: null
datetaken: 2011-10-27 11:47:48
dateupload: 1322762659
tags: travel bolivia bolivie 2011
license: 0
latitude: -17.549978
longitude: -63.867189
accuracy: 16
views: 0
interestingness: 200 out of 272

photo: 6435056709 ef812f0b90 7002
owner: 68761759@N05
title: Oligotoma nigra (Black Webspinner)
originalsecret: null
originalformat: null
o_height: null
o_width: null
datetaken: 2000-01-21 04:28:34
dateupload: 1322722376
tags: taxonomy:binomial=oligotomanigra hightechhighinsectsofsandiegofieldguide geo:lat=329383203 geo:lon=117120315
license: 2
latitude: 32.715679
longitude: -117.16172
accuracy: 11
views: 3
interestingness: 201 out of 272

photo: 6435055389 31b9d620dc 7010
owner: 68761759@N05
title: Nomophila nearctica (Lucerne Moth)
originalsecret: null
originalformat: null
o_height: null
o_width: null
datetaken: 2011-11-29 14:33:20
dateupload: 1322722347
tags: taxonomy:binomial=nomophilanearctica hightechhighinsectsofsandiegofieldguide geo:lat=329383203 geo:lon=117120315
license: 2
latitude: 32.715679
longitude: -117.16172
accuracy: 11
views: 2
interestingness: 202 out of 272

photo: 6435054511 863fb317f6 7172
owner: 68761759@N05
title: Nomophila nearctica (Lucerne Moth)
originalsecret: null
originalformat: null
o_height: null
o_width: null
datetaken: 2011-11-29 14:36:01
dateupload: 1322722328
tags: taxonomy:binomial=nomophilanearctica hightechhighinsectsofsandiegofieldguide geo:lat=329383203 geo:lon=117120315
license: 2
latitude: 32.715679
longitude: -117.16172
accuracy: 11
views: 2
interestingness: 203 out of 272

photo: 6435053513 0dbe143040 7170
owner: 68761759@N05
title: Forficula auricularia (European Earwig)
originalsecret: null
originalformat: null
o_height: null
o_width: null
datetaken: 2011-11-30 22:50:31
dateupload: 1322722307
tags: taxonomy:binomial=forficulaauricularia hightechhighinsectsofsandiegofieldguide geo:lat=329383203 geo:lon=117120315
license: 2
latitude: 32.715679
longitude: -117.16172
accuracy: 11
views: 1
interestingness: 204 out of 272

photo: 6442751845 51d6a7edef 7155
owner: 37884983@N07
title: Looking down the Valley from the Sentinel Dome, with the Half Dome in the right hand guide the valley
originalsecret: 590aafe057
originalformat: jpg
o_height: 667
o_width: 1000
datetaken: 2011-10-23 13:25:23
dateupload: 1322851512
tags: california unitedstates curryvillage
license: 0
latitude: 37.727283
longitude: -119.575112
accuracy: 16
views: 5
interestingness: 205 out of 272

photo: 6434632437 17f5c2e786 7154
owner: 95071949@N00
title: Juve
originalsecret: a96bb2bba7
originalformat: jpg
o_height: 600
o_width: 800
datetaken: 2011-11-25 21:10:57
dateupload: 1322714322
tags: peru cusco incatrekkers
license: 1
latitude: -13.517754
longitude: -71.990318
accuracy: 12
views: 1
interestingness: 206 out of 272

photo: 6442393557 ee974be03e 7168
owner: 45349229@N00
title: Lets Rest !
originalsecret: null
originalformat: null
o_height: null
o_width: null
datetaken: 2011-10-28 13:12:47
dateupload: 1322846596
tags: badami jyoti
license: 0
latitude: 15.918898
longitude: 75.684857
accuracy: 15
views: 2
interestingness: 207 out of 272

photo: 6442436387 ab7324f994 7143
owner: 24329363@N00
title: Our guide around the college.
originalsecret: 737cc83755
originalformat: jpg
o_height: 2112
o_width: 2816
datetaken: 2011-11-11 15:14:09
dateupload: 1322847149
tags: oxford
license: 0
latitude: 51.753797
longitude: -1.255704
accuracy: 16
views: 4
interestingness: 208 out of 272

photo: 6442251019 1457ecfef0 7015
owner: 41901814@N07
title: Hipstamatic Lens Guide
originalsecret: aa1592e81f
originalformat: jpg
o_height: 6088
o_width: 3304
datetaken: 2011-12-02 19:51:31
dateupload: 1322844691
tags: hipstamatic
license: 0
latitude: 46.336735
longitude: 48.032569
accuracy: 12
views: 86
interestingness: 209 out of 272

photo: 6438473043 8f21464380 7141
owner: 93699150@N00
title: survival guide
originalsecret: null
originalformat: null
o_height: null
o_width: null
datetaken: 2011-12-01 21:49:47
dateupload: 1322778011
tags: flickrandroidapp:filter=none
license: 0
latitude: 51.428108
longitude: 5.461997
accuracy: 16
views: 21
interestingness: 210 out of 272

photo: 6442440461 8d7320ac4b 7165
owner: 62424671@N03
title: Burgh Castle, Norfolk
originalsecret: af5dc71040
originalformat: jpg
o_height: 1488
o_width: 2240
datetaken: 2010-05-15 10:00:53
dateupload: 1322847202
tags: 
license: 0
latitude: 52.57661
longitude: 1.650781
accuracy: 16
views: 1
interestingness: 211 out of 272

photo: 6442439067 bc58ebf207 7032
owner: 62424671@N03
title: Burgh Castle, Norfolk
originalsecret: fc9b324ba1
originalformat: jpg
o_height: 1488
o_width: 2240
datetaken: 2010-05-15 09:59:56
dateupload: 1322847184
tags: 
license: 0
latitude: 52.586884
longitude: 1.651532
accuracy: 14
views: 1
interestingness: 212 out of 272

photo: 6439476953 6eb149fb83 7004
owner: 67924173@N04
title: Winery tour guide
originalsecret: null
originalformat: null
o_height: null
o_width: null
datetaken: 2010-11-17 12:20:17
dateupload: 1322793691
tags: 
license: 0
latitude: -39.669399
longitude: 176.879516
accuracy: 11
views: 0
interestingness: 213 out of 272

photo: 6438985487 a0a76ef7b4 7170
owner: 66335386@N02
title: 2008-07-15 Glen Canyon Dam
originalsecret: 9b07f9ccdf
originalformat: jpg
o_height: 1151
o_width: 1730
datetaken: 2008-07-15 14:17:43
dateupload: 1322785400
tags: 
license: 0
latitude: 36.935623
longitude: -111.483421
accuracy: 11
views: 6
interestingness: 214 out of 272

photo: 6438984883 d89c891823 7145
owner: 66335386@N02
title: 2008-07-14 Monument Valley
originalsecret: 7d49f5ee1f
originalformat: jpg
o_height: 2592
o_width: 1728
datetaken: 2008-07-14 17:31:07
dateupload: 1322785391
tags: 
license: 0
latitude: 36.985045
longitude: -110.107812
accuracy: 15
views: 0
interestingness: 215 out of 272

photo: 6438971653 a42a784c17 7003
owner: 66335386@N02
title: 2008-07-14 West Mitten
originalsecret: a6e8ab69c3
originalformat: jpg
o_height: 1728
o_width: 2592
datetaken: 2008-07-14 16:32:09
dateupload: 1322785187
tags: 
license: 0
latitude: 36.980126
longitude: -110.10174
accuracy: 15
views: 0
interestingness: 216 out of 272

photo: 6438736119 277b4b367c 7159
owner: 62817311@N03
title: Holiday Salon at Wrap Up Holiday Press Event
originalsecret: 0bf864d7f5
originalformat: jpg
o_height: 3240
o_width: 4320
datetaken: 2011-11-11 20:10:10
dateupload: 1322781595
tags: 
license: 1
latitude: 34.065067
longitude: -118.374681
accuracy: 13
views: 2
interestingness: 217 out of 272

photo: 6438734733 7d6c778dc4 7174
owner: 62817311@N03
title: VIP Lounge at Beverly Hills Porsche
originalsecret: 4c4e1e1be9
originalformat: jpg
o_height: 3240
o_width: 4320
datetaken: 2011-11-11 20:10:03
dateupload: 1322781572
tags: 
license: 1
latitude: 34.065067
longitude: -118.374681
accuracy: 13
views: 2
interestingness: 218 out of 272

photo: 6438733815 fc20a547fe 7011
owner: 62817311@N03
title: 2011 Wrap Up Holiday Press Event
originalsecret: 4c62fbe6c4
originalformat: jpg
o_height: 3240
o_width: 4320
datetaken: 2011-11-11 20:09:48
dateupload: 1322781558
tags: 
license: 1
latitude: 34.065067
longitude: -118.374681
accuracy: 13
views: 2
interestingness: 219 out of 272

photo: 6438732717 03f74bf01f 7015
owner: 62817311@N03
title: Wrap Up Holiday Press Event 2011 at Beverly Hills Porsche
originalsecret: 08892a806d
originalformat: jpg
o_height: 3240
o_width: 4320
