
mintime: 1322697600 maxtime: 1324512427.5
numimgs: 60
total pages: 1
visiting only 1 pages ( up to 250 images)
photo: 6455339859 7633c0c6ea 7026
owner: 11067781@N04
title: A very Lego Potter Christmas
originalsecret: null
originalformat: null
o_height: null
o_width: null
datetaken: 2011-12-04 17:58:43
dateupload: 1323130620
tags: harrypotter harry potter draco malfoy lego maerry happy christmas xmas canon chlie t2i 50mm f18 550d ii bokeh ?? boke desenfoque macro zoom tele teleobjetivo bokhe dof depth field profundidad campo baja shallow santiago chile pablo poulain pablopoulain portraits retratos 169 joven men photograph telelens lens vintage tres tercios proporci?n aurea ley dorada camara photography homo telezoom homosexual depthoffield reflex iso dark canonef50mmf18ii quidditch hogwarts mery xmass hermione ron navidad pascua arbol tree decoraci?n
license: 0
latitude: -33.443796
longitude: -70.6502
accuracy: 14
views: 210
interestingness: 1 out of 60

photo: 6481380003 0bac11d60c 7173
owner: 54880604@N06
title: Triptychs of Strangers #28: The Century Egg loving Girl from Hong Kong
originalsecret: null
originalformat: null
o_height: null
o_width: null
datetaken: 2011-11-19 14:28:35
dateupload: 1323431678
tags: 
license: 0
latitude: 22.281339
longitude: 114.152679
accuracy: 13
views: 101
interestingness: 2 out of 60

photo: 6441380099 66cb24e3a2 7004
owner: 28619091@N07
title: The Street - Edinburgh (Timothy Spall and his wife)
originalsecret: null
originalformat: null
o_height: null
o_width: null
datetaken: 2011-10-20 13:35:57
dateupload: 1322832044
tags: portrait blackandwhite edinburgh candid streetphotography candidportrait streetphotographyedinburgh
license: 0
latitude: 55.949776
longitude: -3.19067
accuracy: 14
views: 70
interestingness: 3 out of 60

photo: 6476516063 f74ba20b31 7156
owner: 47381484@N00
title: Hedwige ?
originalsecret: null
originalformat: null
o_height: null
o_width: null
datetaken: 2011-12-03 13:00:43
dateupload: 1323347895
tags: blackandwhite canada nature canon zoo montr?al noiretblanc quebec 85mm cage animaux oiseau plumes madameb harfangdesneiges sainteannedebellevue 60d canon60d zooecomuseum
license: 0
latitude: 45.424359
longitude: -73.93507
accuracy: 13
views: 55
interestingness: 4 out of 60

photo: 6444115031 b9d114f152 7168
owner: 26075022@N04
title: The Old Timer
originalsecret: 9c95205770
originalformat: jpg
o_height: 635
o_width: 816
datetaken: 2011-12-02 19:12:11
dateupload: 1322871532
tags: 
license: 0
latitude: 41.375407
longitude: -73.788814
accuracy: 15
views: 98
interestingness: 5 out of 60

photo: 6329787869 4c7bd14e20 6049
owner: 52364684@N03
title: Sunlight in the Forest
originalsecret: 9759c3e57e
originalformat: jpg
o_height: 2040
o_width: 2700
datetaken: 2011-11-09 16:08:31
dateupload: 1322719201
tags: autumn trees light sunset sunlight color tree fall nature leaves yellow forest amber leaf twilight woods colorful branch shadows dusk branches sunrays magicallight leafchange panasonicgf1 harrylipson
license: 0
latitude: 42.462708
longitude: -71.368725
accuracy: 15
views: 493
interestingness: 6 out of 60

photo: 6452636955 69ca177251 7002
owner: 27542337@N07
title: Harry
originalsecret: null
originalformat: null
o_height: null
o_width: null
datetaken: 2011-10-27 12:23:19
dateupload: 1323007385
tags: monkey harry orangutan harrie aap rhenen ouwehandsdierenpark 2011 orangoetan harige
license: 0
latitude: 51.956855
longitude: 5.602941
accuracy: 16
views: 113
interestingness: 7 out of 60

photo: 6470760947 5e0f50f2a7 7159
owner: 76348233@N00
title: Old Harry
originalsecret: null
originalformat: null
o_height: null
o_width: null
datetaken: 2011-12-04 16:18:52
dateupload: 1323251609
tags: blue sea england white holiday bird english heritage tourism beach water grass clouds evening coast chalk site rocks afternoon walk famous bottom wide smooth surface tourist coastal shore dorset southcoast swanage poole colony attraction oldharry oldharryrocks sightsesing
license: 0
latitude: 50.641949
longitude: -1.92604
accuracy: 11
views: 55
interestingness: 8 out of 60

photo: 6458339263 5e84e71926 7011
owner: 90807129@N00
title: LAFD Halts Flames in South L.A. Discount Store
originalsecret: null
originalformat: null
o_height: null
o_width: null
datetaken: 2011-12-02 22:53:24
dateupload: 1323070328
tags: lafd losangelesfiredepartment harrygarvin
license: 0
latitude: 34.013755
longitude: -118.291542
accuracy: 15
views: 616
interestingness: 9 out of 60

photo: 6462532029 db8890b2ac 7024
owner: 45455822@N07
title: Provins
originalsecret: null
originalformat: null
o_height: null
o_width: null
datetaken: 2011-12-04 11:46:29
dateupload: 1323126211
tags: canon eos 7d erik mariage anniversaire provins 2011 anniversairemariage canoneos7d canon7d erikbeauvalot beauvalot
license: 0
latitude: 48.55915
longitude: 3.29849
accuracy: 11
views: 33
interestingness: 10 out of 60

photo: 6451886007 16513bca4e 7165
owner: 14117356@N08
title: Pottery
originalsecret: c2dfc69d9a
originalformat: jpg
o_height: 651
o_width: 979
datetaken: 2011-11-26 15:59:22
dateupload: 1322996494
tags: christmas blue schnee winter white snow window coffee dof crystal tea bokeh decoration fake harrypotter depthoffield pottery teapot vignetting keramik t?pfe kristalle dec? nikkor50mmf12 nisen nikond700
license: 0
latitude: 49.486255
longitude: 8.469707
accuracy: 16
views: 97
interestingness: 11 out of 60

photo: 6459627877 6cfa493fd3 7034
owner: 44318907@N08
title: Wizarding World of Harry Potter: You're here
originalsecret: null
originalformat: null
o_height: null
o_width: null
datetaken: 2011-10-05 15:47:22
dateupload: 1323093147
tags: world travel vacation fun islands orlando nikon florida hamilton harry potter adventure universal studios hogwarts jk rowling hogsmeade wizarding d7000 pytluk
license: 0
latitude: 28.473491
longitude: -81.473622
accuracy: 15
views: 183
interestingness: 12 out of 60

photo: 6447635597 9da903ecf1 7019
owner: 63255278@N08
title: Classic Traction Hot Spot
originalsecret: e55dde5e56
originalformat: jpg
o_height: 3600
o_width: 5834
datetaken: 2011-12-03 21:56:49
dateupload: 1322933784
tags: traction railway depot carlisle drs 37406 37416 37411 37401 37410 37427 37426 37417 57009 37422 class374 57010 d6990 kingmoordepot
license: 0
latitude: 54.906471
longitude: -2.959399
accuracy: 13
views: 98
interestingness: 13 out of 60

photo: 6462490455 d69a508d8f 7007
owner: 45455822@N07
title: Provins
originalsecret: null
originalformat: null
o_height: null
o_width: null
datetaken: 2011-12-04 11:30:09
dateupload: 1323125631
tags: canon eos 7d erik mariage anniversaire provins 2011 anniversairemariage canoneos7d canon7d erikbeauvalot beauvalot
license: 0
latitude: 48.55915
longitude: 3.29849
accuracy: 11
views: 74
interestingness: 14 out of 60

photo: 6053238119 672558a873 6196
owner: 52364684@N03
title: Logan Airport, Boston
originalsecret: e925292153
originalformat: jpg
o_height: 2060
o_width: 2720
datetaken: 2011-08-17 10:53:31
dateupload: 1323066338
tags: travel boston airplane airport flight jet loganairport airtravel loganinternationalairport beantown logantower panasonicgf1 harrylipson thebostonskyline
license: 0
latitude: 42.363465
longitude: -71.01252
accuracy: 13
views: 97
interestingness: 15 out of 60

photo: 6309902387 10d03122b2 6054
owner: 9842362@N04
title: Be Careful What You Wish For....
originalsecret: 36ae61d233
originalformat: jpg
o_height: 1798
o_width: 2724
datetaken: 2011-11-03 21:19:03
dateupload: 1322868640
tags: 
license: 0
latitude: 52.975211
longitude: 0.843257
accuracy: 16
views: 96
interestingness: 16 out of 60

photo: 6470992273 94a801cf22 7008
owner: 48877431@N05
title: The Prince of Wales, The Duchess of Cornwall and The Duke and Duchess of Cambridge with Gary Barlow at a concert in aid of The Prince's Trust and The Foundation of Prince William and Prince Harry
originalsecret: 8fcb93869f
originalformat: jpg
o_height: 340
o_width: 388
datetaken: 2011-12-06 00:00:00
dateupload: 1323256545
tags: royalalberthall garybarlow theprinceofwales theduchessofcornwall thedukeandduchessofcambridge
license: 0
latitude: 51.501129
longitude: -0.177422
accuracy: 15
views: 1436
interestingness: 17 out of 60

photo: 6465118527 d526f2bee5 7167
owner: 76348233@N00
title: Dusk at the Old Harry Rocks
originalsecret: null
originalformat: null
o_height: null
o_width: null
datetaken: 2011-12-04 17:28:53
dateupload: 1323166724
tags: pink blue sunset sea england white holiday english heritage tourism beach water clouds coast chalk site rocks purple dusk walk famous bottom smooth surface tourist coastal shore dorset southcoast swanage poole attraction oldharry duskattheoldharryrocks sightsesing
license: 0
latitude: 50.64184
longitude: -1.925354
accuracy: 11
views: 50
interestingness: 18 out of 60

photo: 6446177487 b74902daf3 7171
owner: 89503137@N00
title: Snowy Owl
originalsecret: null
originalformat: null
o_height: null
o_width: null
datetaken: 2011-11-23 21:10:24
dateupload: 1322912849
tags: wallpaper white green grass contrast canon hawk snowy great harry potter hampshire andover 7d owl trust todd gliding artic andi hedwig sweeny conservancy hardman
license: 0
latitude: 51.206587
longitude: -1.562547
accuracy: 13
views: 58
interestingness: 19 out of 60

photo: 6466944341 67796cb947 7149
owner: 21757123@N03
title: PSN04122011-7719
originalsecret: null
originalformat: null
o_height: null
o_width: null
datetaken: 2011-12-04 12:17:07
dateupload: 1323193921
tags: canon relax peace harry playa ibiza pau cala baleares a?guesblanques
license: 0
latitude: 39.070645
longitude: 1.590185
accuracy: 13
views: 20
interestingness: 20 out of 60

photo: 6466943663 ddb9df1132 7005
owner: 21757123@N03
title: PSN04122011-7718
originalsecret: null
originalformat: null
o_height: null
o_width: null
datetaken: 2011-12-04 12:16:31
dateupload: 1323193912
tags: canon relax peace harry playa ibiza pau cala baleares a?guesblanques
license: 0
latitude: 39.065647
longitude: 1.588983
accuracy: 13
views: 26
interestingness: 21 out of 60

photo: 6453864961 ce0b6446a9 7154
owner: 40129241@N08
title: Sue?a
originalsecret: null
originalformat: null
o_height: null
o_width: null
datetaken: 2011-11-30 18:26:54
dateupload: 1323020562
tags: pink sunset marina atardecer rosa ibiza fantasy eivissa fantas?a calamol?
license: 0
latitude: 38.927132
longitude: 1.228537
accuracy: 14
views: 56
interestingness: 22 out of 60

photo: 6437296353 d64a0a64db 7010
owner: 29849427@N05
title: Bottle Brush
originalsecret: 99f3d182d3
originalformat: jpg
o_height: 1806
o_width: 3737
datetaken: 2010-07-04 13:43:43
dateupload: 1322762419
tags: plants orlando blossom bottlebrush 50200mm harrypleubotanicalgardens
license: 0
latitude: 28.567699
longitude: -81.357398
accuracy: 16
views: 26
interestingness: 23 out of 60

photo: 6463152049 7199bbc5b0 7164
owner: 73029069@N00
title: Harry Truman Cadillac Limousine
originalsecret: null
originalformat: null
o_height: null
o_width: null
datetaken: 2011-12-05 20:21:42
dateupload: 1323134502
tags: harry cadillac limousine truman
license: 0
latitude: 38.897779
longitude: -77.036476
accuracy: 14
views: 49
interestingness: 24 out of 60

photo: 6458723085 67ee0caa54 7156
owner: 43843677@N06
title: Great Grandparents wedding photo, 1902
originalsecret: 2f076258cd
originalformat: jpg
o_height: 2370
o_width: 3656
datetaken: 2011-12-05 10:28:04
dateupload: 1323077807
tags: 
license: 0
latitude: 54.067501
longitude: -0.99369
accuracy: 11
views: 65
interestingness: 25 out of 60

photo: 6291380642 fe4b240feb 6106
owner: 52364684@N03
title: Tough to Tackle
originalsecret: 586d43e036
originalformat: jpg
o_height: 2361
o_width: 2345
datetaken: 2011-10-13 16:43:12
dateupload: 1323000004
tags: michigan annarbor firehydrant michiganfootball fireplug universityofmichigan michiganstadium blueandmaize lowcenterofgravity panasonicgf1 harrylipson toughtotackle copyrightedbyharrylipsoniiiallrightsreservednoauthorizedusageallowed
license: 0
latitude: 42.266356
longitude: -83.744995
accuracy: 14
views: 79
interestingness: 26 out of 60

photo: 5900162294 78192da1c2 5120
owner: 52364684@N03
title: Dawn on The First Day of Winter 2010.  Boston
originalsecret: 6e50a7d7e3
originalformat: jpg
o_height: 1552
o_width: 2666
datetaken: 2010-12-22 07:56:22
dateupload: 1323325181
tags: city morning light sky cloud sun color sunshine weather silhouette boston skyline clouds dawn daylight skies view massachusetts newengland vista daybreak beantown bostonskyline buiildings greaterboston flickrgolfclub panasonicgf1 harrylipson harryshotscom nounauthorizedusageallowed
license: 0
latitude: 42.351693
longitude: -71.078681
accuracy: 11
views: 32
interestingness: 27 out of 60

photo: 6446308639 8c8f5957fc 7009
owner: 13353414@N07
title: Harry e Angelina
originalsecret: 20ca34d252
originalformat: jpg
o_height: 480
o_width: 640
datetaken: 2011-11-21 19:29:11
dateupload: 1322915477
tags: jantar
license: 0
latitude: -21.17695
longitude: -47.807769
accuracy: 11
views: 29
interestingness: 28 out of 60

photo: 6477258799 8c9a4e7dc3 7022
owner: 65138461@N02
title: Lacock Abbey
originalsecret: null
originalformat: null
o_height: null
o_width: null
datetaken: 2011-12-02 13:19:07
dateupload: 1323359684
tags: sunset england abbey canon landscape hall joe tokina national trust 5d nationaltrust hdr highdynamicrange lacock lacockabbey canon5dmarkii fragga
license: 0
latitude: 51.414946
longitude: -2.122421
accuracy: 11
views: 37
interestingness: 29 out of 60

photo: 6469228953 7592742971 7141
owner: 7583630@N06
title: Harries Heder Studio. Window. Cambridge, Massachusettes.
originalsecret: 274c045d61
originalformat: jpg
o_height: 1065
o_width: 1065
datetaken: 2011-12-06 21:11:20
dateupload: 1323223880
tags: cambridge window mediumformat studio photography massachusetts hasselblad500cm 220film harriesheder
license: 0
latitude: 42.373446
longitude: -71.087697
accuracy: 16
views: 7
interestingness: 30 out of 60

photo: 6469449145 6deb7c57bc 7002
owner: 38019648@N02
title: Cauldron shop
originalsecret: 9df5d584ee
originalformat: jpg
o_height: 1000
o_width: 664
datetaken: 2011-10-20 11:31:39
dateupload: 1323227091
tags: shop harrypotter universal cauldron themepark islandsofadventure hogsmeade wizardingworldofharrypotter n1110202003
license: 0
latitude: 28.473454
longitude: -81.473498
accuracy: 16
views: 28
interestingness: 31 out of 60

photo: 6469015603 f54c0921e2 7149
owner: 25619445@N00
title: The Manor in Fall
originalsecret: 933d36b118
originalformat: jpg
o_height: 800
o_width: 1200
datetaken: 2011-12-03 14:41:57
dateupload: 1323220568
tags: house history fall stone manor merrickville
license: 0
latitude: 44.911954
longitude: -75.835468
accuracy: 14
views: 6
interestingness: 32 out of 60

photo: 6463222969 fa1d4f5d2d 7013
owner: 55691305@N08
title: the art of universal
originalsecret: cc2db9edaa
originalformat: jpg
o_height: 1260
o_width: 3952
datetaken: 2011-12-02 00:00:00
dateupload: 1323135459
tags: feet islands toes stat seuss adventure universal
license: 1
latitude: 28.472294
longitude: -81.469759
accuracy: 14
views: 24
interestingness: 33 out of 60

photo: 6460624459 9aff188962 7171
owner: 10611522@N03
title: MACHU PICCHU - 20110619/098
originalsecret: null
originalformat: null
o_height: null
o_width: null
datetaken: 2011-06-19 13:17:55
dateupload: 1323104609
tags: peru machupicchu
license: 0
latitude: -13.104335
longitude: -72.631702
accuracy: 11
views: 8
interestingness: 34 out of 60

photo: 6458915597 3a5813fae9 7163
owner: 12608538@N03
title: Harry Slater puts his head down and hopes to get away from Stephen Lawrence
originalsecret: null
originalformat: null
o_height: null
o_width: null
datetaken: 2011-12-04 15:18:11
dateupload: 1323081542
tags: nottingham raw beeston nottinghamshire fieldhockey ehb actionsport d3s elitesport walkingwithmynikon nikkorafs500mmf4 englandhockeyleague menspremierleague highfieldsportsclub beestonvsreading
license: 0
latitude: 52.933499
longitude: -1.195834
accuracy: 16
views: 43
interestingness: 35 out of 60

photo: 6465896995 e93d374665 7154
owner: 64246557@N05
title: Harry porter is gonna love this owl
originalsecret: null
originalformat: null
o_height: null
o_width: null
datetaken: 2011-07-23 15:11:21
dateupload: 1323180792
tags: 
license: 0
latitude: 35.699686
longitude: 139.737854
accuracy: 8
views: 7
interestingness: 36 out of 60

photo: 6458914701 eb7328a840 7157
owner: 12608538@N03
title: Harry Slatter cannot reach Stephen Lawrence's pass
originalsecret: null
originalformat: null
o_height: null
o_width: null
datetaken: 2011-12-04 15:10:37
dateupload: 1323081523
tags: nottingham raw beeston nottinghamshire fieldhockey ehb actionsport d3s elitesport walkingwithmynikon nikkorafs500mmf4 englandhockeyleague menspremierleague highfieldsportsclub beestonvsreading
license: 0
latitude: 52.933499
longitude: -1.195834
accuracy: 16
views: 38
interestingness: 37 out of 60

photo: 6462404471 198f06b8d5 7022
owner: 37038109@N06
title: Viaduc de Glenfinnan / Glenfinnan Viaduct
originalsecret: 7d545f0efb
originalformat: jpg
o_height: 4356
o_width: 2948
datetaken: 2010-08-08 12:18:26
dateupload: 1323124522
tags: scotland harrypotter viaduct glenfinnan viaduc ecosse
license: 0
latitude: 56.878623
longitude: -5.428276
accuracy: 11
views: 13
interestingness: 38 out of 60

photo: 6444686367 995e3e7619 7161
owner: 34458355@N03
title: Red Rose Bud
originalsecret: 053fcd12bb
originalformat: jpg
o_height: 4272
o_width: 2848
datetaken: 2011-11-06 11:35:43
dateupload: 1322881847
tags: red flower water rose gardens orlando florida droplet bud leu 32803
license: 0
latitude: 28.5569
longitude: -81.34716
accuracy: 16
views: 14
interestingness: 39 out of 60

photo: 6313709184 378293936a 6113
owner: 18753948@N00
title: Hogwarts IMG_3120
originalsecret: null
originalformat: null
o_height: null
o_width: null
datetaken: 2011-11-03 06:11:55
dateupload: 1323036697
tags: travel vacation canon islands orlando all florida harrypotter powershot adventure universal studios hogwarts 2011 s95
license: 0
latitude: 28.47202
longitude: -81.47359
accuracy: 16
views: 58
interestingness: 40 out of 60

photo: 6469229389 7b1f19bc13 7032
owner: 7583630@N06
title: Harries Heder Studio. Door. Cambridge, Massachusettes.
originalsecret: bfcd7664f8
originalformat: jpg
o_height: 1065
o_width: 1065
datetaken: 2011-12-06 21:11:27
dateupload: 1323223887
tags: door cambridge mediumformat studio photography massachusetts hasselblad500cm 220film harriesheder
license: 0
latitude: 42.373619
longitude: -71.089118
accuracy: 16
views: 7
interestingness: 41 out of 60

photo: 6449024463 7086c49e9b 7161
owner: 58619186@N08
title: 
originalsecret: null
originalformat: null
o_height: null
o_width: null
datetaken: 2011-12-03 20:24:30
dateupload: 1322951070
tags: hp harry potter popup
license: 0
latitude: -7.230579
longitude: -35.881401
accuracy: 11
views: 32
interestingness: 42 out of 60

photo: 6481100609 224f558969 7007
owner: 76348233@N00
title: Old Harry
originalsecret: null
originalformat: null
o_height: null
o_width: null
datetaken: 2011-12-04 16:25:05
dateupload: 1323424816
tags: blue sea england white holiday bird english heritage tourism beach water grass clouds evening coast chalk site rocks afternoon walk famous bottom wide smooth surface tourist coastal shore dorset southcoast swanage poole colony attraction oldharry oldharryrocks sightsesing
license: 0
latitude: 50.64184
longitude: -1.926727
accuracy: 11
views: 10
interestingness: 43 out of 60

photo: 6433962655 99a9090de4 7153
owner: 48922763@N04
title: Facade of the Aragon Ballroom, Chicago Illinois.
originalsecret: 35efec0350
originalformat: jpg
o_height: 1784
o_width: 2600
datetaken: 2011-11-19 13:51:20
dateupload: 1322704500
tags: old city urban chicago building architecture facade illinois midwest faces historic il uptown ballroom aragon ornate chicagoillinois aragonballroom chicagoil neightborhood
license: 0
latitude: 41.969142
longitude: -87.657884
accuracy: 16
views: 20
interestingness: 44 out of 60

photo: 6472140521 ec742242a0 7145
owner: 13875847@N00
title: Stained Glass
originalsecret: 6cd375887e
originalformat: jpg
o_height: 3350
o_width: 1883
datetaken: 2011-11-23 17:54:01
dateupload: 1323274504
tags: orlandoflorida karlsbad universalsislandsofadventure thewizardingworldofharrypotter karlschultz
license: 0
latitude: 28.472991
longitude: -81.47374
accuracy: 16
views: 8
interestingness: 45 out of 60

photo: 6453942407 6585de53dd 7172
owner: 34492578@N04
title: White Lies Live @ Orion, o3.12.2o11
originalsecret: null
originalformat: null
o_height: null
o_width: null
datetaken: 2011-12-03 23:13:03
dateupload: 1323021343
tags: show life uk music white roma london rock club canon jack eos 50mm flying interestingness concert punk post andrea live fear lies gig performance harry charles pop tommy explore indie orion bowen to ritual cave lose brit londra varie ealing snob ciampino inghilterra revival 18200mm mcveigh 550d my pischelli of veroni lawrencebrown ventenni zero:roma=39718
license: 0
latitude: 41.809417
longitude: 12.597335
accuracy: 16
views: 41
interestingness: 46 out of 60

photo: 6442974089 98d5efbb44 7013
owner: 49771394@N07
title: day two
originalsecret: null
originalformat: null
o_height: null
o_width: null
datetaken: 2011-12-02 19:22:07
dateupload: 1322854541
tags: blue selfportrait eye self year2 365
license: 0
latitude: 52.526039
longitude: 1.338272
accuracy: 10
views: 23
interestingness: 47 out of 60

photo: 6445625515 74e2c3440f 7024
owner: 25802865@N08
title: Elephant Parade - Harry
originalsecret: 41770b1a1f
originalformat: jpg
o_height: 1200
o_width: 1800
datetaken: 2011-11-14 15:06:29
dateupload: 1322900520
tags: elephant statue artwork singapore display artexhibition tangs orchardroad elephantparade 2011 handpained tangplaza
license: 1
latitude: 1.304848
longitude: 103.832606
accuracy: 15
views: 30
interestingness: 48 out of 60

photo: 6450281137 c2a9e91a24 7015
owner: 34458355@N03
title: Rose Garden Fountain
originalsecret: d9e9ab1efb
originalformat: jpg
o_height: 4272
o_width: 2848
datetaken: 2011-11-06 11:33:37
dateupload: 1322968727
tags: water fountain rose gardens orlando florida droplet leu 32803
license: 0
latitude: 28.5569
longitude: -81.34716
accuracy: 16
views: 20
interestingness: 49 out of 60

photo: 6448947277 331046d668 7019
owner: 52440857@N05
title: old harry rocks1
originalsecret: 638167075a
originalformat: jpg
o_height: 3264
o_width: 4928
datetaken: 2011-12-03 17:08:45
dateupload: 1322950157
tags: coast long exposure dorset studland
license: 0
latitude: 50.642745
longitude: -1.922929
accuracy: 15
views: 12
interestingness: 50 out of 60

photo: 6463921325 1567e90631 7020
owner: 18753948@N00
title: Hogsmead Snowman IMG_3103
originalsecret: null
originalformat: null
o_height: null
o_width: null
datetaken: 2011-11-03 05:56:21
dateupload: 1323144549
tags: world park travel vacation canon islands orlando snowman all florida harry potter powershot adventure owl theme universal studios 2011 hogsmead s95 wizarding
license: 0
latitude: 28.472982
longitude: -81.472946
accuracy: 16
views: 36
interestingness: 51 out of 60

photo: 6462429979 160989d3f3 7175
owner: 29770761@N06
title: (Sarah Purser) Saint Colman & the King
originalsecret: 6cb6d49f7c
originalformat: jpg
o_height: 1373
o_width: 1935
datetaken: 2011-10-03 11:00:19
dateupload: 1323124844
tags: ireland windows irish art glass sarah religious catholic child cork harry chapel stained artists ucc studios clarke ae honan purser gloine t?r nuic sarahpurseraechildt?rgloine
license: 1
latitude: 51.893682
longitude: -8.489395
accuracy: 16
views: 11
interestingness: 52 out of 60

photo: 6448477735 61f131e227 7143
owner: 35884794@N04
title: Harry Ramsden's
originalsecret: bc0868ca0e
originalformat: jpg
o_height: 507
o_width: 1024
datetaken: 2011-12-03 15:54:32
dateupload: 1322944256
tags: longexposure sepia leeds fishandchips guiseley harryramsdens westyorkshie
license: 0
latitude: 53.878655
longitude: -1.725722
accuracy: 15
views: 22
interestingness: 53 out of 60

photo: 6434601457 0ff8157581 7026
owner: 15969227@N04
title: Masonic Hall - 73 West 23rd Street, New York
originalsecret: ba125a5278
originalformat: jpg
o_height: 4147
o_width: 3110
datetaken: 2011-10-21 09:41:48
dateupload: 1322713863
tags: nyc newyorkcity ny newyork building architecture chelsea manhattan flatirondistrict ladiesmile fraternalorganization harrypknowles
license: 0
latitude: 40.743074
longitude: -73.992592
accuracy: 16
views: 37
interestingness: 54 out of 60

photo: 6434416697 e09efda8a0 7026
owner: 8257393@N05
title: HTHouseNorth-shoreAucklandNZ 006 PS ?
originalsecret: null
originalformat: null
o_height: null
o_width: null
datetaken: 2011-12-01 14:15:03
dateupload: 1322711157
tags: architecture ps auckland domestic northshore nz nikaupalms nativebush peteshep copyrightphoto harryturbott
license: 0
latitude: -36.810796
longitude: 174.738643
accuracy: 11
views: 8
interestingness: 55 out of 60

photo: 6434415675 12848ab32c 7161
owner: 8257393@N05
title: HTHouseNorth-shoreAucklandNZ 002 PS ?
originalsecret: null
originalformat: null
o_height: null
o_width: null
datetaken: 2011-12-01 14:11:17
dateupload: 1322711143
tags: architecture ps auckland domestic northshore nz pohutukawa nativebush peteshep copyrightphoto harryturbott weatheringcedar
license: 0
latitude: -36.811208
longitude: 174.740123
accuracy: 11
views: 10
interestingness: 56 out of 60

photo: 6466806951 76a8eba805 7162
owner: 21757123@N03
title: PSN03122011-7645
originalsecret: null
originalformat: null
o_height: null
o_width: null
datetaken: 2011-12-03 16:08:46
dateupload: 1323192205
tags: bw canon harry bn ibiza dreamcatcher baleares 5dmarkii pacosnacher
license: 0
latitude: 38.906108
longitude: 1.418889
accuracy: 11
views: 7
interestingness: 57 out of 60

photo: 6452282637 74998789ce 7003
owner: 66138380@N06
title: "You're a wizard, Harry"  "I'm a what?"
originalsecret: null
originalformat: null
o_height: null
o_width: null
datetaken: 2011-12-04 13:31:12
dateupload: 1323002698
tags: harry potter hogwarts carta varita
license: 0
latitude: 41.607948
longitude: 2.288899
accuracy: 11
views: 61
interestingness: 58 out of 60

photo: 6447386927 9b631ffa93 7173
owner: 10611522@N03
title: MACHU PICCHU - 20110619/050
originalsecret: null
originalformat: null
o_height: null
o_width: null
datetaken: 2011-06-19 12:31:53
dateupload: 1322930867
tags: peru machupicchu
license: 0
latitude: -13.104335
longitude: -72.631702
accuracy: 11
views: 11
interestingness: 59 out of 60

photo: 6441982103 5a1b89acff 7173
owner: 38008790@N06
title: The Old Rocks of Harry - Dorset Coast
originalsecret: null
originalformat: null
o_height: null
o_width: null
datetaken: 2011-12-02 15:52:00
dateupload: 1322841120
tags: old uk blue sea cliff white rock portraits landscape coast chalk rocks waves stitch path harry 100mm coastal dorset stitched studland oldharryrocks benheather theoldrocksofharry
license: 0
latitude: 50.642044
longitude: -1.923937
accuracy: 14
views: 40
interestingness: 60 out of 60

photo: 6433729897 b75438613c 7154
owner: 22224184@N00
title: It's Magic!
originalsecret: 273125500e
originalformat: jpg
o_height: 2304
o_width: 3072
datetaken: 2011-11-04 12:05:28
dateupload: 1322701039
tags: orlando florida harrypotter universalstudios hogwarts islandsofadventure
license: 0
latitude: 28.47318
longitude: -81.47278
accuracy: 16
views: 9
interestingness: 61 out of 60

photo: 6453059017 9f71f621b6 7027
owner: 25230924@N08
title: Helsinki
originalsecret: null
originalformat: null
o_height: null
o_width: null
datetaken: 2011-07-03 19:48:09
dateupload: 1323012288
tags: cinema suomi finland helsinki kino finnland harrypotter helsingfors salomonkatu urlaub2011 kaikkip??ttyy
license: 0
latitude: 60.1693
longitude: 24.930843
accuracy: 16
views: 12
interestingness: 62 out of 60

photo: 6479658149 bac28dbfc9 7004
owner: 10394628@N06
title: La?o
originalsecret: null
originalformat: null
o_height: null
o_width: null
datetaken: 2011-12-04 04:36:17
dateupload: 1323395109
tags: face harry pb yeux crian?a enfant visage firmo blackwrite
license: 0
latitude: -16.09233
longitude: -48.560943
accuracy: 10
views: 3
interestingness: 63 out of 60

photo: 6476219731 53f72550f3 7008
owner: 63370826@N08
title: Old Comiskey Park
originalsecret: null
originalformat: null
o_height: null
o_width: null
datetaken: 2011-03-19 05:56:30
dateupload: 1323341725
tags: chicago baseball whitesox comiskeypark
license: 0
latitude: 41.832127
longitude: -87.633444
accuracy: 15
views: 4
interestingness: 64 out of 60

photo: 6453937433 dfa7b4e722 7148
owner: 34492578@N04
title: White Lies Live @ Orion, o3.12.2o11
originalsecret: null
originalformat: null
o_height: null
o_width: null
datetaken: 2011-12-03 23:02:36
dateupload: 1323021294
tags: show life uk music white roma london rock club canon jack eos 50mm flying interestingness concert punk post andrea live fear lies gig performance harry charles pop tommy explore indie orion bowen to ritual cave lose brit londra varie ealing snob ciampino inghilterra revival 18200mm mcveigh 550d my pischelli of veroni lawrencebrown ventenni zero:roma=39718
license: 0
latitude: 41.809417
longitude: 12.597335
accuracy: 16
views: 18
interestingness: 65 out of 60

photo: 6453911105 0b6796e07f 7148
owner: 34492578@N04
title: White Lies Live @ Orion, o3.12.2o11
originalsecret: null
originalformat: null
o_height: null
o_width: null
datetaken: 2011-12-03 23:03:07
dateupload: 1323021021
tags: show life uk music white roma london rock club canon jack eos 50mm flying interestingness concert punk post andrea live fear lies gig performance harry charles pop tommy explore indie orion bowen to ritual cave lose brit londra varie ealing snob ciampino inghilterra revival 18200mm mcveigh 550d my pischelli of veroni lawrencebrown ventenni zero:roma=39718
license: 0
latitude: 41.809417
longitude: 12.597335
accuracy: 16
views: 18
interestingness: 66 out of 60

photo: 6465829973 ee9420ac6b 7171
owner: 46781500@N00
title: WHERE THE BEATLES BOUGHT THEIR FIRST INSTRUMENTS..LIVERPOOL.
originalsecret: b6558bdc8d
originalformat: jpg
o_height: 2736
o_width: 3648
datetaken: 2011-12-03 12:44:25
dateupload: 1323179852
tags: liverpool thebeatles
license: 5
latitude: 53.400967
longitude: -2.991338
accuracy: 15
views: 14
interestingness: 67 out of 60

photo: 6455492497 51c150f294 7173
owner: 18753948@N00
title: Students from Beauxbatons IMG_3325
originalsecret: null
originalformat: null
o_height: null
o_width: null
datetaken: 2011-11-03 11:39:00
dateupload: 1323036580
tags: world park travel girls vacation castle canon islands orlando all florida harry potter powershot adventure theme universal studios hogwarts 2011 beauxbatons s95 wizarding
license: 0
latitude: 28.47202
longitude: -81.47359
accuracy: 16
views: 22
interestingness: 68 out of 60

photo: 6439156397 98033b881e 7018
owner: 41220547@N05
title: HDR / 1st of December
originalsecret: d419ffc4b9
originalformat: jpg
o_height: 996
o_width: 1500
datetaken: 2011-12-01 19:00:43
dateupload: 1322788110
tags: christmas street winter lights nikon market harry slovakia tomas bratislava hdr 2011 photomatix slabej
license: 0
latitude: 48.142895
longitude: 17.108945
accuracy: 16
views: 26
interestingness: 69 out of 60

photo: 6455511893 30df6bfea4 7174
owner: 18753948@N00
title: Islands of Adventure Tower IMG_3408
originalsecret: null
originalformat: null
o_height: null
o_width: null
datetaken: 2011-11-03 14:03:28
dateupload: 1323036762
tags: park travel vacation canon islands orlando all florida powershot adventure theme universal studios 2011 s95
license: 0
latitude: 28.472152
longitude: -81.467978
accuracy: 16
views: 18
interestingness: 70 out of 60

photo: 6455501557 fe3ca1bdab 7157
owner: 18753948@N00
title: Hogwarts Castle IMG_3072
originalsecret: null
originalformat: null
o_height: null
o_width: null
datetaken: 2011-11-03 05:07:20
dateupload: 1323036663
tags: world park travel vacation castle canon islands orlando all florida harry potter powershot adventure theme universal studios hogwarts 2011 s95 wizarding
license: 0
latitude: 28.47202
longitude: -81.47359
accuracy: 16
views: 11
interestingness: 71 out of 60

photo: 6455495659 f011d357c5 7034
owner: 18753948@N00
title: Hogwarts Castle IMG_3097
originalsecret: null
originalformat: null
o_height: null
o_width: null
datetaken: 2011-11-03 05:49:05
dateupload: 1323036609
tags: world park travel vacation castle canon islands orlando all florida harry potter powershot adventure theme universal studios hogwarts 2011 s95 wizarding
license: 0
latitude: 28.47202
longitude: -81.47359
accuracy: 16
views: 9
interestingness: 72 out of 60

photo: 6472141623 a08c1b39bc 7147
owner: 13875847@N00
title: Hogsmead
originalsecret: 861cf86ed9
originalformat: jpg
o_height: 2048
o_width: 3648
datetaken: 2011-11-23 16:51:06
dateupload: 1323274517
tags: orlandoflorida karlsbad universalsislandsofadventure thewizardingworldofharrypotter karlschultz
license: 0
latitude: 28.472459
longitude: -81.473203
accuracy: 16
views: 8
interestingness: 73 out of 60

photo: 6465795275 4b109c5dfd 7152
owner: 60832741@N08
title: The Staff at St George's, Mossley, 1948
originalsecret: null
originalformat: null
o_height: null
o_width: null
datetaken: 2011-12-06 13:49:06
dateupload: 1323179346
tags: 
license: 0
latitude: 53.246316
longitude: -0.519919
accuracy: 15
views: 2
interestingness: 74 out of 60

photo: 6442189919 0914e2368e 7162
owner: 10611522@N03
title: MACHU PICCHU - 20110619/033
originalsecret: null
originalformat: null
o_height: null
o_width: null
datetaken: 2011-06-19 12:20:26
dateupload: 1322843889
tags: peru machupicchu
license: 0
latitude: -13.104335
longitude: -72.631702
accuracy: 11
views: 7
interestingness: 75 out of 60

photo: 6433728905 735289247c 7166
owner: 22224184@N00
title: It's Magic!
originalsecret: 25bf3f4cdd
originalformat: jpg
o_height: 2304
o_width: 3072
datetaken: 2011-11-04 12:05:28
dateupload: 1322701023
tags: orlando florida harrypotter universalstudios hogwarts islandsofadventure
license: 0
latitude: 28.47318
longitude: -81.47278
accuracy: 16
views: 4
interestingness: 76 out of 60

photo: 6462629191 0fb6ef6dc4 7150
owner: 29770761@N06
title: (Sarah Purser) Saint Fachtna
originalsecret: 792071559b
originalformat: jpg
o_height: 2955
o_width: 1063
datetaken: 2011-10-03 10:54:00
dateupload: 1323127522
tags: ireland windows irish art glass sarah religious catholic child cork harry chapel stained artists ucc studios clarke ae honan purser gloine t?r nuic sarahpurseraechildt?rgloine
license: 1
latitude: 51.893682
longitude: -8.489395
accuracy: 16
views: 9
interestingness: 77 out of 60

photo: 6462602757 7452f893c7 7153
owner: 29770761@N06
title: (Sarah Purser) Saint Fachtna window
originalsecret: 0c821355ef
originalformat: jpg
o_height: 1279
o_width: 2017
datetaken: 2011-10-03 11:05:49
dateupload: 1323127165
tags: ireland windows irish art glass sarah religious catholic child cork harry chapel stained artists ucc studios clarke ae honan purser gloine t?r nuic sarahpurseraechildt?rgloine
license: 1
latitude: 51.893682
longitude: -8.489395
accuracy: 16
views: 12
interestingness: 78 out of 60

photo: 6462585719 a9dd67df9c 7175
owner: 29770761@N06
title: (Sarah Purser) Saint Ailbe & the Wolf
originalsecret: d3a81984df
originalformat: jpg
o_height: 1486
o_width: 2055
datetaken: 2011-10-03 11:05:21
dateupload: 1323126941
tags: ireland windows irish art glass sarah religious catholic child cork harry chapel stained artists ucc studios clarke ae honan purser gloine t?r nuic sarahpurseraechildt?rgloine
license: 1
latitude: 51.893682
longitude: -8.489395
accuracy: 16
views: 10
interestingness: 79 out of 60

photo: 6458904041 9426947181 7142
owner: 12608538@N03
title: Harry Slatter runs back to stop Martin Jones attack
originalsecret: null
originalformat: null
o_height: null
o_width: null
datetaken: 2011-12-04 14:27:05
dateupload: 1323081318
tags: nottingham raw beeston nottinghamshire fieldhockey ehb actionsport d3s elitesport walkingwithmynikon nikkorafs500mmf4 englandhockeyleague menspremierleague highfieldsportsclub beestonvsreading
license: 0
latitude: 52.933499
longitude: -1.195834
accuracy: 16
views: 50
interestingness: 80 out of 60

photo: 6458903599 347133a9c0 7169
owner: 12608538@N03
title: Martin Jones finds a way past Rhys Jones and Harry Slater
originalsecret: null
originalformat: null
o_height: null
o_width: null
datetaken: 2011-12-04 14:27:04
dateupload: 1323081309
tags: nottingham raw beeston nottinghamshire fieldhockey ehb actionsport d3s elitesport walkingwithmynikon nikkorafs500mmf4 englandhockeyleague menspremierleague highfieldsportsclub beestonvsreading
license: 0
latitude: 52.933499
longitude: -1.195834
accuracy: 16
views: 52
interestingness: 81 out of 60

photo: 6458894883 27ce629f05 7013
owner: 12608538@N03
title: Harry Slater lifts the ball over Gordon McIntyre's stick
originalsecret: null
originalformat: null
o_height: null
o_width: null
datetaken: 2011-12-04 14:04:25
dateupload: 1323081152
tags: nottingham raw beeston nottinghamshire fieldhockey ehb actionsport d3s elitesport walkingwithmynikon nikkorafs500mmf4 englandhockeyleague menspremierleague highfieldsportsclub beestonvsreading
license: 0
latitude: 52.933499
longitude: -1.195834
accuracy: 16
views: 65
interestingness: 82 out of 60

photo: 6453918923 a50d1af4da 7151
owner: 34492578@N04
title: White Lies Live @ Orion, o3.12.2o11
originalsecret: null
originalformat: null
o_height: null
o_width: null
datetaken: 2011-12-03 23:13:34
dateupload: 1323021100
tags: show life uk music white roma london rock club canon jack eos 50mm flying interestingness concert punk post andrea live fear lies gig performance harry charles pop tommy explore indie orion bowen to ritual cave lose brit londra varie ealing snob ciampino inghilterra revival 18200mm mcveigh 550d my pischelli of veroni lawrencebrown ventenni zero:roma=39718
license: 0
latitude: 41.809417
longitude: 12.597335
accuracy: 16
views: 13
interestingness: 83 out of 60

photo: 6438195417 d97ecb7b2c 7161
owner: 23363966@N02
title: Nieuwegein: Roadwork Finished
originalsecret: 36846eab57
originalformat: jpg
o_height: 960
o_width: 1280
datetaken: 2011-10-08 11:15:31
dateupload: 1322774414
tags: netherlands highway roadworks nederland a2 nieuwegein snelweg 2011 wegwerkzaamheden
license: 1
latitude: 52.025735
longitude: 5.063474
accuracy: 16
views: 14
interestingness: 84 out of 60

photo: 6433733441 9bda09b9eb 7144
owner: 22224184@N00
title: Muggles
originalsecret: b943d7d06e
originalformat: jpg
o_height: 3072
o_width: 2304
datetaken: 2011-11-04 12:10:00
dateupload: 1322701098
tags: mike orlando florida mary harrypotter universalstudios hogwarts islandsofadventure
license: 0
latitude: 28.472567
longitude: -81.473209
accuracy: 16
views: 7
interestingness: 85 out of 60

photo: 6473692619 896b83e361 7160
owner: 47642109@N04
title: harry on christmas day 2010
originalsecret: 2cff8772af
originalformat: jpg
o_height: 270
o_width: 360
datetaken: 2010-12-25 21:56:41
dateupload: 1323295001
tags: 
license: 1
latitude: 53.840466
longitude: -1.516512
accuracy: 16
views: 4
interestingness: 86 out of 60

photo: 6466943445 1b53e56908 7171
owner: 21757123@N03
title: PSN04122011-7715
originalsecret: null
originalformat: null
o_height: null
o_width: null
datetaken: 2011-12-04 12:11:59
dateupload: 1323193910
tags: canon relax peace harry playa ibiza pau cala baleares a?guesblanques
license: 0
latitude: 39.066614
longitude: 1.589584
accuracy: 13
views: 14
interestingness: 87 out of 60

photo: 6466943115 1154c0a221 7145
owner: 21757123@N03
title: PSN04122011-7714
originalsecret: null
originalformat: null
o_height: null
o_width: null
datetaken: 2011-12-04 12:09:51
dateupload: 1323193906
tags: canon relax peace harry playa ibiza pau cala baleares a?guesblanques
license: 0
latitude: 39.06718
longitude: 1.589412
accuracy: 13
views: 11
interestingness: 88 out of 60

photo: 6466942839 fe089a86b8 7031
owner: 21757123@N03
title: PSN04122011-7712
originalsecret: null
originalformat: null
o_height: null
o_width: null
datetaken: 2011-12-04 12:08:47
dateupload: 1323193902
tags: canon relax peace harry playa ibiza pau cala baleares a?guesblanques
license: 0
latitude: 39.067813
longitude: 1.589326
accuracy: 13
views: 9
interestingness: 89 out of 60

photo: 6466942317 f769d1f486 7007
owner: 21757123@N03
title: PSN04122011-7710
originalsecret: null
originalformat: null
o_height: null
o_width: null
datetaken: 2011-12-04 12:06:12
dateupload: 1323193896
tags: canon relax peace harry playa ibiza pau cala baleares a?guesblanques
license: 0
latitude: 39.06838
longitude: 1.589155
accuracy: 13
views: 1
interestingness: 90 out of 60

photo: 6465353505 670a473bfa 7032
owner: 10945404@N05
title: WHITE LIES - Alcatraz, Milano 04 December 2011 ? 2011 RODOLFO SASSANO 68
originalsecret: null
originalformat: null
o_height: null
o_width: null
datetaken: 2011-12-04 22:47:02
dateupload: 1323171622
tags: show music english rock concert live milano indie alcatraz whitelies harrymcveigh jacklawrencebrown charlescave tommybowen vivoconcerti
license: 0
latitude: 45.494392
longitude: 9.182868
accuracy: 15
views: 16
interestingness: 91 out of 60

photo: 6465351991 ed433c0435 7173
owner: 10945404@N05
title: WHITE LIES - Alcatraz, Milano 04 December 2011 ? 2011 RODOLFO SASSANO 67
originalsecret: null
originalformat: null
o_height: null
o_width: null
datetaken: 2011-12-04 22:46:52
dateupload: 1323171590
tags: show music english rock concert live milano indie alcatraz whitelies harrymcveigh jacklawrencebrown charlescave tommybowen vivoconcerti
license: 0
latitude: 45.494392
longitude: 9.182868
accuracy: 15
views: 10
interestingness: 92 out of 60

photo: 6465350765 b55d917eea 7174
owner: 10945404@N05
title: WHITE LIES - Alcatraz, Milano 04 December 2011 ? 2011 RODOLFO SASSANO 66
originalsecret: null
originalformat: null
o_height: null
o_width: null
datetaken: 2011-12-04 22:46:35
dateupload: 1323171565
tags: show music english rock concert live milano indie alcatraz whitelies harrymcveigh jacklawrencebrown charlescave tommybowen vivoconcerti
license: 0
latitude: 45.494392
longitude: 9.182868
accuracy: 15
views: 15
interestingness: 93 out of 60

photo: 6465349579 0648299372 7022
owner: 10945404@N05
title: WHITE LIES - Alcatraz, Milano 04 December 2011 ? 2011 RODOLFO SASSANO 65
originalsecret: null
originalformat: null
o_height: null
o_width: null
datetaken: 2011-12-04 22:43:50
dateupload: 1323171537
tags: show music english rock concert live milano indie alcatraz whitelies harrymcveigh jacklawrencebrown charlescave tommybowen vivoconcerti
license: 0
latitude: 45.494392
longitude: 9.182868
accuracy: 15
views: 10
interestingness: 94 out of 60

photo: 6465348653 60207f6660 7152
owner: 10945404@N05
title: WHITE LIES - Alcatraz, Milano 04 December 2011 ? 2011 RODOLFO SASSANO 64
originalsecret: null
originalformat: null
o_height: null
o_width: null
datetaken: 2011-12-04 22:43:37
dateupload: 1323171517
tags: show music english rock concert live milano indie alcatraz whitelies harrymcveigh jacklawrencebrown charlescave tommybowen vivoconcerti
license: 0
latitude: 45.494392
longitude: 9.182868
accuracy: 15
views: 16
interestingness: 95 out of 60

photo: 6465347571 5c81e4f562 7164
owner: 10945404@N05
title: WHITE LIES - Alcatraz, Milano 04 December 2011 ? 2011 RODOLFO SASSANO 63
originalsecret: null
originalformat: null
o_height: null
o_width: null
datetaken: 2011-12-04 22:43:29
dateupload: 1323171493
tags: show music english rock concert live milano indie alcatraz whitelies harrymcveigh jacklawrencebrown charlescave tommybowen vivoconcerti
license: 0
latitude: 45.494392
longitude: 9.182868
accuracy: 15
views: 17
interestingness: 96 out of 60

photo: 6465345349 92243c4028 7028
owner: 10945404@N05
title: WHITE LIES - Alcatraz, Milano 04 December 2011 ? 2011 RODOLFO SASSANO 62
originalsecret: null
originalformat: null
o_height: null
o_width: null
datetaken: 2011-12-04 22:43:29
dateupload: 1323171444
tags: show music english rock concert live milano indie alcatraz whitelies harrymcveigh jacklawrencebrown charlescave tommybowen vivoconcerti
license: 0
latitude: 45.494392
longitude: 9.182868
accuracy: 15
views: 13
interestingness: 97 out of 60

photo: 6465341019 22353a2741 7013
owner: 10945404@N05
title: WHITE LIES - Alcatraz, Milano 04 December 2011 ? 2011 RODOLFO SASSANO 59
originalsecret: null
originalformat: null
o_height: null
o_width: null
datetaken: 2011-12-04 22:43:14
dateupload: 1323171355
tags: show music english rock concert live milano indie alcatraz whitelies harrymcveigh jacklawrencebrown charlescave tommybowen vivoconcerti
license: 0
latitude: 45.494392
longitude: 9.182868
accuracy: 15
views: 8
interestingness: 98 out of 60

photo: 6465338927 7d29a4a9b9 7167
owner: 10945404@N05
title: WHITE LIES - Alcatraz, Milano 04 December 2011 ? 2011 RODOLFO SASSANO 58
originalsecret: null
originalformat: null
o_height: null
o_width: null
datetaken: 2011-12-04 22:43:14
dateupload: 1323171318
tags: show music english rock concert live milano indie alcatraz whitelies harrymcveigh jacklawrencebrown charlescave tommybowen vivoconcerti
license: 0
latitude: 45.494392
longitude: 9.182868
accuracy: 15
views: 7
interestingness: 99 out of 60

photo: 6465337475 946f105262 7022
owner: 10945404@N05
title: WHITE LIES - Alcatraz, Milano 04 December 2011 ? 2011 RODOLFO SASSANO 57
originalsecret: null
originalformat: null
o_height: null
o_width: null
datetaken: 2011-12-04 22:43:05
dateupload: 1323171292
tags: show music english rock concert live milano indie alcatraz whitelies harrymcveigh jacklawrencebrown charlescave tommybowen vivoconcerti
license: 0
latitude: 45.494392
longitude: 9.182868
accuracy: 15
views: 14
interestingness: 100 out of 60

photo: 6465335393 25c6d06d4e 7031
owner: 10945404@N05
title: WHITE LIES - Alcatraz, Milano 04 December 2011 ? 2011 RODOLFO SASSANO 55
originalsecret: null
originalformat: null
o_height: null
o_width: null
datetaken: 2011-12-04 22:40:44
dateupload: 1323171253
tags: show music english rock concert live milano indie alcatraz whitelies harrymcveigh jacklawrencebrown charlescave tommybowen vivoconcerti
license: 0
latitude: 45.494392
longitude: 9.182868
accuracy: 15
views: 10
interestingness: 101 out of 60

photo: 6465334337 82a21dce59 7145
owner: 10945404@N05
title: WHITE LIES - Alcatraz, Milano 04 December 2011 ? 2011 RODOLFO SASSANO 54
originalsecret: null
originalformat: null
o_height: null
o_width: null
datetaken: 2011-12-04 22:40:43
dateupload: 1323171233
tags: show music english rock concert live milano indie alcatraz whitelies harrymcveigh jacklawrencebrown charlescave tommybowen vivoconcerti
license: 0
latitude: 45.494392
longitude: 9.182868
accuracy: 15
views: 12
interestingness: 102 out of 60

photo: 6465333081 7c383b0740 7022
owner: 10945404@N05
title: WHITE LIES - Alcatraz, Milano 04 December 2011 ? 2011 RODOLFO SASSANO 53
originalsecret: null
originalformat: null
o_height: null
o_width: null
datetaken: 2011-12-04 22:37:30
dateupload: 1323171210
tags: show music english rock concert live milano indie alcatraz whitelies harrymcveigh jacklawrencebrown charlescave tommybowen vivoconcerti
license: 0
latitude: 45.494392
longitude: 9.182868
accuracy: 15
views: 13
interestingness: 103 out of 60

photo: 6465331769 6d4590c3ef 7014
owner: 10945404@N05
title: WHITE LIES - Alcatraz, Milano 04 December 2011 ? 2011 RODOLFO SASSANO 52
originalsecret: null
originalformat: null
o_height: null
o_width: null
datetaken: 2011-12-04 22:37:10
dateupload: 1323171185
tags: show music english rock concert live milano indie alcatraz whitelies harrymcveigh jacklawrencebrown charlescave tommybowen vivoconcerti
license: 0
latitude: 45.494392
longitude: 9.182868
accuracy: 15
views: 11
interestingness: 104 out of 60

photo: 6465330495 c01296d3c7 7159
owner: 10945404@N05
title: WHITE LIES - Alcatraz, Milano 04 December 2011 ? 2011 RODOLFO SASSANO 51
originalsecret: null
originalformat: null
o_height: null
o_width: null
datetaken: 2011-12-04 22:36:58
dateupload: 1323171160
tags: show music english rock concert live milano indie alcatraz whitelies harrymcveigh jacklawrencebrown charlescave tommybowen vivoconcerti
license: 0
latitude: 45.494392
longitude: 9.182868
accuracy: 15
views: 9
interestingness: 105 out of 60

photo: 6465329083 11551dee29 7019
owner: 10945404@N05
title: WHITE LIES - Alcatraz, Milano 04 December 2011 ? 2011 RODOLFO SASSANO 50
originalsecret: null
originalformat: null
o_height: null
o_width: null
datetaken: 2011-12-04 22:36:57
dateupload: 1323171129
tags: show music english rock concert live milano indie alcatraz whitelies harrymcveigh jacklawrencebrown charlescave tommybowen vivoconcerti
license: 0
latitude: 45.494392
longitude: 9.182868
accuracy: 15
views: 7
interestingness: 106 out of 60

photo: 6465327535 c14b396969 7154
owner: 10945404@N05
title: WHITE LIES - Alcatraz, Milano 04 December 2011 ? 2011 RODOLFO SASSANO 49
originalsecret: null
originalformat: null
o_height: null
o_width: null
datetaken: 2011-12-04 22:36:56
dateupload: 1323171097
tags: show music english rock concert live milano indie alcatraz whitelies harrymcveigh jacklawrencebrown charlescave tommybowen vivoconcerti
license: 0
latitude: 45.494392
longitude: 9.182868
accuracy: 15
views: 7
interestingness: 107 out of 60

photo: 6465325693 cb0d439616 7148
owner: 10945404@N05
title: WHITE LIES - Alcatraz, Milano 04 December 2011 ? 2011 RODOLFO SASSANO 48
originalsecret: null
originalformat: null
o_height: null
o_width: null
datetaken: 2011-12-04 22:36:56
dateupload: 1323171056
tags: show music english rock concert live milano indie alcatraz whitelies harrymcveigh jacklawrencebrown charlescave tommybowen vivoconcerti
license: 0
latitude: 45.494392
longitude: 9.182868
accuracy: 15
views: 3
interestingness: 108 out of 60

photo: 6465324249 c9efd926b9 7030
owner: 10945404@N05
title: WHITE LIES - Alcatraz, Milano 04 December 2011 ? 2011 RODOLFO SASSANO 47
originalsecret: null
originalformat: null
o_height: null
o_width: null
datetaken: 2011-12-04 22:36:50
dateupload: 1323171025
tags: show music english rock concert live milano indie alcatraz whitelies harrymcveigh jacklawrencebrown charlescave tommybowen vivoconcerti
license: 0
latitude: 45.494392
longitude: 9.182868
accuracy: 15
views: 11
interestingness: 109 out of 60

photo: 6465321543 a705bdeb52 7024
owner: 10945404@N05
title: WHITE LIES - Alcatraz, Milano 04 December 2011 ? 2011 RODOLFO SASSANO 45
originalsecret: null
originalformat: null
o_height: null
o_width: null
datetaken: 2011-12-04 22:36:44
dateupload: 1323170970
tags: show music english rock concert live milano indie alcatraz whitelies harrymcveigh jacklawrencebrown charlescave tommybowen vivoconcerti
license: 0
latitude: 45.494392
longitude: 9.182868
accuracy: 15
views: 6
interestingness: 110 out of 60

photo: 6465318093 b3b44536bf 7001
owner: 10945404@N05
title: WHITE LIES - Alcatraz, Milano 04 December 2011 ? 2011 RODOLFO SASSANO 43
originalsecret: null
originalformat: null
o_height: null
o_width: null
datetaken: 2011-12-04 22:36:44
dateupload: 1323170895
tags: show music english rock concert live milano indie alcatraz whitelies harrymcveigh jacklawrencebrown charlescave tommybowen vivoconcerti
license: 0
latitude: 45.494392
longitude: 9.182868
accuracy: 15
views: 6
interestingness: 111 out of 60

photo: 6465315237 a7e8d9e093 7031
owner: 10945404@N05
title: WHITE LIES - Alcatraz, Milano 04 December 2011 ? 2011 RODOLFO SASSANO 41
originalsecret: null
originalformat: null
o_height: null
o_width: null
datetaken: 2011-12-04 22:36:43
dateupload: 1323170832
tags: show music english rock concert live milano indie alcatraz whitelies harrymcveigh jacklawrencebrown charlescave tommybowen vivoconcerti
license: 0
latitude: 45.494392
longitude: 9.182868
accuracy: 15
views: 6
interestingness: 112 out of 60

photo: 6465313847 f719a7d470 7017
owner: 10945404@N05
title: WHITE LIES - Alcatraz, Milano 04 December 2011 ? 2011 RODOLFO SASSANO 40
originalsecret: null
originalformat: null
o_height: null
o_width: null
datetaken: 2011-12-04 22:36:19
dateupload: 1323170802
tags: show music english rock concert live milano indie alcatraz whitelies harrymcveigh jacklawrencebrown charlescave tommybowen vivoconcerti
license: 0
latitude: 45.494392
longitude: 9.182868
accuracy: 15
views: 6
interestingness: 113 out of 60

photo: 6465311539 543dff0074 7002
owner: 10945404@N05
title: WHITE LIES - Alcatraz, Milano 04 December 2011 ? 2011 RODOLFO SASSANO 38
originalsecret: null
originalformat: null
o_height: null
o_width: null
datetaken: 2011-12-04 22:36:09
dateupload: 1323170753
tags: show music english rock concert live milano indie alcatraz whitelies harrymcveigh jacklawrencebrown charlescave tommybowen vivoconcerti
license: 0
latitude: 45.494392
longitude: 9.182868
accuracy: 15
views: 6
interestingness: 114 out of 60

photo: 6465310175 6e0d9b1687 7174
owner: 10945404@N05
title: WHITE LIES - Alcatraz, Milano 04 December 2011 ? 2011 RODOLFO SASSANO 37
originalsecret: null
originalformat: null
o_height: null
o_width: null
datetaken: 2011-12-04 22:36:09
dateupload: 1323170724
tags: show music english rock concert live milano indie alcatraz whitelies harrymcveigh jacklawrencebrown charlescave tommybowen vivoconcerti
license: 0
latitude: 45.494392
longitude: 9.182868
accuracy: 15
views: 5
interestingness: 115 out of 60

photo: 6465308941 07886f20ab 7162
owner: 10945404@N05
title: WHITE LIES - Alcatraz, Milano 04 December 2011 ? 2011 RODOLFO SASSANO 36
originalsecret: null
originalformat: null
o_height: null
o_width: null
datetaken: 2011-12-04 22:35:56
dateupload: 1323170697
tags: show music english rock concert live milano indie alcatraz whitelies harrymcveigh jacklawrencebrown charlescave tommybowen vivoconcerti
license: 0
latitude: 45.494392
longitude: 9.182868
accuracy: 15
views: 4
interestingness: 116 out of 60

photo: 6465307633 fe9e4d8b4c 7013
owner: 10945404@N05
title: WHITE LIES - Alcatraz, Milano 04 December 2011 ? 2011 RODOLFO SASSANO 35
originalsecret: null
originalformat: null
o_height: null
o_width: null
datetaken: 2011-12-04 22:35:36
dateupload: 1323170667
tags: show music english rock concert live milano indie alcatraz whitelies harrymcveigh jacklawrencebrown charlescave tommybowen vivoconcerti
license: 0
latitude: 45.494392
longitude: 9.182868
accuracy: 15
views: 6
interestingness: 117 out of 60

photo: 6465306667 e6cc9ef116 7001
owner: 10945404@N05
title: WHITE LIES - Alcatraz, Milano 04 December 2011 ? 2011 RODOLFO SASSANO 34
originalsecret: null
originalformat: null
o_height: null
o_width: null
datetaken: 2011-12-04 22:35:27
dateupload: 1323170645
tags: show music english rock concert live milano indie alcatraz whitelies harrymcveigh jacklawrencebrown charlescave tommybowen vivoconcerti
license: 0
latitude: 45.494392
longitude: 9.182868
accuracy: 15
views: 7
interestingness: 118 out of 60

photo: 6465305795 6f6439953f 7002
owner: 10945404@N05
title: WHITE LIES - Alcatraz, Milano 04 December 2011 ? 2011 RODOLFO SASSANO 33
originalsecret: null
originalformat: null
o_height: null
o_width: null
datetaken: 2011-12-04 22:22:28
dateupload: 1323170627
tags: show music english rock concert live milano indie alcatraz whitelies harrymcveigh jacklawrencebrown charlescave tommybowen vivoconcerti
license: 0
latitude: 45.494392
longitude: 9.182868
accuracy: 15
views: 8
interestingness: 119 out of 60

photo: 6465302683 4c923a34c5 7165
owner: 10945404@N05
title: WHITE LIES - Alcatraz, Milano 04 December 2011 ? 2011 RODOLFO SASSANO 31
originalsecret: null
originalformat: null
o_height: null
o_width: null
datetaken: 2011-12-04 22:48:10
dateupload: 1323170564
tags: show music english rock concert live milano indie alcatraz whitelies harrymcveigh jacklawrencebrown charlescave tommybowen vivoconcerti
license: 0
latitude: 45.494392
longitude: 9.182868
accuracy: 15
views: 6
interestingness: 120 out of 60

photo: 6465301905 ccdb288405 7173
owner: 10945404@N05
title: WHITE LIES - Alcatraz, Milano 04 December 2011 ? 2011 RODOLFO SASSANO 30
originalsecret: null
originalformat: null
o_height: null
o_width: null
datetaken: 2011-12-04 22:45:59
dateupload: 1323170549
tags: show music english rock concert live milano indie alcatraz whitelies harrymcveigh jacklawrencebrown charlescave tommybowen vivoconcerti
license: 0
latitude: 45.494392
longitude: 9.182868
accuracy: 15
views: 5
interestingness: 121 out of 60

photo: 6465300283 805ace689c 7147
owner: 10945404@N05
title: WHITE LIES - Alcatraz, Milano 04 December 2011 ? 2011 RODOLFO SASSANO 29
originalsecret: null
originalformat: null
o_height: null
o_width: null
datetaken: 2011-12-04 22:45:59
dateupload: 1323170515
tags: show music english rock concert live milano indie alcatraz whitelies harrymcveigh jacklawrencebrown charlescave tommybowen vivoconcerti
license: 0
latitude: 45.494392
longitude: 9.182868
accuracy: 15
views: 5
interestingness: 122 out of 60

photo: 6465297941 46167cd29e 7021
owner: 10945404@N05
title: WHITE LIES - Alcatraz, Milano 04 December 2011 ? 2011 RODOLFO SASSANO 28
originalsecret: null
originalformat: null
o_height: null
o_width: null
datetaken: 2011-12-04 22:45:59
dateupload: 1323170465
tags: show music english rock concert live milano indie alcatraz whitelies harrymcveigh jacklawrencebrown charlescave tommybowen vivoconcerti
license: 0
latitude: 45.494392
longitude: 9.182868
accuracy: 15
views: 5
interestingness: 123 out of 60

photo: 6465294919 2a5cc0e702 7017
owner: 10945404@N05
title: WHITE LIES - Alcatraz, Milano 04 December 2011 ? 2011 RODOLFO SASSANO 26
originalsecret: null
originalformat: null
o_height: null
o_width: null
datetaken: 2011-12-04 22:45:55
dateupload: 1323170399
tags: show music english rock concert live milano indie alcatraz whitelies harrymcveigh jacklawrencebrown charlescave tommybowen vivoconcerti
license: 0
latitude: 45.494392
longitude: 9.182868
accuracy: 15
views: 4
interestingness: 124 out of 60

photo: 6465293287 9ed13cc2bc 7019
owner: 10945404@N05
title: WHITE LIES - Alcatraz, Milano 04 December 2011 ? 2011 RODOLFO SASSANO 25
originalsecret: null
originalformat: null
o_height: null
o_width: null
datetaken: 2011-12-04 22:45:46
dateupload: 1323170365
tags: show music english rock concert live milano indie alcatraz whitelies harrymcveigh jacklawrencebrown charlescave tommybowen vivoconcerti
license: 0
latitude: 45.494392
longitude: 9.182868
accuracy: 15
views: 4
interestingness: 125 out of 60

photo: 6465291613 f28df5d0d2 7001
owner: 10945404@N05
title: WHITE LIES - Alcatraz, Milano 04 December 2011 ? 2011 RODOLFO SASSANO 24
originalsecret: null
originalformat: null
o_height: null
o_width: null
datetaken: 2011-12-04 22:45:45
dateupload: 1323170330
tags: show music english rock concert live milano indie alcatraz whitelies harrymcveigh jacklawrencebrown charlescave tommybowen vivoconcerti
license: 0
latitude: 45.494392
longitude: 9.182868
accuracy: 15
views: 3
interestingness: 126 out of 60

photo: 6465286831 e136e7b3dd 7141
owner: 10945404@N05
title: WHITE LIES - Alcatraz, Milano 04 December 2011 ? 2011 RODOLFO SASSANO 21
originalsecret: null
originalformat: null
o_height: null
o_width: null
datetaken: 2011-12-04 22:45:36
dateupload: 1323170229
tags: show music english rock concert live milano indie alcatraz whitelies harrymcveigh jacklawrencebrown charlescave tommybowen vivoconcerti
license: 0
latitude: 45.494392
longitude: 9.182868
accuracy: 15
views: 3
interestingness: 127 out of 60

photo: 6465285223 08d011edeb 7170
owner: 10945404@N05
title: WHITE LIES - Alcatraz, Milano 04 December 2011 ? 2011 RODOLFO SASSANO 20
originalsecret: null
originalformat: null
o_height: null
o_width: null
datetaken: 2011-12-04 22:45:29
dateupload: 1323170195
tags: show music english rock concert live milano indie alcatraz whitelies harrymcveigh jacklawrencebrown charlescave tommybowen vivoconcerti
license: 0
latitude: 45.494392
longitude: 9.182868
accuracy: 15
views: 4
interestingness: 128 out of 60

photo: 6465283131 1cd18ea4b9 7156
owner: 10945404@N05
title: WHITE LIES - Alcatraz, Milano 04 December 2011 ? 2011 RODOLFO SASSANO 19
originalsecret: null
originalformat: null
o_height: null
o_width: null
datetaken: 2011-12-04 22:45:29
dateupload: 1323170150
tags: show music english rock concert live milano indie alcatraz whitelies harrymcveigh jacklawrencebrown charlescave tommybowen vivoconcerti
license: 0
latitude: 45.494392
longitude: 9.182868
accuracy: 15
views: 2
interestingness: 129 out of 60

photo: 6465281803 c3205e293d 7034
owner: 10945404@N05
title: WHITE LIES - Alcatraz, Milano 04 December 2011 ? 2011 RODOLFO SASSANO 18
originalsecret: null
originalformat: null
o_height: null
o_width: null
datetaken: 2011-12-04 22:45:22
dateupload: 1323170121
tags: show music english rock concert live milano indie alcatraz whitelies harrymcveigh jacklawrencebrown charlescave tommybowen vivoconcerti
license: 0
latitude: 45.494392
longitude: 9.182868
accuracy: 15
views: 2
interestingness: 130 out of 60

photo: 6465280497 8a17ff0e47 7013
owner: 10945404@N05
title: WHITE LIES - Alcatraz, Milano 04 December 2011 ? 2011 RODOLFO SASSANO 17
originalsecret: null
originalformat: null
o_height: null
o_width: null
datetaken: 2011-12-04 22:45:07
dateupload: 1323170092
tags: show music english rock concert live milano indie alcatraz whitelies harrymcveigh jacklawrencebrown charlescave tommybowen vivoconcerti
license: 0
latitude: 45.494392
longitude: 9.182868
accuracy: 15
views: 3
interestingness: 131 out of 60

photo: 6465279187 c4c4b33a53 7169
owner: 10945404@N05
title: WHITE LIES - Alcatraz, Milano 04 December 2011 ? 2011 RODOLFO SASSANO 16
originalsecret: null
originalformat: null
o_height: null
o_width: null
datetaken: 2011-12-04 22:45:02
dateupload: 1323170064
tags: show music english rock concert live milano indie alcatraz whitelies harrymcveigh jacklawrencebrown charlescave tommybowen vivoconcerti
license: 0
latitude: 45.494392
longitude: 9.182868
accuracy: 15
views: 4
interestingness: 132 out of 60

photo: 6465277601 0d4314e0ff 7019
owner: 10945404@N05
title: WHITE LIES - Alcatraz, Milano 04 December 2011 ? 2011 RODOLFO SASSANO 15
originalsecret: null
originalformat: null
o_height: null
o_width: null
datetaken: 2011-12-04 22:44:52
dateupload: 1323170029
tags: show music english rock concert live milano indie alcatraz whitelies harrymcveigh jacklawrencebrown charlescave tommybowen vivoconcerti
license: 0
latitude: 45.494392
longitude: 9.182868
accuracy: 15
views: 3
interestingness: 133 out of 60

photo: 6465274327 5e6f484636 7010
owner: 10945404@N05
title: WHITE LIES - Alcatraz, Milano 04 December 2011 ? 2011 RODOLFO SASSANO 13
originalsecret: null
originalformat: null
o_height: null
o_width: null
datetaken: 2011-12-04 22:43:23
dateupload: 1323169956
tags: show music english rock concert live milano indie alcatraz whitelies harrymcveigh jacklawrencebrown charlescave tommybowen vivoconcerti
license: 0
latitude: 45.494392
longitude: 9.182868
accuracy: 15
views: 5
interestingness: 134 out of 60

photo: 6465272759 ab9acda79c 7150
owner: 10945404@N05
title: WHITE LIES - Alcatraz, Milano 04 December 2011 ? 2011 RODOLFO SASSANO 12
originalsecret: null
originalformat: null
o_height: null
o_width: null
datetaken: 2011-12-04 22:42:48
dateupload: 1323169922
tags: show music english rock concert live milano indie alcatraz whitelies harrymcveigh jacklawrencebrown charlescave tommybowen vivoconcerti
license: 0
latitude: 45.494392
longitude: 9.182868
accuracy: 15
views: 4
interestingness: 135 out of 60

photo: 6465269701 919f7a219a 7167
owner: 10945404@N05
title: WHITE LIES - Alcatraz, Milano 04 December 2011 ? 2011 RODOLFO SASSANO 10
originalsecret: null
originalformat: null
o_height: null
o_width: null
datetaken: 2011-12-04 22:41:59
dateupload: 1323169858
tags: show music english rock concert live milano indie alcatraz whitelies harrymcveigh jacklawrencebrown charlescave tommybowen vivoconcerti
license: 0
latitude: 45.494392
longitude: 9.182868
accuracy: 15
views: 5
interestingness: 136 out of 60

photo: 6465266901 3a94779aeb 7017
owner: 10945404@N05
title: WHITE LIES - Alcatraz, Milano 04 December 2011 ? 2011 RODOLFO SASSANO 8
originalsecret: null
originalformat: null
o_height: null
o_width: null
datetaken: 2011-12-04 22:41:20
dateupload: 1323169798
tags: show music english rock concert live milano indie alcatraz whitelies harrymcveigh jacklawrencebrown charlescave tommybowen vivoconcerti
license: 0
latitude: 45.494392
longitude: 9.182868
accuracy: 15
views: 6
interestingness: 137 out of 60

photo: 6465265203 454d6421c2 7035
owner: 10945404@N05
title: WHITE LIES - Alcatraz, Milano 04 December 2011 ? 2011 RODOLFO SASSANO 7
originalsecret: null
originalformat: null
o_height: null
o_width: null
datetaken: 2011-12-04 22:41:09
dateupload: 1323169762
tags: show music english rock concert live milano indie alcatraz whitelies harrymcveigh jacklawrencebrown charlescave tommybowen vivoconcerti
license: 0
latitude: 45.494392
longitude: 9.182868
accuracy: 15
views: 3
interestingness: 138 out of 60

photo: 6465262645 408827d087 7008
owner: 10945404@N05
title: WHITE LIES - Alcatraz, Milano 04 December 2011 ? 2011 RODOLFO SASSANO 6
originalsecret: null
originalformat: null
o_height: null
o_width: null
datetaken: 2011-12-04 22:41:09
dateupload: 1323169710
tags: show music english rock concert live milano indie alcatraz whitelies harrymcveigh jacklawrencebrown charlescave tommybowen vivoconcerti
license: 0
latitude: 45.494392
longitude: 9.182868
accuracy: 15
views: 4
interestingness: 139 out of 60

photo: 6465261041 18ff9a4fc7 7011
owner: 10945404@N05
title: WHITE LIES - Alcatraz, Milano 04 December 2011 ? 2011 RODOLFO SASSANO 5
originalsecret: null
originalformat: null
o_height: null
o_width: null
datetaken: 2011-12-04 22:41:09
dateupload: 1323169676
tags: show music english rock concert live milano indie alcatraz whitelies harrymcveigh jacklawrencebrown charlescave tommybowen vivoconcerti
license: 0
latitude: 45.494392
longitude: 9.182868
accuracy: 15
views: 2
interestingness: 140 out of 60

photo: 6465259447 7b981ce249 7009
owner: 10945404@N05
title: WHITE LIES - Alcatraz, Milano 04 December 2011 ? 2011 RODOLFO SASSANO 4
originalsecret: null
originalformat: null
o_height: null
o_width: null
datetaken: 2011-12-04 22:41:01
dateupload: 1323169645
tags: show music english rock concert live milano indie alcatraz whitelies harrymcveigh jacklawrencebrown charlescave tommybowen vivoconcerti
license: 0
latitude: 45.494392
longitude: 9.182868
accuracy: 15
views: 4
interestingness: 141 out of 60

photo: 6465257935 e207e1be1d 7005
owner: 10945404@N05
title: WHITE LIES - Alcatraz, Milano 04 December 2011 ? 2011 RODOLFO SASSANO 3
originalsecret: null
originalformat: null
o_height: null
o_width: null
datetaken: 2011-12-04 22:38:23
dateupload: 1323169613
tags: show music english rock concert live milano indie alcatraz whitelies harrymcveigh jacklawrencebrown charlescave tommybowen vivoconcerti
license: 0
latitude: 45.494392
longitude: 9.182868
accuracy: 15
views: 4
interestingness: 142 out of 60

photo: 6465256509 a9463d2422 7003
owner: 10945404@N05
title: WHITE LIES - Alcatraz, Milano 04 December 2011 ? 2011 RODOLFO SASSANO 2
originalsecret: null
originalformat: null
o_height: null
o_width: null
datetaken: 2011-12-04 22:38:14
dateupload: 1323169582
tags: show music english rock concert live milano indie alcatraz whitelies harrymcveigh jacklawrencebrown charlescave tommybowen vivoconcerti
license: 0
latitude: 45.494392
longitude: 9.182868
accuracy: 15
views: 3
interestingness: 143 out of 60

photo: 6465255041 73c623c4a4 7032
owner: 10945404@N05
title: WHITE LIES - Alcatraz, Milano 04 December 2011 ? 2011 RODOLFO SASSANO 1
originalsecret: null
originalformat: null
o_height: null
o_width: null
datetaken: 2011-12-04 22:23:28
dateupload: 1323169549
tags: show music english rock concert live milano indie alcatraz whitelies harrymcveigh jacklawrencebrown charlescave tommybowen vivoconcerti
license: 0
latitude: 45.494392
longitude: 9.182868
accuracy: 15
views: 6
interestingness: 144 out of 60

photo: 6463914269 e3cee72786 7030
owner: 18753948@N00
title: Pesky Ravens IMG_3322
originalsecret: null
originalformat: null
o_height: null
o_width: null
datetaken: 2011-11-03 11:23:45
dateupload: 1323144454
tags: world park travel vacation eye canon skeleton islands orlando all display florida harry potter powershot adventure theme universal studios raven 2011 hogsmead s95 wizarding
license: 0
latitude: 28.472982
longitude: -81.472946
accuracy: 16
views: 2
interestingness: 145 out of 60

photo: 6463913313 8bd5e5ee2b 7011
owner: 18753948@N00
title: Pesky Ravens IMG_3323
originalsecret: null
originalformat: null
o_height: null
o_width: null
datetaken: 2011-11-03 11:23:49
dateupload: 1323144441
tags: world park travel vacation eye canon skeleton islands orlando all display florida harry potter powershot adventure theme universal studios raven 2011 hogsmead s95 wizarding
license: 0
latitude: 28.472982
longitude: -81.472946
accuracy: 16
views: 2
interestingness: 146 out of 60

photo: 6461324673 c6c3b4e0e2 7173
owner: 29770761@N06
title: (Sarah Purser) Saint Colman
originalsecret: e1054228da
originalformat: jpg
o_height: 2993
o_width: 1097
datetaken: 2011-10-03 10:58:10
dateupload: 1323112480
tags: ireland windows irish art glass sarah religious catholic child cork harry chapel stained artists ucc studios clarke ae honan purser gloine t?r nuic sarahpurseraechildt?rgloine
license: 1
latitude: 51.893682
longitude: -8.489395
accuracy: 16
views: 8
interestingness: 147 out of 60

photo: 6461301655 9bb72a5270 7028
owner: 29770761@N06
title: (Sarah Purser) Saint Colman 1
originalsecret: d5691a75e9
originalformat: jpg
o_height: 2869
o_width: 1366
datetaken: 2011-10-03 10:57:46
dateupload: 1323112233
tags: ireland windows irish art glass sarah religious catholic child cork harry chapel stained artists ucc studios clarke ae honan purser gloine t?r nuic sarahpurseraechildt?rgloine
license: 1
latitude: 51.893682
longitude: -8.489395
accuracy: 16
views: 6
interestingness: 148 out of 60

photo: 6461259387 1467f957ce 7005
owner: 29770761@N06
title: (Sarah Purser) Saint Flannan 1
originalsecret: cbc5d78c03
originalformat: jpg
o_height: 3026
o_width: 1303
datetaken: 2011-10-03 10:56:02
dateupload: 1323111782
tags: ireland windows irish art glass sarah religious catholic child cork harry chapel stained artists ucc studios clarke ae honan purser gloine t?r nuic sarahpurseraechildt?rgloine
license: 1
latitude: 51.893682
longitude: -8.489395
accuracy: 16
views: 7
interestingness: 149 out of 60

photo: 6461231557 3d86943096 7161
owner: 29770761@N06
title: (Sarah Purser) Saint Flannan
originalsecret: 9f4831336a
originalformat: jpg
o_height: 2793
o_width: 1019
datetaken: 2011-10-03 10:55:45
dateupload: 1323111490
tags: ireland windows irish art glass sarah religious catholic child cork harry chapel stained artists ucc studios clarke ae honan purser gloine t?r nuic sarahpurseraechildt?rgloine
license: 1
latitude: 51.893682
longitude: -8.489395
accuracy: 16
views: 7
interestingness: 150 out of 60

photo: 6461211585 8009dd140a 7174
owner: 29770761@N06
title: (Sarah Purser) Saint Carthage
originalsecret: 62bcc27ed5
originalformat: jpg
o_height: 3136
o_width: 1126
datetaken: 2011-10-03 10:55:32
dateupload: 1323111262
tags: ireland windows irish art glass sarah religious catholic child cork harry chapel stained artists ucc studios clarke ae honan purser gloine t?r nuic sarahpurseraechildt?rgloine
license: 1
latitude: 51.893682
longitude: -8.489395
accuracy: 16
views: 6
interestingness: 151 out of 60

photo: 6460126671 8b4d050914 7005
owner: 29770761@N06
title: (Sarah Purser) Saint Carthage 1
originalsecret: d7b2e5459e
originalformat: jpg
o_height: 3030
o_width: 1297
datetaken: 2011-10-03 10:55:18
dateupload: 1323099185
tags: ireland windows irish art glass sarah religious catholic child cork harry chapel stained artists ucc studios clarke ae honan purser gloine t?r nuic sarahpurseraechildt?rgloine
license: 1
latitude: 51.893682
longitude: -8.489395
accuracy: 16
views: 13
interestingness: 152 out of 60

photo: 6460092647 e255863904 7143
owner: 29770761@N06
title: (Sarah Purser) Saint Manchin Window
originalsecret: 6fc3f524cd
originalformat: jpg
o_height: 1427
o_width: 1924
datetaken: 2011-10-03 10:54:54
dateupload: 1323098793
tags: ireland windows irish art glass sarah religious catholic child cork harry chapel stained artists ucc studios clarke ae honan purser gloine t?r nuic sarahpurseraechildt?rgloine
license: 1
latitude: 51.893682
longitude: -8.489395
accuracy: 16
views: 6
interestingness: 153 out of 60

photo: 6460060235 7fc55eb367 7028
owner: 29770761@N06
title: (Sarah Purser) Saint Manchan
originalsecret: 7cc3d13c97
originalformat: jpg
o_height: 3203
o_width: 2117
datetaken: 2011-10-03 10:54:15
dateupload: 1323098425
tags: ireland windows irish art glass sarah religious catholic child cork harry chapel stained artists ucc studios clarke ae honan purser gloine t?r nuic sarahpurseraechildt?rgloine
license: 1
latitude: 51.893682
longitude: -8.489395
accuracy: 16
views: 5
interestingness: 154 out of 60

photo: 6459002687 5da1bfc74b 7147
owner: 29770761@N06
title: (Sarah Purser) Saint Ailbe 1
originalsecret: 34470d0567
originalformat: jpg
o_height: 2846
o_width: 1285
datetaken: 2011-10-03 10:53:19
dateupload: 1323083197
tags: ireland windows irish art glass sarah religious catholic child cork harry chapel stained artists ucc studios clarke ae honan purser gloine t?r nuic sarahpurseraechildt?rgloine
license: 1
latitude: 51.893682
longitude: -8.489395
accuracy: 16
views: 9
interestingness: 155 out of 60

photo: 6458983535 7a84a4453b 7172
owner: 29770761@N06
title: (Sarah Purser) Saint Ailbe
originalsecret: 75b092e450
originalformat: jpg
o_height: 2845
o_width: 997
datetaken: 2011-10-03 10:53:09
dateupload: 1323082857
tags: ireland windows irish art glass sarah religious catholic child cork harry chapel stained artists ucc studios clarke ae honan purser gloine t?r nuic sarahpurseraechildt?rgloine
license: 1
latitude: 51.893682
longitude: -8.489395
accuracy: 16
views: 5
interestingness: 156 out of 60

photo: 6457521945 2b5de9c082 7031
owner: 41383470@N00
title: Gary with our Mutha Hubba tent, Bucksaw, Harry S Truman Lake
originalsecret: null
originalformat: null
o_height: null
o_width: null
datetaken: 2011-11-06 12:23:14
dateupload: 1323058423
tags: camping selfportrait tripod missouri gsa 365days remoteshutterrelease bucksaw garyallman nikond7000 harrystrumanlake muthahubbatent journal2011 outdoors2001
license: 0
latitude: 38.257963
longitude: -93.5998
accuracy: 16
views: 7
interestingness: 157 out of 60

photo: 6457509075 089198df08 7146
owner: 41383470@N00
title: Bucksaw campsite in the moonlight
originalsecret: null
originalformat: null
o_height: null
o_width: null
datetaken: 2011-11-05 20:40:39
dateupload: 1323058261
tags: camping availablelight tripod missouri moonlight gsa bucksaw chryslertownandcountryminivan nikond7000 harrystrumanlake ascendfs10kayak ascendd10kayak journal2011 outdoors2001
license: 0
latitude: 38.257963
longitude: -93.5998
accuracy: 16
views: 5
interestingness: 158 out of 60

photo: 6457500253 d36767b849 7008
owner: 41383470@N00
title: Sitting round the campfire on Guy Fawkes night
originalsecret: null
originalformat: null
o_height: null
o_width: null
datetaken: 2011-11-05 20:37:24
dateupload: 1323058147
tags: camping selfportrait lowlight availablelight tripod campfire missouri gsa 365days remoteshutterrelease bucksaw garyallman garyandginger nikond7000 harrystrumanlake journal2011 outdoors2001
license: 0
latitude: 38.257963
longitude: -93.5998
accuracy: 16
views: 8
interestingness: 159 out of 60

photo: 6457479827 b0e4c9ae90 7028
owner: 41383470@N00
title: Sunset at Bucksaw, Harry S Truman Lake, Missouri
originalsecret: null
originalformat: null
o_height: null
o_width: null
datetaken: 2011-11-05 18:23:23
dateupload: 1323057892
tags: camping sunset missouri gsa bucksaw nikond7000 harrystrumanlake journal2011 outdoors2001 crerpuscularrays
license: 0
latitude: 38.249569
longitude: -93.601425
accuracy: 16
views: 3
interestingness: 160 out of 60

photo: 6457467993 0c3e337466 7155
owner: 41383470@N00
title: Sunset at Bucksaw, Harry S Truman Lake, Missouri
originalsecret: null
originalformat: null
o_height: null
o_width: null
datetaken: 2011-11-05 18:22:31
dateupload: 1323057748
tags: camping sunset missouri gsa bucksaw nikond7000 harrystrumanlake journal2011 outdoors2001 crerpuscularrays
license: 0
latitude: 38.249569
longitude: -93.601425
accuracy: 16
views: 6
interestingness: 161 out of 60

photo: 6457455047 e468511e7a 7009
owner: 41383470@N00
title: Dead tree, Bucksaw, Harry S Truman Lake, Missouri
originalsecret: null
originalformat: null
o_height: null
o_width: null
datetaken: 2011-11-05 16:48:20
dateupload: 1323057594
tags: camping blackandwhite bw deadtree missouri gsa bucksaw nikond7000 harrystrumanlake journal2011 outdoors2001
license: 0
latitude: 38.248302
longitude: -93.594484
accuracy: 16
views: 4
interestingness: 162 out of 60

photo: 6457423635 af0c176aa6 7141
owner: 41383470@N00
title: Camping at Bucksaw Campground, Harry S Truman Lake, Missouri
originalsecret: null
originalformat: null
o_height: null
o_width: null
datetaken: 2011-11-05 16:02:09
dateupload: 1323057231
tags: camping missouri gsa bucksaw chryslertownandcountryminivan nikond7000 harrystrumanlake ascendfs10kayak ascendd10kayak muthahubbatent journal2011 outdoors2001
license: 0
latitude: 38.257963
longitude: -93.599809
accuracy: 16
views: 2
interestingness: 163 out of 60

photo: 6457404903 a26fb3dfb3 7157
owner: 41383470@N00
title: Camping at Bucksaw Campground, Harry S Truman Lake, Missouri
originalsecret: null
originalformat: null
o_height: null
o_width: null
datetaken: 2011-11-05 15:55:51
dateupload: 1323057009
tags: camping missouri gsa bucksaw chryslertownandcountryminivan nikond7000 harrystrumanlake ascendfs10kayak ascendd10kayak muthahubbatent journal2011 outdoors2001
license: 0
latitude: 38.257963
longitude: -93.599809
accuracy: 16
views: 4
interestingness: 164 out of 60

photo: 6457350023 354ca973b1 7151
owner: 41383470@N00
title: Camping at Bucksaw Campground, Harry S Truman Lake, Missouri
originalsecret: null
originalformat: null
o_height: null
o_width: null
datetaken: 2011-11-05 12:23:52
dateupload: 1323056379
tags: camping missouri gsa bucksaw chryslertownandcountryminivan nikond7000 harrystrumanlake ascendfs10kayak ascendd10kayak muthahubbatent journal2011 outdoors2001
license: 0
latitude: 38.257963
longitude: -93.599809
accuracy: 16
views: 2
interestingness: 165 out of 60

photo: 6457331837 a39fd0631e 7169
owner: 41383470@N00
title: Campfire at Bucksaw, Harry S Truman Lake, Missouri
originalsecret: null
originalformat: null
o_height: null
o_width: null
datetaken: 2011-11-04 22:52:54
dateupload: 1323056178
tags: camping selfportrait lowlight availablelight tripod campfire missouri gsa 365days remoteshutterrelease bucksaw garyallman garyandginger nikond7000 harrystrumanlake journal2011 outdoors2001
license: 0
latitude: 38.257963
longitude: -93.599809
accuracy: 16
views: 6
interestingness: 166 out of 60

photo: 6455509263 ef51dea09f 7149
owner: 18753948@N00
title: Islands of Adventure Tower IMG_3387
originalsecret: null
originalformat: null
o_height: null
o_width: null
datetaken: 2011-11-03 13:37:28
dateupload: 1323036736
tags: park travel vacation canon islands orlando all florida powershot adventure theme universal studios 2011 s95
license: 0
latitude: 28.472152
longitude: -81.467978
accuracy: 16
views: 6
interestingness: 167 out of 60

photo: 6455499227 7beca8612f 7014
owner: 18753948@N00
title: Hogwarts Castle IMG_3094
originalsecret: null
originalformat: null
o_height: null
o_width: null
datetaken: 2011-11-03 05:46:19
dateupload: 1323036641
tags: world park travel vacation castle canon islands orlando all florida harry potter powershot adventure theme universal studios hogwarts 2011 s95 wizarding
license: 0
latitude: 28.47202
longitude: -81.47359
accuracy: 16
views: 12
interestingness: 168 out of 60

photo: 6455483503 d510cbfdb9 7021
owner: 18753948@N00
title: Hogwarts Castle IMG_3073
originalsecret: null
originalformat: null
o_height: null
o_width: null
datetaken: 2011-11-03 05:10:45
dateupload: 1323036497
tags: world park travel vacation castle canon islands orlando all florida harry potter powershot adventure theme universal studios hogwarts 2011 s95 wizarding
license: 0
latitude: 28.47202
longitude: -81.47359
accuracy: 16
views: 4
interestingness: 169 out of 60

photo: 6455479457 ab29890150 7015
owner: 18753948@N00
title: Hogwarts Castle IMG_3075
originalsecret: null
originalformat: null
o_height: null
o_width: null
datetaken: 2011-11-03 05:14:25
dateupload: 1323036457
tags: world park travel vacation castle canon islands orlando all florida harry potter powershot adventure theme universal studios hogwarts 2011 s95 wizarding
license: 0
latitude: 28.47202
longitude: -81.47359
accuracy: 16
views: 4
interestingness: 170 out of 60

photo: 6455475651 546b57dc52 7163
owner: 18753948@N00
title: Hogwarts Castle IMG_3076
originalsecret: null
originalformat: null
o_height: null
o_width: null
datetaken: 2011-11-03 05:15:06
dateupload: 1323036422
tags: world park travel vacation castle canon islands orlando all florida harry potter powershot adventure theme universal studios hogwarts 2011 s95 wizarding
license: 0
latitude: 28.47202
longitude: -81.47359
accuracy: 16
views: 3
interestingness: 171 out of 60

photo: 6455472121 09e44fe26c 7159
owner: 18753948@N00
title: Hogwarts Castle IMG_3077
originalsecret: null
originalformat: null
o_height: null
o_width: null
datetaken: 2011-11-03 05:15:19
dateupload: 1323036388
tags: world park travel vacation castle canon islands orlando all florida harry potter powershot adventure theme universal studios hogwarts 2011 s95 wizarding
license: 0
latitude: 28.47202
longitude: -81.47359
accuracy: 16
views: 3
interestingness: 172 out of 60

photo: 6455466381 0b03015b8c 7035
owner: 18753948@N00
title: Hogwarts Castle IMG_3078
originalsecret: null
originalformat: null
o_height: null
o_width: null
datetaken: 2011-11-03 05:15:48
dateupload: 1323036332
tags: world park travel vacation castle canon islands orlando all florida harry potter powershot adventure theme universal studios hogwarts 2011 s95 wizarding
license: 0
latitude: 28.47202
longitude: -81.47359
accuracy: 16
views: 4
interestingness: 173 out of 60

photo: 6455461319 cca9d82c74 7031
owner: 18753948@N00
title: Hogwarts Castle IMG_3082
originalsecret: null
originalformat: null
o_height: null
o_width: null
datetaken: 2011-11-03 05:17:59
dateupload: 1323036284
tags: world park travel vacation castle canon islands orlando all florida harry potter powershot adventure theme universal studios hogwarts 2011 s95 wizarding
license: 0
latitude: 28.47202
longitude: -81.47359
accuracy: 16
views: 4
interestingness: 174 out of 60

photo: 6455458583 4470bb1b62 7169
owner: 18753948@N00
title: Hogwarts Castle IMG_3080
originalsecret: null
originalformat: null
o_height: null
o_width: null
datetaken: 2011-11-03 05:17:17
dateupload: 1323036258
tags: world park travel vacation castle canon islands orlando all florida harry potter powershot adventure theme universal studios hogwarts 2011 s95 wizarding
license: 0
latitude: 28.47202
longitude: -81.47359
accuracy: 16
views: 4
interestingness: 175 out of 60

photo: 6453933049 fe755e8df5 7166
owner: 34492578@N04
title: White Lies Live @ Orion, o3.12.2o11
originalsecret: null
originalformat: null
o_height: null
o_width: null
datetaken: 2011-12-03 23:07:43
dateupload: 1323021246
tags: show life uk music white roma london rock club canon jack eos 50mm flying interestingness concert punk post andrea live fear lies gig performance harry charles pop tommy explore indie orion bowen to ritual cave lose brit londra varie ealing snob ciampino inghilterra revival 18200mm mcveigh 550d my pischelli of veroni lawrencebrown ventenni zero:roma=39718
license: 0
latitude: 41.809417
longitude: 12.597335
accuracy: 16
views: 13
interestingness: 176 out of 60

photo: 6453929007 6e868c60e6 7142
owner: 34492578@N04
title: White Lies Live @ Orion, o3.12.2o11
originalsecret: null
originalformat: null
o_height: null
o_width: null
datetaken: 2011-12-03 23:07:49
dateupload: 1323021205
tags: show life uk music white roma london rock club canon jack eos 50mm flying interestingness concert punk post andrea live fear lies gig performance harry charles pop tommy explore indie orion bowen to ritual cave lose brit londra varie ealing snob ciampino inghilterra revival 18200mm mcveigh 550d my pischelli of veroni lawrencebrown ventenni zero:roma=39718
license: 0
latitude: 41.809417
longitude: 12.597335
accuracy: 16
views: 15
interestingness: 177 out of 60

photo: 6453923665 473a14e63e 7142
owner: 34492578@N04
title: White Lies Live @ Orion, o3.12.2o11
originalsecret: null
originalformat: null
o_height: null
o_width: null
datetaken: 2011-12-03 23:05:48
dateupload: 1323021149
tags: show life uk music white roma london rock club canon jack eos 50mm flying interestingness concert punk post andrea live fear lies gig performance harry charles pop tommy explore indie orion bowen to ritual cave lose brit londra varie ealing snob ciampino inghilterra revival 18200mm mcveigh 550d my pischelli of veroni lawrencebrown ventenni zero:roma=39718
license: 0
latitude: 41.809417
longitude: 12.597335
accuracy: 16
views: 16
interestingness: 178 out of 60

photo: 6449254579 68a7cbeb7c 7144
owner: 92607898@N00
title: CC4K Dec3rd: Harry #1
originalsecret: 8e41a47634
originalformat: jpg
o_height: 4000
o_width: 3000
datetaken: 2011-12-03 14:32:49
dateupload: 1322954117
tags: show bar comedy live harry grin onstage comedian stageset sohotheatre comedy4kids comedyclub4kids
license: 3
latitude: 51.514124
longitude: -0.133037
accuracy: 15
views: 29
interestingness: 179 out of 60

photo: 6447616393 2fb63c8929 7141
owner: 37580254@N03
title: Chicago Christmas 2011
originalsecret: cfc612f439
originalformat: jpg
o_height: 3168
o_width: 4752
datetaken: 2011-11-30 23:08:48
dateupload: 1322933558
tags: christmas street winter red holiday chicago green canon shopping restaurant illinois december christ jesus harry christian il holidayseason seasonsgreetings kinzie chicagoil harrycaray caray 2011 canon50d december2011 harrycarayssteakhouse dearbornandkinzie
license: 0
latitude: 41.889139
longitude: -87.630933
accuracy: 15
views: 23
interestingness: 180 out of 60

photo: 6446068099 0fc9746f31 7001
owner: 12190045@N06
title: Uniform and Decorations of General Sir Harry Chauvel
originalsecret: 8f07257b74
originalformat: jpg
o_height: 850
o_width: 567
datetaken: 2011-11-09 13:39:19
dateupload: 1322910591
tags: decorations canon eos uniform wwi australia canberra act medals australianarmy australiancapitalterritory australianwarmemorial lighthorse chauvel 450d
license: 0
latitude: -35.280572
longitude: 149.14833
accuracy: 14
views: 1
interestingness: 181 out of 60

photo: 6444789841 7daea43509 7165
owner: 31067552@N00
title: Lake Mendota, 1889
originalsecret: 416e01ce58
originalformat: png
o_height: 2382
o_width: 2824
datetaken: 1889-08-01 00:00:00
dateupload: 1322883605
tags: family wisconsin handwriting help madison genealogy universityofwisconsin durand lakemendota 1880s
license: 1
latitude: 43.087225
longitude: -89.419169
accuracy: 14
views: 43
interestingness: 182 out of 60

photo: 6443078207 fe25bdda24 7144
owner: 8940551@N05
title: Tom, Dick, & Harry
originalsecret: 8416ebfa9d
originalformat: jpg
o_height: 853
o_width: 1280
datetaken: 2011-12-02 19:59:23
dateupload: 1322855963
tags: yellow tom nikon october pirates dick harry flags lincolnshire northsea jaguar nikkor seafront cleethorpes humber sunnyday fishchips etype bargins 2011 d90 18105mm harryramsbottom
license: 0
latitude: 53.560379
longitude: -0.028554
accuracy: 16
views: 13
interestingness: 183 out of 60

photo: 6441368837 bdc3f61773 7141
owner: 30405858@N05
title: Harry Potter and the Chamber of Secrets.
originalsecret: 80c9445ce7
originalformat: jpg
o_height: 1250
o_width: 864
datetaken: 2007-10-09 23:18:26
dateupload: 1322831838
tags: movieposter emmawatson johncleese warwickdavis danielradcliffe rupertgrint robbiecoltrane kennethbranagh richardgriffiths
license: 0
latitude: 51.50632
longitude: -0.12714
accuracy: 11
views: 14
interestingness: 184 out of 60

photo: 6436435315 0814df76bf 7160
owner: 99245765@N00
title: N30 Public Sector Demonstration, Dumbledore
originalsecret: b543127755
originalformat: jpg
o_height: 3264
o_width: 2448
datetaken: 2011-11-30 15:37:15
dateupload: 1322750752
tags: london harrypotter embankment conservatives wizards tories marches liberaldemocrats albusdumbledore governmentcuts publicsectordemonstration n30publicsectordemonstration pensionsdemonstration
license: 5
latitude: 51.506655
longitude: -0.123059
accuracy: 16
views: 5
interestingness: 185 out of 60

photo: 6434960295 0dce52d054 7158
owner: 15051066@N03
title: 254 Harry Gardner
originalsecret: null
originalformat: null
o_height: null
o_width: null
datetaken: 2011-11-12 13:35:59
dateupload: 1322720292
tags: celebrity car jump events transport vip peugeot sportsman rallying peugeot106 carrace rallydriver roadvehicle harrygardner wrc2011 sigma50500mmf463apohsmex rallyterms
license: 0
latitude: 52.450421
longitude: -3.728407
accuracy: 16
views: 0
interestingness: 186 out of 60

photo: 6434959833 69dbc2151f 7033
owner: 15051066@N03
title: 254 Harry Gardner
originalsecret: null
originalformat: null
o_height: null
o_width: null
datetaken: 2011-11-12 13:35:59
dateupload: 1322720282
tags: celebrity car jump events transport vip peugeot sportsman rallying peugeot106 carrace rallydriver roadvehicle harrygardner wrc2011 sigma50500mmf463apohsmex rallyterms
license: 0
latitude: 52.450421
longitude: -3.728407
accuracy: 16
views: 0
interestingness: 187 out of 60

photo: 6434959391 13185b5e21 7154
owner: 15051066@N03
title: 254 Harry Gardner
originalsecret: null
originalformat: null
o_height: null
o_width: null
datetaken: 2011-11-12 13:35:55
dateupload: 1322720274
tags: celebrity car events transport vip peugeot sportsman rallying peugeot106 carrace rallydriver roadvehicle harrygardner wrc2011 sigma50500mmf463apohsmex
license: 0
latitude: 52.450421
longitude: -3.728407
accuracy: 16
views: 0
interestingness: 188 out of 60

photo: 6434958923 6ab9537e1f 7167
owner: 15051066@N03
title: 254 Harry Gardner
originalsecret: null
originalformat: null
o_height: null
o_width: null
datetaken: 2011-11-12 13:35:55
dateupload: 1322720264
tags: celebrity car events transport vip peugeot sportsman rallying peugeot106 carrace rallydriver roadvehicle harrygardner wrc2011 sigma50500mmf463apohsmex
license: 0
latitude: 52.450421
longitude: -3.728407
accuracy: 16
views: 0
interestingness: 189 out of 60

photo: 6434958447 4772862ac3 7032
owner: 15051066@N03
title: 254 Harry Gardner
originalsecret: null
originalformat: null
o_height: null
o_width: null
datetaken: 2011-11-12 13:35:51
dateupload: 1322720256
tags: celebrity car events transport vip peugeot sportsman rallying peugeot106 carrace rallydriver roadvehicle harrygardner wrc2011 sigma50500mmf463apohsmex
license: 0
latitude: 52.450421
longitude: -3.728407
accuracy: 16
views: 0
interestingness: 190 out of 60

photo: 6434957909 1dd72c7346 7007
owner: 15051066@N03
title: 254 Harry Gardner
originalsecret: null
originalformat: null
o_height: null
o_width: null
datetaken: 2011-11-12 13:35:49
dateupload: 1322720246
tags: celebrity car events transport vip peugeot sportsman rallying peugeot106 carrace rallydriver roadvehicle harrygardner wrc2011 sigma50500mmf463apohsmex
license: 0
latitude: 52.450421
longitude: -3.728407
accuracy: 16
views: 0
interestingness: 191 out of 60

photo: 6434957375 e8ce8a185b 7144
owner: 15051066@N03
title: 254 Harry Gardner
originalsecret: null
originalformat: null
o_height: null
o_width: null
datetaken: 2011-11-12 13:35:47
dateupload: 1322720236
tags: celebrity car events transport vip peugeot sportsman rallying peugeot106 carrace rallydriver roadvehicle harrygardner wrc2011 sigma50500mmf463apohsmex
license: 0
latitude: 52.450421
longitude: -3.728407
accuracy: 16
views: 0
interestingness: 192 out of 60

photo: 6434956887 67ba5f7f20 7143
owner: 15051066@N03
title: 254 Harry Gardner
originalsecret: null
originalformat: null
o_height: null
o_width: null
datetaken: 2011-11-12 13:35:35
dateupload: 1322720226
tags: celebrity car jump events transport vip peugeot sportsman rallying peugeot106 carrace rallydriver roadvehicle harrygardner wrc2011 sigma50500mmf463apohsmex rallyterms
license: 0
latitude: 52.450421
longitude: -3.728407
accuracy: 16
views: 0
interestingness: 193 out of 60

photo: 6434956463 b43bd26579 7024
owner: 15051066@N03
title: 254 Harry Gardner
originalsecret: null
originalformat: null
o_height: null
o_width: null
datetaken: 2011-11-12 13:35:35
dateupload: 1322720218
tags: celebrity car jump events transport vip peugeot sportsman rallying peugeot106 carrace rallydriver roadvehicle harrygardner wrc2011 sigma50500mmf463apohsmex rallyterms
license: 0
latitude: 52.450421
longitude: -3.728407
accuracy: 16
views: 0
interestingness: 194 out of 60

photo: 6462308131 494a8b9df5 7030
owner: 49959666@N04
title: VOLVO - HARRY LAWSON Broughty Ferry Angus Scotland
originalsecret: fe9898f36e
originalformat: jpg
o_height: 961
o_width: 1368
datetaken: 2011-12-05 12:52:12
dateupload: 1323123320
tags: trucks lawson lorries
license: 0
latitude: 56.386435
longitude: -3.483052
accuracy: 14
views: 11
interestingness: 195 out of 60

photo: 6457819939 07f96c1deb 7172
owner: 90807129@N00
title: LAFD Battles Massive Blaze in El Sereno Equipment Yard
originalsecret: 55f1995de2
originalformat: jpg
o_height: 800
o_width: 533
datetaken: 2011-12-02 08:41:33
dateupload: 1323062114
tags: lafd losangelesfiredepartment harrygarvin
license: 3
latitude: 34.074588
longitude: -118.166961
accuracy: 15
views: 401
interestingness: 196 out of 60

photo: 6457819883 c03d5315ae 7004
owner: 90807129@N00
title: LAFD Battles Massive Blaze in El Sereno Equipment Yard
originalsecret: 14f7654a91
originalformat: jpg
o_height: 800
o_width: 533
datetaken: 2011-12-02 08:12:25
dateupload: 1323062114
tags: lafd losangelesfiredepartment harrygarvin
license: 3
latitude: 34.074588
longitude: -118.166961
accuracy: 15
views: 381
interestingness: 197 out of 60

photo: 6457819815 2733f1ffcf 7160
owner: 90807129@N00
title: LAFD Battles Massive Blaze in El Sereno Equipment Yard
originalsecret: 1aca0978cf
originalformat: jpg
o_height: 800
o_width: 533
datetaken: 2011-12-02 07:26:05
dateupload: 1323062113
tags: lafd losangelesfiredepartment harrygarvin
license: 3
latitude: 34.074588
longitude: -118.166961
accuracy: 15
views: 396
interestingness: 198 out of 60

photo: 6457389327 6465ab1b44 7013
owner: 41383470@N00
title: White Pelicans on Harry S Truman Lake at Bucksaw
originalsecret: null
originalformat: null
o_height: null
o_width: null
datetaken: 2011-11-05 13:37:46
dateupload: 1323056827
tags: camping missouri gsa whitepelicans bucksaw nikond7000 harrystrumanlake journal2011 outdoors2001
license: 0
latitude: 38.262883
longitude: -93.599967
accuracy: 16
views: 3
interestingness: 199 out of 60

photo: 6457382439 132b78fa69 7149
owner: 41383470@N00
title: White Pelicans on Harry S Truman Lake at Bucksaw
originalsecret: null
originalformat: null
o_height: null
o_width: null
datetaken: 2011-11-05 13:37:44
dateupload: 1323056747
tags: camping missouri gsa whitepelicans bucksaw nikond7000 harrystrumanlake journal2011 outdoors2001
license: 0
latitude: 38.262883
longitude: -93.599967
accuracy: 16
views: 2
interestingness: 200 out of 60

photo: 6433707349 282d601579 7174
owner: 22224184@N00
title: The Girls' Turn
originalsecret: d3753b9c2e
originalformat: jpg
o_height: 2304
o_width: 3072
datetaken: 2011-11-04 12:06:37
dateupload: 1322700684
tags: orlando florida harrypotter universalstudios hogwarts islandsofadventure
license: 0
latitude: 28.47318
longitude: -81.47278
accuracy: 16
views: 3
interestingness: 201 out of 60

photo: 6476584083 d3e944cae4 7163
owner: 34916866@N02
title: Harry & Nigel
originalsecret: 0e57a98203
originalformat: jpg
o_height: 1061
o_width: 1600
datetaken: 2011-12-08 11:07:34
dateupload: 1323349130
tags: digital government service gdslaunch
license: 2
latitude: 51.517382
longitude: -0.120667
accuracy: 16
views: 113
interestingness: 202 out of 60

photo: 6457434777 dc9ce4a862 7021
owner: 41383470@N00
title: Harry S Truman Lake at Bucksaw
originalsecret: null
originalformat: null
o_height: null
o_width: null
datetaken: 2011-11-05 16:39:16
dateupload: 1323057364
tags: camping missouri gsa bucksaw nikond7000 harrystrumanlake journal2011 outdoors2001
license: 0
latitude: 38.245597
longitude: -93.595331
accuracy: 16
views: 3
interestingness: 203 out of 60

photo: 6452162221 ea792cc799 7021
owner: 10611522@N03
title: MACHU PICCHU - 20110619/084
originalsecret: null
originalformat: null
o_height: null
o_width: null
datetaken: 2011-06-19 13:11:26
dateupload: 1323000955
tags: peru machupicchu
license: 0
latitude: -13.104335
longitude: -72.631702
accuracy: 11
views: 4
interestingness: 204 out of 60

photo: 6452157723 78e1363648 7035
owner: 10611522@N03
title: MACHU PICCHU - 20110619/085
originalsecret: null
originalformat: null
o_height: null
o_width: null
datetaken: 2011-06-19 13:11:29
dateupload: 1323000894
tags: peru machupicchu
license: 0
latitude: -13.104335
longitude: -72.631702
accuracy: 11
views: 3
interestingness: 205 out of 60

photo: 6442418493 cfa4172e56 7155
owner: 24329363@N00
title: The tree where Moody turns Malfoy into a ferret in the Goblet of Fire.
originalsecret: 258113cdd3
originalformat: jpg
o_height: 2112
o_width: 2816
datetaken: 2011-11-11 15:21:45
dateupload: 1322846915
tags: harry potter oxford
license: 0
latitude: 51.753797
longitude: -1.255704
accuracy: 16
views: 8
interestingness: 206 out of 60

photo: 6434600527 65b9a0e418 7015
owner: 15969227@N04
title: Masonic Hall - 73 West 23rd Street, New York
originalsecret: 9132f7d6d5
originalformat: jpg
o_height: 4512
o_width: 3252
datetaken: 2011-10-21 09:41:53
dateupload: 1322713850
tags: nyc newyorkcity ny newyork building architecture chelsea manhattan
license: 0
latitude: 40.743074
longitude: -73.992592
accuracy: 16
views: 17
interestingness: 207 out of 60

photo: 6472141169 66b0ca3956 7011
owner: 13875847@N00
title: Hogwarts
originalsecret: 574572cd15
originalformat: jpg
o_height: 2048
o_width: 3648
datetaken: 2011-11-23 18:12:57
dateupload: 1323274511
tags: orlandoflorida karlsbad universalsislandsofadventure thewizardingworldofharrypotter karlschultz
license: 0
latitude: 28.472459
longitude: -81.473203
accuracy: 16
views: 11
interestingness: 208 out of 60

photo: 6463918957 1bf5103c9a 7014
owner: 18753948@N00
title: Hogsmead IMG_3144
originalsecret: null
originalformat: null
o_height: null
o_width: null
datetaken: 2011-11-03 06:30:46
dateupload: 1323144517
tags: world park travel vacation canon islands orlando all florida harry potter powershot adventure theme universal studios 2011 hogsmead s95 wizarding
license: 0
latitude: 28.472982
longitude: -81.472946
accuracy: 16
views: 6
interestingness: 209 out of 60

photo: 6463917177 f5f6756076 7012
owner: 18753948@N00
title: Zonko's Joke Shop IMG_3142
originalsecret: null
originalformat: null
o_height: null
o_width: null
datetaken: 2011-11-03 06:29:34
dateupload: 1323144492
tags: universal studios islands adventure theme park orlando florida travel vacation 2011 all canon powershot s95 wizarding world harry potter hogsmead
license: 0
latitude: 28.472982
longitude: -81.472946
accuracy: 16
views: 3
interestingness: 210 out of 60

photo: 6455488325 0019451401 7160
owner: 18753948@N00
title: Students from Durmstrang IMG_3326
originalsecret: null
originalformat: null
o_height: null
o_width: null
datetaken: 2011-11-03 11:39:22
dateupload: 1323036540
tags: world park travel vacation castle boys canon islands orlando all florida harry potter powershot adventure theme universal studios hogwarts 2011 durmstrang s95 wizarding
license: 0
latitude: 28.47202
longitude: -81.47359
accuracy: 16
views: 14
