
mintime: 1322697600 maxtime: 1324512427.5
numimgs: 93
total pages: 1
visiting only 1 pages ( up to 250 images)
photo: 3731638368 c6ceab34de 2656
owner: 30814052@N00
title: A triangle of black coats!
originalsecret: null
originalformat: null
o_height: null
o_width: null
datetaken: 2008-07-13 15:29:42
dateupload: 1322869359
tags: 
license: 0
latitude: -12.97002
longitude: -38.504558
accuracy: 11
views: 726
interestingness: 1 out of 93

photo: 6464228717 0323036b3e 7014
owner: 26814106@N02
title: Heat Wave - Valley of Fire State Park, Nevada
originalsecret: null
originalformat: null
o_height: null
o_width: null
datetaken: 2011-08-21 19:22:29
dateupload: 1323185100
tags: statepark southwest valleyoffire colors clouds canon unitedstates desert lasvegas nevada stripe overton firewave 1740f4l 1740mml 5dmarkii
license: 0
latitude: 36.474617
longitude: -114.518566
accuracy: 14
views: 579
interestingness: 2 out of 93

photo: 4629509935 86eca3be9d 3323
owner: 30814052@N00
title: Calura  - Heat
originalsecret: null
originalformat: null
o_height: null
o_width: null
datetaken: 2011-11-26 11:41:45
dateupload: 1322735615
tags: 5star
license: 0
latitude: 37.900865
longitude: 13.051757
accuracy: 6
views: 362
interestingness: 3 out of 93

photo: 4464517910 afb369e80b 4043
owner: 30814052@N00
title: Heat  - Calura  (sicilian scraps)
originalsecret: null
originalformat: null
o_height: null
o_width: null
datetaken: 2009-08-07 13:23:13
dateupload: 1322813616
tags: warm heat 5star calura
license: 0
latitude: 37.474201
longitude: 14.038399
accuracy: 1
views: 370
interestingness: 4 out of 93

photo: 6442506193 03f886c2f7 7005
owner: 50508252@N07
title: Blue diamond smoke lights --  Explored - Thank you ?
originalsecret: null
originalformat: null
o_height: null
o_width: null
datetaken: 2011-09-06 23:04:39
dateupload: 1322848102
tags: distortion black colour macro flow fire mirror nikon artistic smoke flash perspective surreal twin formation elements heat timetravel dslr tamron 90mm donniedarko incense buen mygearandme holedimensiontangent
license: 0
latitude: 53.480554
longitude: -2.242429
accuracy: 11
views: 216
interestingness: 5 out of 93

photo: 6433883195 b4f3fbb5c9 7169
owner: 13643199@N05
title: Tungurahua - Ecuador
originalsecret: null
originalformat: null
o_height: null
o_width: null
datetaken: 2011-11-30 03:01:28
dateupload: 1322703306
tags: travel light red orange mountain hot southamerica nature night danger dark landscape flow fire star volcano lava ecuador energy power natural outdoor smoke horizon hell explosion steam adventure crater disaster heat glowing geology dust volcanic geothermal eruption magma active erupting exploding tungurahua geologic vulcanology strombolian
license: 0
latitude: -1.554374
longitude: -78.455772
accuracy: 10
views: 265
interestingness: 6 out of 93

photo: 6455861909 c4d8315834 7169
owner: 51150455@N05
title: Red Christmas tea
originalsecret: null
originalformat: null
o_height: null
o_width: null
datetaken: 2011-12-04 14:29:06
dateupload: 1323040227
tags: wood italy stilllife orange hot macro home cookies fruit canon season cherry table wooden cozy italian ancient cherries holidays warm interiors december cookie advent break tea drink bokeh cinnamon napkin seasonal gingerbread drinking spoon sugar lazy slice heat stick ritual inside spicy comfort adventcalendar teatime laziness indulgence celebrating lazysunday christmascookies cloves clove teaspoon herbtea orangeslices 100mm28 teaservice vintagecup silverspoon todrink cinnamonstick gingerbreadcookie christmastea silverteaspoon rockcandies spicytea ancientsilver wildcherrytea leshirondellesphotography adventcalendarproject wintrytea ancientteaspoon christmastreatments treatmentsredtea 21daystochristmas
license: 0
latitude: 45.312925
longitude: 9.499168
accuracy: 11
views: 157
interestingness: 7 out of 93

photo: 6443727933 af713cd6bf 7017
owner: 51150455@N05
title: 23 cozy days to Christmas
originalsecret: null
originalformat: null
o_height: null
o_width: null
datetaken: 2011-11-20 15:33:09
dateupload: 1322865300
tags: christmas winter red pet white feet wool animal comfortable cat canon nose cozy paw kitten soft bokeh sleep softness dream kitty ears sleepingcat livingroom sofa sleepy blanket heat dreamy chilly paws adventcalendar cushion eyebrows catpaw creamy wintry blissful chillycat leshirondellesphotography adventcalendarproject
license: 0
latitude: 45.312563
longitude: 9.496421
accuracy: 11
views: 140
interestingness: 8 out of 93

photo: 6439471793 ca57fd3e26 7167
owner: 48246724@N04
title: Autumn in Michigan's Upper Peninsula
originalsecret: null
originalformat: null
o_height: null
o_width: null
datetaken: 2011-09-27 10:24:48
dateupload: 1322793614
tags: autumn trees usa color fall leaves michigan witchesbrew leelanaucellars
license: 0
latitude: 46.487283
longitude: -87.130851
accuracy: 10
views: 222
interestingness: 9 out of 93

photo: 6472720239 aec9763c42 7003
owner: 97133246@N00
title: Sunrise and coffee with Punky
originalsecret: null
originalformat: null
o_height: null
o_width: null
datetaken: 2011-12-07 07:11:46
dateupload: 1323281898
tags: california morning arizona bird nature coffee sunrise outdoors photography travels nikon hummingbird desert coffeecup wildlife tripod peaceful feeder christmaslights deby avian allrightsreserved magma 80400mm 2011 birdbehavior earlybirdgetstheworm debydixon debydixonphotography protectinghisfeeder secondmorningivehadcoffeewiththehummer
license: 0
latitude: 34.049814
longitude: -114.407501
accuracy: 9
views: 129
interestingness: 10 out of 93

photo: 6444136649 3c5dd9cf4b 7165
owner: 52995822@N05
title: chilliwack eagles/Fraser River Safari ? Jetboat Eco River Tours
originalsecret: null
originalformat: null
o_height: null
o_width: null
datetaken: 2011-11-26 12:53:49
dateupload: 1322871920
tags: canada bird nature birds nikon wildlife flight baldeagle bald raptor haliaeetusleucocephalus baldy birdofprey d7000 sigma150500apodgos
license: 0
latitude: 49.235954
longitude: -121.954765
accuracy: 13
views: 138
interestingness: 11 out of 93

photo: 6469135343 0451f564d1 7031
owner: 57734089@N03
title: 06.12.2011 (240/365) Snowy Cart
originalsecret: 84e1db9190
originalformat: jpg
o_height: 600
o_width: 783
datetaken: 2011-12-06 11:44:10
dateupload: 1323222428
tags: snow newmexico corrales cart cerelink
license: 0
latitude: 35.218697
longitude: -106.619224
accuracy: 11
views: 123
interestingness: 12 out of 93

photo: 6452516477 320867f683 7147
owner: 34408161@N04
title: end of summer
originalsecret: null
originalformat: null
o_height: null
o_width: null
datetaken: 2011-09-02 17:42:48
dateupload: 1323005807
tags: trees summer sun sunlight field clouds licht essen nikon traktor felder wiesen himmel wolken dry september heat sonne bergischesland ruhrgebiet velbert chl acker trocken radweg erde staub heiss hitze 2011 d90 sonnenlicht neviges w?lfrath eisenbahntrasse nikond90 niederberg cityhumanlife niederbergbahn panoramaradweg
license: 0
latitude: 51.302045
longitude: 7.063436
accuracy: 13
views: 70
interestingness: 13 out of 93

photo: 6458991613 82aa73b104 7009
owner: 28531664@N00
title: The Young Woman And The Sea - IMRAN? -- 500+ Views! Explored! iPhone 4S Photo
originalsecret: null
originalformat: null
o_height: null
o_width: null
datetaken: 2011-12-03 16:15:51
dateupload: 1323083003
tags: ocean life pink sunset sky music ny newyork fall love beach clouds nikon october marine seasons peaceful philosophy romance foliage imran iphone oceanfront 2011 smithpoint imrananwar flickraward
license: 0
latitude: 40.732
longitude: -72.866834
accuracy: 16
views: 523
interestingness: 14 out of 93

photo: 6445598621 3c1a5b6175 7174
owner: 35891293@N02
title: quivers in the heat
originalsecret: null
originalformat: null
o_height: null
o_width: null
datetaken: 2011-08-27 18:45:10
dateupload: 1322899892
tags: blackandwhite aloe highkey quivertree kokerboom northerncape aloedichotoma brandkop
license: 0
latitude: -31.246229
longitude: 19.211397
accuracy: 11
views: 51
interestingness: 15 out of 93

photo: 6446165837 4a0989f6b2 7001
owner: 35048858@N07
title: ?? Cosplay Bubblegum Crisis Priss Asagiri Hardsuit 3/10
originalsecret: null
originalformat: null
o_height: null
o_width: null
datetaken: 2011-12-03 20:43:04
dateupload: 1322912584
tags: halloween japan asian japanese costume sapporo hokkaido cosplay christine crossdressing tgirl transgender transvestite ??? crossdresser crossdress tg ?? priss asagiri crossplay ??? bubblegumcrisis hardsuit ??? ?? ?????? ??? ???? ??? christine3830 ??????????
license: 0
latitude: 43.064874
longitude: 141.355762
accuracy: 12
views: 202
interestingness: 16 out of 93

photo: 6455017659 ea160509fe 7160
owner: 21274934@N00
title: Ranco Seco, California
originalsecret: null
originalformat: null
o_height: null
o_width: null
datetaken: 2011-11-09 18:22:50
dateupload: 1323032008
tags: tower solar nuclearpower sacramentocounty coolingtowers ranchoseco smud ranchoseconucleargeneratingstation
license: 0
latitude: 38.348858
longitude: -121.11783
accuracy: 13
views: 75
interestingness: 17 out of 93

photo: 6477719439 c5194e118e 7172
owner: 97133246@N00
title: My Morning
originalsecret: null
originalformat: null
o_height: null
o_width: null
datetaken: 2011-12-08 07:21:00
dateupload: 1323366062
tags: california morning travel arizona heron nature birds silhouette sunrise river landscape outdoors photography nikon wildlife atmosphere adventure coloradoriver greatblueheron deby avian allrightsreserved winterhome gbh 2011 debydixon debydixonphotography coloradoindianreservation
license: 0
latitude: 33.947916
longitude: -114.510498
accuracy: 9
views: 110
interestingness: 18 out of 93

photo: 6477711885 e83967f7e1 7024
owner: 11867433@N00
title: Scenes from Nature # 5
originalsecret: 18010fd658
originalformat: jpg
o_height: 670
o_width: 900
datetaken: 2009-01-18 09:19:06
dateupload: 1323365944
tags: africa horses nature tanzania nikon wilderbeest stripes safari camouflage heat zebra handheld 17 prey dust migration serengeti mammals teleconverter herds savanna eastafrica tce 200400mmlens
license: 0
latitude: -2.008339
longitude: 34.716438
accuracy: 1
views: 80
interestingness: 19 out of 93

photo: 6472267623 0eaf1cbc64 7004
owner: 37260607@N06
title: Whitehaven Harbour Beach, Cumbria, UK
originalsecret: ec21821a7b
originalformat: jpg
o_height: 1085
o_width: 1500
datetaken: 2010-05-07 14:33:50
dateupload: 1323356578
tags: uk greatbritain sea summer england panorama sun holiday hot english history tourism beach water stone clouds marina countryside seaside sand warm europe harbour britain stones 17thcentury country tourist panoramic cumbria heat destination historical british seafront whitehaven saltwater holidaying petecarroll summersday petercarroll flickraward cleanbeach petetography
license: 0
latitude: 54.548172
longitude: -3.597407
accuracy: 13
views: 94
interestingness: 20 out of 93

photo: 6471532343 f1f14c1721 7166
owner: 30989531@N06
title: Snow falling
originalsecret: null
originalformat: null
o_height: null
o_width: null
datetaken: 2011-10-29 09:55:22
dateupload: 1323270059
tags: winter house snow nikon bokeh blizzard d700 nikond700
license: 0
latitude: 40.377711
longitude: -80.023008
accuracy: 16
views: 63
interestingness: 21 out of 93

photo: 6468034581 1810faf52d 7010
owner: 53151484@N00
title: Hot and cold
originalsecret: a5b4cdcb3f
originalformat: jpg
o_height: 638
o_width: 1000
datetaken: 2011-12-06 11:56:08
dateupload: 1323207125
tags: hot cold hverar?nd n?maskar? iceland m?vatn m?vatnssveit nature winter snow seam winterlight
license: 0
latitude: 65.638455
longitude: -16.831054
accuracy: 8
views: 75
interestingness: 22 out of 93

photo: 6463195441 228f585c87 7022
owner: 18658153@N06
title: Three of my kids
originalsecret: 6d23ce819b
originalformat: jpg
o_height: 2448
o_width: 3264
datetaken: 2011-12-05 20:36:19
dateupload: 1323135089
tags: cats cat kitty kitties multiplecats threeleggedcat
license: 0
latitude: 31.834581
longitude: -102.357344
accuracy: 14
views: 45
interestingness: 23 out of 93

photo: 6450369015 21e23e1ab9 7031
owner: 8426916@N04
title: Blue Spruce Lodge
originalsecret: 03b119eff1
originalformat: jpg
o_height: 792
o_width: 769
datetaken: 2011-12-03 19:38:10
dateupload: 1322969890
tags: plaza new blue light tree sign pine night mexico polaroid sx70 hotel tv neon nocturnal time no motel manipulation cable 66 illuminated steam lodge route uptown commercial mtv heat fir nm gallup 70 vacancy zero spruce hbo rt aaa rte rates espn timezero sx
license: 0
latitude: 35.529995
longitude: -108.725837
accuracy: 16
views: 63
interestingness: 24 out of 93

photo: 6439401461 0d46427fbc 7171
owner: 51038833@N08
title: The beast!
originalsecret: eaba3a0345
originalformat: jpg
o_height: 2884
o_width: 3991
datetaken: 2011-12-01 22:52:38
dateupload: 1322792485
tags: new colors lens nikon perfect different smoke steam tokina heat hoxha d7000 tokina1116mmf28 rilind
license: 6
latitude: 40.639748
longitude: 22.941201
accuracy: 14
views: 127
interestingness: 25 out of 93

photo: 6419434249 2cceb1b6f1 6103
owner: 52698725@N00
title: bubbles
originalsecret: null
originalformat: null
o_height: null
o_width: null
datetaken: 2011-11-27 14:57:10
dateupload: 1322757120
tags: bw white black bokeh sw schwarz weis photoscape decluttr pentaxk7 pentaxaustria autorevuenon118f50mm taken18 hubertvongoisernbrennatuatsguat
license: 0
latitude: 46.782738
longitude: 13.657915
accuracy: 15
views: 74
interestingness: 26 out of 93

photo: 6433448315 0d374329c7 7006
owner: 27869077@N05
title: Whirlwind
originalsecret: null
originalformat: null
o_height: null
o_width: null
datetaken: 2011-11-24 00:46:09
dateupload: 1322770389
tags: love happiness karma kindness understanding makinout soulpatrol turntheheatup viewminder decembercraziness christmasmojomagic thelovelock thinkinaboutthehorizontalhula
license: 0
latitude: 41.909136
longitude: -87.675683
accuracy: 15
views: 153
interestingness: 27 out of 93

photo: 6473109717 3c6a829ce7 7028
owner: 54904557@N06
title: ???? ?????
originalsecret: null
originalformat: null
o_height: null
o_width: null
datetaken: 2011-12-07 20:24:40
dateupload: 1323287065
tags: blackandwhite film analog scratches pinhole loch dust custom schwarzweiss selfmade weiss blanc schwarz lochkamera noire ak136
license: 0
latitude: 50.926978
longitude: 6.936653
accuracy: 16
views: 75
interestingness: 28 out of 93

photo: 6472787943 1092f564d3 7159
owner: 10061437@N05
title: shimmer
originalsecret: de75f3a29a
originalformat: jpg
o_height: 913
o_width: 2614
datetaken: 2011-12-07 02:18:41
dateupload: 1323282843
tags: uk summer england sunshine sussex brighton eastsussex heatwave heathaze brightonseafront
license: 0
latitude: 50.820401
longitude: -0.146126
accuracy: 15
views: 31
interestingness: 29 out of 93

photo: 6471013627 41f0cf1e54 7162
owner: 24041160@N02
title: Carlisle Kingmoor 12A.
originalsecret: 288b719e48
originalformat: jpg
o_height: 7150
o_width: 7150
datetaken: 2011-12-07 11:23:32
dateupload: 1323257012
tags: 
license: 0
latitude: 54.912873
longitude: -2.961394
accuracy: 14
views: 64
interestingness: 30 out of 93

photo: 6451893299 a536748c4f 7026
owner: 90553512@N00
title: Ollie & Rufus.
originalsecret: 558afb5a18
originalformat: jpg
o_height: 2112
o_width: 2816
datetaken: 2011-12-04 10:52:39
dateupload: 1322996624
tags: dogs
license: 0
latitude: 53.211378
longitude: -2.7919
accuracy: 9
views: 53
interestingness: 31 out of 93

photo: 6434845645 2eb800185f 7013
owner: 91218927@N00
title: the local freight
originalsecret: null
originalformat: null
o_height: null
o_width: null
datetaken: 2011-12-03 20:46:21
dateupload: 1322718063
tags: railroad november autumn usa color fall colors up digital yard america train wednesday dead photography town photo illinois mainstreet midwest image photos bokeh sub harvard country sunday railway sunny trains images il ill american area unionpacific locomotive imaging suburb local 32 locomotives partly unit 2x3 subdivision units uprr midwestern emd 2011 mchenrycounty gp402 gp40 gp15 olye3 y713 up1360 contemplativeimaging olyhg1454 ronzack 20111123 upy713 up1421
license: 0
latitude: 42.229359
longitude: -88.316291
accuracy: 16
views: 69
interestingness: 32 out of 93

photo: 6477856271 e8578d8b80 7013
owner: 10163152@N03
title: Antelope Bathing
originalsecret: null
originalformat: null
o_height: null
o_width: null
datetaken: 2011-11-26 15:27:48
dateupload: 1323368086
tags: africa reflection water bath safari westafrica antelope senegal bathing hdr tomraven aravenimage q42011
license: 0
latitude: 13.670007
longitude: -16.46347
accuracy: 10
views: 47
interestingness: 33 out of 93

photo: 6439237131 364bd48e93 7146
owner: 47926462@N03
title: Week 44 (XLIV) + 2 In Comments
originalsecret: null
originalformat: null
o_height: null
o_width: null
datetaken: 2011-08-02 23:23:04
dateupload: 1322789422
tags: trees summer lake canada green grass leaves wow hair happy hope edmonton joy fresh alberta excitement outsight imissthissomuch suchnostalgicfeelsrightnow theheatandeverythingelsewassoperfectthatday iremembergoingtotimhortonsafterthisandspillingcoffeeallovermyshoes yuptotesbestdayever nobutiactuallymissthisandsummersomuch ifyouwouldaskme tristanwhatwouldyouwantyourperfectdaytolooklike iwouldsaythis lookingatthesemakemefeelhappy kkkimdonesorry
license: 0
latitude: 53.46516
longitude: -113.36071
accuracy: 11
views: 48
interestingness: 34 out of 93

photo: 6465065887 7be13d3852 7029
owner: 7396920@N05
title: The heat is on
originalsecret: 42c2ed699c
originalformat: jpg
o_height: 2148
o_width: 3263
datetaken: 2000-03-25 15:00:00
dateupload: 1323165579
tags: italy mountain hot colors volcano lava 2000 sicily etna incandescent magma fumaroles sublimates
license: 0
latitude: 37.750813
longitude: 14.990575
accuracy: 15
views: 178
interestingness: 35 out of 93

photo: 6442735765 3cbc213040 7150
owner: 86086183@N00
title: Heat
originalsecret: af9ec27b79
originalformat: jpg
o_height: 800
o_width: 1200
datetaken: 2011-11-19 06:57:31
dateupload: 1322851285
tags: california light shadow bw monochrome nationalpark sand desert outdoor dunes heat g1 deathvalley ripples geotag 2011 monring 1445mm flvonmirikr
license: 0
latitude: 36.618386
longitude: -117.113825
accuracy: 16
views: 25
interestingness: 36 out of 93

photo: 6466973089 374e8a7356 7008
owner: 16567230@N05
title: Pour water into pipe and run!
originalsecret: dd1233bc0b
originalformat: jpg
o_height: 1800
o_width: 1200
datetaken: 2011-11-30 12:33:47
dateupload: 1323194259
tags: holiday water volcano display lanzarote steam geyser parquenacionaldetimanfaya rutadelosvolcanes
license: 0
latitude: 29.000858
longitude: -13.751277
accuracy: 12
views: 54
interestingness: 37 out of 93

photo: 6441339487 22d6648940 7007
owner: 22416013@N06
title: summer   route 70  California just outside of Sacramento
originalsecret: null
originalformat: null
o_height: null
o_width: null
datetaken: 2011-12-02 08:08:19
dateupload: 1322831299
tags: california summer sun blur yellow smog sunflowers heat scaramento valleyheat costalrangeview
license: 0
latitude: 38.747657
longitude: -121.540374
accuracy: 8
views: 40
interestingness: 38 out of 93

photo: 6437709705 0560587cac 7152
owner: 24704567@N04
title: Dodge Challenger SRT8
originalsecret: 189e8f0eb3
originalformat: jpg
o_height: 2848
o_width: 4211
datetaken: 2011-08-04 19:23:45
dateupload: 1322768114
tags: auto uk canada london cars robin car sport photography spring nikon britain muscle united ss great plymouth 8 kingdom automotive super racing camaro special american gb dodge l hemi mopar concept autos nikkor ram viper cuda f28 rt v8 charger challenger techniques 61 supersport 80200 srt srt10 srt8 ldn kiewiet sxt d300s
license: 0
latitude: 51.494724
longitude: -0.157123
accuracy: 16
views: 57
interestingness: 39 out of 93

photo: 6434864927 c1eaa1776b 7170
owner: 50969511@N02
title: An Industrial Winter
originalsecret: null
originalformat: null
o_height: null
o_width: null
datetaken: 2011-12-01 18:42:54
dateupload: 1322718416
tags: uk blue winter england white snow cold industry ice 35mm fence frozen kent frost branch factory ditch kodak freezing negative heat gb belvedere 1970s 1979 waterway crabtree drainage manorwway
license: 0
latitude: 51.495188
longitude: 0.160996
accuracy: 16
views: 119
interestingness: 40 out of 93

photo: 6464729281 65925bc7c1 7160
owner: 59389086@N00
title: Visions of Calcutta. India
originalsecret: null
originalformat: null
o_height: null
o_width: null
datetaken: 2011-03-01 00:00:00
dateupload: 1323158420
tags: road street city travel light india man hot cars yellow standing basket traffic empty indian taxis busy shade heat worker cabs kolkata calcutta labourer westbengal indiansubcontinent fredcan
license: 0
latitude: 22.57748
longitude: 88.363358
accuracy: 14
views: 32
interestingness: 41 out of 93

photo: 6479142607 be8e4e6945 7163
owner: 10061437@N05
title: shimmer
originalsecret: 63d252c3b9
originalformat: jpg
o_height: 913
o_width: 2614
datetaken: 2009-07-01 16:44:02
dateupload: 1323386127
tags: uk summer england sunlight sunshine sussex brighton burning brightonbeach eastsussex heatwave heathaze brightonseafront
license: 0
latitude: 50.820401
longitude: -0.146126
accuracy: 15
views: 18
interestingness: 42 out of 93

photo: 6448419635 099e08fea1 7010
owner: 7396920@N05
title: Live and let die
originalsecret: c05d7f62a4
originalformat: jpg
o_height: 3000
o_width: 4000
datetaken: 2011-12-02 12:42:58
dateupload: 1322943515
tags: life trees italy mountain death volcano lava sicily etna eruption devastation pianoprovenzana 2002eruption
license: 0
latitude: 37.796775
longitude: 15.04024
accuracy: 16
views: 171
interestingness: 43 out of 93

photo: 6446835647 ce4ecda7d0 7161
owner: 59758233@N02
title: Heat Sink
originalsecret: null
originalformat: null
o_height: null
o_width: null
datetaken: 2011-11-24 16:37:25
dateupload: 1322923738
tags: uk england hampshire southampton heatsink canonefs1855mmf3556is
license: 0
latitude: 50.89948
longitude: -1.411871
accuracy: 15
views: 38
interestingness: 44 out of 93

photo: 6476498153 491073057b 7033
owner: 29762217@N00
title: Forbidden Purple City
originalsecret: 4eb0bcab70
originalformat: jpg
o_height: 520
o_width: 800
datetaken: 2011-07-03 20:46:37
dateupload: 1323353517
tags: vietnam forbidden city capital hue imperial life nature landscape chinese oriental tropical hot heat humidity travel asia peace quiet forbiddencity imperialcityvietnam canon 2011 vote colorful rainbow summer
license: 0
latitude: 16.458805
longitude: 107.608165
accuracy: 11
views: 45
interestingness: 45 out of 93

photo: 6442898981 43dbdd8489 7174
owner: 65049531@N04
title: Lava lamp
originalsecret: null
originalformat: null
o_height: null
o_width: null
datetaken: 2011-12-01 21:30:30
dateupload: 1322853582
tags: light red wallpaper flower glass lamp yellow metal table bright heat oil unknown 70s wax lavalamp
license: 0
latitude: 51.481703
longitude: -3.702049
accuracy: 11
views: 18
interestingness: 46 out of 93

photo: 6476900749 9923c38490 7153
owner: 54769687@N06
title: Heat Wave
originalsecret: null
originalformat: null
o_height: null
o_width: null
datetaken: 2010-11-19 16:02:32
dateupload: 1323354471
tags: summer water explore waterbombs
license: 0
latitude: -39.481387
longitude: 176.900138
accuracy: 11
views: 17
interestingness: 47 out of 93

photo: 6438193931 9769700f57 7035
owner: 12701328@N00
title: Three Windows
originalsecret: 68c7e8bdef
originalformat: jpg
o_height: 662
o_width: 1024
datetaken: 2011-02-13 13:55:31
dateupload: 1322774396
tags: windows brick window minnesota yellow vines apartment branches minneapolis fantasy covered romantic mn encircled coryq
license: 0
latitude: 44.957494
longitude: -93.272547
accuracy: 16
views: 13
interestingness: 48 out of 93

photo: 6472610167 2ea6e601c9 7018
owner: 43413480@N07
title: Medieval Parade at The Pallio della Barche
originalsecret: null
originalformat: null
o_height: null
o_width: null
datetaken: 2009-07-26 16:27:08
dateupload: 1323280382
tags: italy italia perugia 2009 umbria motorhometravel liamcheasty hymertheodyssey passignanosultrasimino palliodellabarche
license: 0
latitude: 43.184378
longitude: 12.137103
accuracy: 15
views: 15
interestingness: 49 out of 93

photo: 6468826775 6a023b451c 7174
owner: 63255278@N08
title: Bath Road Grime
originalsecret: 9b9606f76f
originalformat: jpg
o_height: 799
o_width: 1280
datetaken: 1979-06-24 21:47:05
dateupload: 1323217683
tags: bristol br class47 45050 metrovick d5705 47267 bathroadtmd tgb968006
license: 0
latitude: 51.448604
longitude: -2.579576
accuracy: 14
views: 72
interestingness: 50 out of 93

photo: 6441464543 ecef9524d8 7175
owner: 34045431@N08
title: Boys are back in Town
originalsecret: null
originalformat: null
o_height: null
o_width: null
datetaken: 2011-07-27 14:47:09
dateupload: 1322833519
tags: bw white black kodak buddha trix happiness buddhism monks heat kodaktrix karma
license: 0
latitude: 11.56474
longitude: 104.913208
accuracy: 11
views: 27
interestingness: 51 out of 93

photo: 6436527247 f07b7618dc 7163
owner: 43413480@N07
title: Musical Entertainment.
originalsecret: null
originalformat: null
o_height: null
o_width: null
datetaken: 2009-07-16 21:59:05
dateupload: 1322752106
tags: italy italia 2009 umbria motorhometravel liamcheasty hymertheodyssey passignanosultrasimino palliodellabarche
license: 0
latitude: 43.183838
longitude: 12.137489
accuracy: 13
views: 14
interestingness: 52 out of 93

photo: 6461686451 de116c0724 7146
owner: 45448311@N05
title: Open 305/365
originalsecret: 0e66a2c030
originalformat: jpg
o_height: 3658
o_width: 5488
datetaken: 2011-12-05 20:40:45
dateupload: 1323116343
tags: life paris shop mouth eyes open arms mind easier ouvert 365project
license: 0
latitude: 48.887054
longitude: 2.347555
accuracy: 14
views: 54
interestingness: 53 out of 93

photo: 6463346047 3bd3c9861d 7160
owner: 89895225@N00
title: Holiday Warmth
originalsecret: 3824be13be
originalformat: jpg
o_height: 3264
o_width: 4912
datetaken: 2011-11-21 17:44:32
dateupload: 1323137157
tags: urban outdoors fire lights evening bokeh sony heat nex5n
license: 1
latitude: 40.769252
longitude: -111.903895
accuracy: 16
views: 26
interestingness: 54 out of 93

photo: 6438527729 44140fd783 7034
owner: 20802739@N03
title: "Heat"
originalsecret: null
originalformat: null
o_height: null
o_width: null
datetaken: 2011-11-26 16:14:20
dateupload: 1322778715
tags: nyc newyorkcity eastvillage ny newyork canon 50mm restaurant village manhattan heat radiator 12thstreet greenwichvillage canonef50mmf18ii 40d johnsof12thstreet canoneos40d
license: 0
latitude: 40.730673
longitude: -73.985517
accuracy: 15
views: 30
interestingness: 55 out of 93

photo: 6478780921 029190cc57 7171
owner: 55591232@N03
title: A taste of summer
originalsecret: 2045816599
originalformat: jpg
o_height: 673
o_width: 1000
datetaken: 2011-06-22 09:28:40
dateupload: 1323380766
tags: street leica 35mm market armenia m8 yerevan carlzeiss biogon
license: 0
latitude: 40.173889
longitude: 44.513339
accuracy: 11
views: 59
interestingness: 56 out of 93

photo: 6477550587 3394a174e5 7150
owner: 39137917@N02
title: Going down, to the heat....
originalsecret: 6db1bddf2b
originalformat: jpg
o_height: 645
o_width: 1200
datetaken: 2011-07-02 15:56:41
dateupload: 1323363774
tags: california holiday holland me america canon eos nationalpark unitedstatesofamerica nederland thenetherlands roadtrip 7d deathvalley amerika californie marcha rondreis canoneos7d marceltuit usa2011 metuit vakantie2011
license: 3
latitude: 36.355918
longitude: -117.904071
accuracy: 11
views: 47
interestingness: 57 out of 93

photo: 6464726209 0388ed5738 7032
owner: 29128949@N03
title: N707JT, B707-138B, Qantas (John Travolta) "Jett Clipper Ella"
originalsecret: null
originalformat: null
o_height: null
o_width: null
datetaken: 2011-11-15 15:12:01
dateupload: 1323158356
tags: classic plane vintage private airport aircraft sydney landing airline smokey honolulu boeing arrival 707 syd qantas rare jt overseas n707jt travolta johntravolta boeing707 b707 qf australias yssy 34l vjet jettclipperella boeing707138b sonya55
license: 0
latitude: -33.947365
longitude: 151.170222
accuracy: 15
views: 62
interestingness: 58 out of 93

photo: 6481298823 47e8bd3eef 7173
owner: 53185476@N03
title: "ghostly goings on"
originalsecret: 0e6fbee260
originalformat: jpg
o_height: 3542
o_width: 3872
datetaken: 2011-12-07 20:32:49
dateupload: 1323429777
tags: york ghostwalk ghostlygoingson
license: 3
latitude: 53.95333
longitude: -1.08342
accuracy: 11
views: 34
interestingness: 59 out of 93

photo: 6475709933 3c357f9d53 7161
owner: 23054420@N08
title: 34/365 Santa Fest
originalsecret: null
originalformat: null
o_height: null
o_width: null
datetaken: 2011-12-08 18:32:44
dateupload: 1323329569
tags: santa christmas red sydney australia darlingharbour 365 365project d7000
license: 0
latitude: -33.87209
longitude: 151.202087
accuracy: 13
views: 41
interestingness: 60 out of 93

photo: 6471408999 27a83e75cb 7159
owner: 82362654@N00
title: Gas Meters
originalsecret: null
originalformat: null
o_height: null
o_width: null
datetaken: 2011-12-04 16:53:07
dateupload: 1323264431
tags: december sunday athens gas greece meters 2011 makrigianni dec2011 04dec2011
license: 0
latitude: 37.967628
longitude: 23.72468
accuracy: 16
views: 12
interestingness: 61 out of 93

photo: 6441782057 0ecfed773c 7153
owner: 43413480@N07
title: Isola Maggiore
originalsecret: null
originalformat: null
o_height: null
o_width: null
datetaken: 2009-07-19 13:04:34
dateupload: 1322838310
tags: italy italia 2009 umbria passignanosultrasimeno motorhometravel liamcheasty hymertheodysseyino lagotrasimino
license: 0
latitude: 43.176014
longitude: 12.091827
accuracy: 16
views: 22
interestingness: 62 out of 93

photo: 6478312981 7638cf2457 7007
owner: 54160790@N07
title: El Almuerzo
originalsecret: 5ae1453136
originalformat: jpg
o_height: 1228
o_width: 1818
datetaken: 2011-12-04 13:38:01
dateupload: 1323374419
tags: blue sea sky film lunch restaurant harbour fuerteventura olympus trip35 ektar cotillo 2011
license: 0
latitude: 28.684234
longitude: -14.012289
accuracy: 16
views: 21
interestingness: 63 out of 93

photo: 6479739593 9cd8120673 7019
owner: 83925110@N00
title: Smokey Morning
originalsecret: null
originalformat: null
o_height: null
o_width: null
datetaken: 2004-01-01 00:00:00
dateupload: 1323396447
tags: 
license: 0
latitude: 52.409347
longitude: -1.498303
accuracy: 16
views: 41
interestingness: 64 out of 93

photo: 6469322809 9af0194d65 7010
owner: 31086818@N08
title: Southward Ho Motel - San Diego, California
originalsecret: 3864f611ea
originalformat: jpg
o_height: 1312
o_width: 2080
datetaken: 2011-12-06 21:34:12
dateupload: 1323225252
tags: california sandiego postcard motel 1959 southwardho
license: 0
latitude: 32.715728
longitude: -117.171051
accuracy: 15
views: 61
interestingness: 65 out of 93

photo: 6459334203 3385f6cdcd 7013
owner: 33164766@N07
title: Canned heat
originalsecret: null
originalformat: null
o_height: null
o_width: null
datetaken: 2011-12-03 11:07:08
dateupload: 1323088882
tags: thc rooftopgraffiti dimeone dime1 onersigns thehardcopy httpwwwfacebookcomlphpuhttp3a2f2fwwwthcmagblogspotcom2fh6aqgfldr httpwwwfacebookcomlphpuhttp3a2f2fwwwtwittercom2fthehardcopyh8aqhtjrtj httpwwwfacebookcomlphpuhttp3a2f2fwwwonersignscouk2fpublic2findexcfmhbaqffkyxc onerrooftop
license: 0
latitude: 51.480821
longitude: -3.179168
accuracy: 13
views: 29
interestingness: 66 out of 93

photo: 6467517511 dfc69f7443 7173
owner: 74069397@N00
title: Baked Apricot & Pecan Sourdough Bread Stuffing
originalsecret: null
originalformat: null
o_height: null
o_width: null
datetaken: 2011-12-04 17:07:59
dateupload: 1323200861
tags: thanksgiving autumn food bread stuffing recipe holidays dish side dressing apricot pecan sourdough
license: 0
latitude: 37.011839
longitude: -121.589298
accuracy: 13
views: 49
interestingness: 67 out of 93

photo: 6444120937 5ffd4476b7 7015
owner: 35742910@N05
title: 292/365 turn up the heat ;-)
originalsecret: ddd7e9baa3
originalformat: jpg
o_height: 1204
o_width: 1500
datetaken: 2011-12-02 11:40:19
dateupload: 1322871638
tags: 
license: 5
latitude: 51.834305
longitude: 6.244944
accuracy: 16
views: 30
interestingness: 68 out of 93

photo: 6451183943 dccde8bb0a 7149
owner: 31864021@N08
title: Baring Head - Wellington New Zealand
originalsecret: null
originalformat: null
o_height: null
o_width: null
datetaken: 2011-12-03 09:43:02
dateupload: 1322983129
tags: sea newzealand sky cloud canon landscape wellington baringhead eastharbourregionalpark
license: 0
latitude: -41.409132
longitude: 174.868869
accuracy: 13
views: 19
interestingness: 69 out of 93

photo: 6448110589 533f885e65 7006
owner: 8163337@N03
title: Square crown with 2 pass Gaucho...
originalsecret: 36804b43f1
originalformat: jpg
o_height: 419
o_width: 640
datetaken: 2011-12-03 13:59:22
dateupload: 1322939589
tags: camping 2 wall cord diy fishing sailing power hiking military salt pass knife craft utility knot hobby ring spanish backpacking needle howto heat be boating geocache opening crown pocket flipper parachute scouting robo fob gaucho useful prepared lanyard spyderco lacing paracord retention assisted sinnet bushcraft camillus stormdrane 09mm permalok
license: 0
latitude: 33.447287
longitude: -84.146781
accuracy: 15
views: 35
interestingness: 70 out of 93

photo: 6451334799 7736f1ff2d 7008
owner: 31864021@N08
title: Baring Head - Wellington New Zealand
originalsecret: null
originalformat: null
o_height: null
o_width: null
datetaken: 2011-12-03 11:29:12
dateupload: 1322985960
tags: newzealand cloud green canon river landscape valley wellington wainuiomata eastharbourregionalpark skybaringhead
license: 0
latitude: -41.409132
longitude: 174.868869
accuracy: 13
views: 15
interestingness: 71 out of 93

photo: 6472688667 12f7911e4f 7013
owner: 53599366@N04
title: 2011-11-25_New House
originalsecret: a391bb3299
originalformat: jpg
o_height: 933
o_width: 1402
datetaken: 2011-12-07 13:11:02
dateupload: 1323281462
tags: houses architecture buildings newhouse newstreet newsubdivision
license: 0
latitude: 42.941894
longitude: -82.118403
accuracy: 14
views: 24
interestingness: 72 out of 93

photo: 6465730343 a6880a67fe 7021
owner: 21958465@N00
title: Modern Antiquity?
originalsecret: null
originalformat: null
o_height: null
o_width: null
datetaken: 2011-04-12 09:37:58
dateupload: 1323178406
tags: bw deutschland blackwhite lomo lomography hessen frankfurt sw mf dianaf rollfilm mittelformat schwarzweis lomography100bw iso100120erfilm
license: 0
latitude: 50.115333
longitude: 8.671666
accuracy: 16
views: 30
interestingness: 73 out of 93

photo: 6457178077 51a0a99dcb 7016
owner: 48787174@N03
title: Former Elder-Beerman At Woodville Mall
originalsecret: c15fb33415
originalformat: jpg
o_height: 1936
o_width: 2592
datetaken: 2011-12-02 16:09:25
dateupload: 1323054528
tags: ohio abandoned retail mall decay creepy departmentstore northwood woodville woodcounty deadmall elderbeerman
license: 0
latitude: 41.605
longitude: -83.461834
accuracy: 16
views: 39
interestingness: 74 out of 93

photo: 6456724347 2e1b17e03d 7016
owner: 40964542@N08
title: bread and onion soup
originalsecret: 87ee2818a7
originalformat: jpg
o_height: 1156
o_width: 1612
datetaken: 2011-12-04 20:14:47
dateupload: 1323049591
tags: bread butter lentils berbere jarlsberg crushedredpepper essentialpepin jaquespepin
license: 0
latitude: 46.358746
longitude: -94.203386
accuracy: 14
views: 108
interestingness: 75 out of 93

photo: 6467991901 25b368412f 7156
owner: 51725685@N08
title: Summer Heat - Guaruj?/SP - Brazil
originalsecret: null
originalformat: null
o_height: null
o_width: null
datetaken: 2011-12-04 12:39:27
dateupload: 1323206609
tags: brazil beach fujifilm hd guaruj? s2800
license: 0
latitude: -23.987115
longitude: -46.229095
accuracy: 13
views: 25
interestingness: 76 out of 93

photo: 6462798037 a1f26174cd 7145
owner: 51696773@N00
title: On the Run
originalsecret: null
originalformat: null
o_height: null
o_width: null
datetaken: 2011-07-24 12:19:15
dateupload: 1323129718
tags: woman usa female fire smoke ps multiplicity clone ok medicinepark
license: 0
latitude: 34.727588
longitude: -98.502578
accuracy: 11
views: 28
interestingness: 77 out of 93

photo: 6468097131 31d10ac2f7 7034
owner: 64109888@N02
title: A reflection of our industrial past.
originalsecret: e77f413315
originalformat: jpg
o_height: 3176
o_width: 2493
datetaken: 2011-11-20 12:17:13
dateupload: 1323207889
tags: autumn reflection mill bottle industrial urbandecay panasonic stokeontrent kiln past staffordshire stoke flint dolby potteries trentandmerseycanal lyttonstreet dmctz5
license: 0
latitude: 53.003421
longitude: -2.179005
accuracy: 15
views: 23
interestingness: 78 out of 93

photo: 6440226247 817fa91877 7008
owner: 50567308@N00
title: All these riddles that you burn, all come running back to you"
originalsecret: null
originalformat: null
o_height: null
o_width: null
datetaken: 2011-11-30 15:32:17
dateupload: 1322806734
tags: california building palmsprings palmtree 365 project365
license: 1
latitude: 33.824811
longitude: -116.547045
accuracy: 14
views: 11
interestingness: 79 out of 93

photo: 6475512219 b48945fc9b 7175
owner: 59961745@N06
title: 37043_1977_03_Liverpool_St
originalsecret: null
originalformat: null
o_height: null
o_width: null
datetaken: 2011-12-08 06:20:32
dateupload: 1323325232
tags: 26thmarch
license: 0
latitude: 51.520934
longitude: -0.080015
accuracy: 15
views: 74
interestingness: 80 out of 93

photo: 6453095463 4f88307466 7150
owner: 99117185@N00
title: Dead Heat, 1999 at the Virginia Museum of Fine Arts (VMFA) Richmond VA
originalsecret: 9611517953
originalformat: jpg
o_height: 4288
o_width: 2848
datetaken: 2011-11-24 11:52:28
dateupload: 1323012680
tags: horses horse art museum race dead virginia us gallery fine arts 1999 richmond va heat racehorse vmfa
license: 0
latitude: 37.555805
longitude: -77.475028
accuracy: 16
views: 9
interestingness: 81 out of 93

photo: 6477020901 0552d0e841 7029
owner: 94283635@N00
title: A Nicely Decorated House
originalsecret: null
originalformat: null
o_height: null
o_width: null
datetaken: 2011-12-07 22:57:49
dateupload: 1323356297
tags: winter cold rooftop birds december pigeons flock houston tiles gathering
license: 0
latitude: 29.739637
longitude: -95.412225
accuracy: 13
views: 6
interestingness: 82 out of 93

photo: 6442821395 fc9d1749d6 7148
owner: 70981241@N00
title: Fort ?Furggels? - Bunker Pilz
originalsecret: fd62fbe51f
originalformat: jpg
o_height: 2442
o_width: 3660
datetaken: 2011-11-25 14:01:37
dateupload: 1322852497
tags: geotagged army schweiz switzerland suisse fort swiss military kecko ostschweiz bunker badragaz sg svizzera fortress armee pilz milit?r festung militaer 2011 pf?fers furggels stmargrethenberg swissphoto rheintalbild a6355 furkels geo:lat=4698181086936799 geo:lon=9508226337642668
license: 4
latitude: 46.98181
longitude: 9.508226
accuracy: 16
views: 14
interestingness: 83 out of 93

photo: 6451348067 aed959dc3d 7003
owner: 31864021@N08
title: Baring Head - Wellington New Zealand
originalsecret: null
originalformat: null
o_height: null
o_width: null
datetaken: 2011-12-03 11:50:37
dateupload: 1322986226
tags: sea newzealand sky cloud canon landscape wellington baringhead eastharbourregionalpark
license: 0
latitude: -41.409132
longitude: 174.868869
accuracy: 13
views: 14
interestingness: 84 out of 93

photo: 6447927025 659124120e 7015
owner: 45211254@N00
title: The family pets - Tortuga, Nicaragua
originalsecret: null
originalformat: null
o_height: null
o_width: null
datetaken: 2011-05-19 11:19:51
dateupload: 1322937295
tags: dog pet kitchen pig nicaragua tortuga rivas
license: 0
latitude: 11.158192
longitude: -85.754013
accuracy: 16
views: 14
interestingness: 85 out of 93

photo: 6464429953 3585ef06ce 7030
owner: 59961745@N06
title: 47321_1977_01_Burton
originalsecret: null
originalformat: null
o_height: null
o_width: null
datetaken: 2011-12-06 06:24:46
dateupload: 1323152686
tags: 29thjanuary
license: 0
latitude: 52.804489
longitude: -1.644757
accuracy: 16
views: 83
interestingness: 86 out of 93

photo: 6466972087 95a203a7f9 7007
owner: 16567230@N05
title: Pour water into pipe and run!
originalsecret: 24b8b8f8c8
originalformat: jpg
o_height: 1775
o_width: 1200
datetaken: 2011-11-30 12:33:37
dateupload: 1323194248
tags: holiday water volcano display lanzarote steam geyser parquenacionaldetimanfaya rutadelosvolcanes
license: 0
latitude: 29.000858
longitude: -13.751277
accuracy: 12
views: 20
interestingness: 87 out of 93

photo: 6464693923 9ed818ea73 7170
owner: 52544814@N00
title: Badwater Basin Boardwalk
originalsecret: null
originalformat: null
o_height: null
o_width: null
datetaken: 2011-11-23 22:30:48
dateupload: 1323157744
tags: california usa nationalpark salt deathvalley badwater badwaterbasin
license: 3
latitude: 36.248495
longitude: -116.804924
accuracy: 12
views: 18
interestingness: 88 out of 93

photo: 6447894867 0ae97a7b58 7152
owner: 67915611@N07
title: On top of all things..Why this?
originalsecret: null
originalformat: null
o_height: null
o_width: null
datetaken: 2011-12-03 11:18:33
dateupload: 1322936911
tags: uk england west maroon north cumbria railtour picnik carnforth bodysnatcher 57601 wcrc thestatesman 031211 carlislecitadelrailwaystation 1z32
license: 0
latitude: 54.890455
longitude: -2.934851
accuracy: 14
views: 50
interestingness: 89 out of 93

photo: 6455087009 f1baf51e59 7154
owner: 50434982@N00
title: floor heating, what else?...
originalsecret: null
originalformat: null
o_height: null
o_width: null
datetaken: 2011-12-04 14:09:44
dateupload: 1323032671
tags: cat switzerland chat suisse ch bulle 2011 minoute
license: 0
latitude: 46.621047
longitude: 7.071705
accuracy: 16
views: 6
interestingness: 90 out of 93

photo: 6451774849 ea31d15fa9 7151
owner: 10089490@N06
title: Mr Vikkis
originalsecret: a831ffb6f3
originalformat: jpg
o_height: 2105
o_width: 2525
datetaken: 2011-12-03 12:11:23
dateupload: 1322994504
tags: show uk england food man hot photo image bottles candid north stock eaten row eat cumbria stuff heat buy spicy chilli sell jars stalls thelakes foodie muncastercastle smaples ?2011tonyworrall tastecumbriachristmasfestival
license: 0
latitude: 54.354167
longitude: -3.377094
accuracy: 15
views: 13
interestingness: 91 out of 93

photo: 6445293623 56f56454df 7026
owner: 65315936@N00
title: Sticky Fingers
originalsecret: 5ef597a6ed
originalformat: jpg
o_height: 3634
o_width: 5500
datetaken: 2011-11-11 15:01:21
dateupload: 1322892943
tags: chicago wall restaurant bottles eat heat hotsauce cajun hdr gumbo hardwoodfloor pecanpie keylimepie stickyfingers peachpie garlandbuilding chocolatepeanutbutterpie
license: 1
latitude: 41.883584
longitude: -87.625921
accuracy: 16
views: 33
interestingness: 92 out of 93

photo: 6439856347 4847e3e2ea 7022
owner: 24604998@N00
title: Steam factory
originalsecret: 7566ffddef
originalformat: jpg
o_height: 1936
o_width: 1936
datetaken: 2011-12-01 07:57:28
dateupload: 1322799697
tags: canada vancouver steam hipstamatic centralheatdistribution
license: 0
latitude: 49.278333
longitude: -123.111667
accuracy: 16
views: 12
interestingness: 93 out of 93

photo: 6433759279 442b5fbffc 7149
owner: 94513428@N00
title: The Tipping Floor
originalsecret: null
originalformat: null
o_height: null
o_width: null
datetaken: 2011-11-11 10:59:09
dateupload: 1322701484
tags: garbage tour australia rubbish waste westernaustralia philscamera 111111 wastemanagement canningvale smrc rrrc livingsmart regionalresourcerecoverycentre tippingfloor wastecompostingfacility southernmetropolitanregionalcouncil
license: 0
latitude: -32.075715
longitude: 115.888515
accuracy: 16
views: 36
interestingness: 94 out of 93

photo: 6467887513 90f1fd4692 7168
owner: 67307569@N00
title: 1010 Latrobe Street, Melbourne
originalsecret: null
originalformat: null
o_height: null
o_width: null
datetaken: 2009-11-25 15:09:50
dateupload: 1323205366
tags: blue orange white black building architecture curtain australia melbourne architectural docklands striking architects 2009 opticalillusion offset distinctive walling precast ashtonraggattmcdougall lowenergy digitalharbour 450d concretepanels curtainwalling 1010latrobestreet visualcodes solarglazedcurtainwalling solarglazed munsterbergeffect lowtoxicity
license: 0
latitude: -37.814542
longitude: 144.945157
accuracy: 15
views: 9
interestingness: 95 out of 93

photo: 6451328857 b0b52b6ae0 7016
owner: 31864021@N08
title: Baring Head - Wellington New Zealand
originalsecret: null
originalformat: null
o_height: null
o_width: null
datetaken: 2011-12-03 11:22:52
dateupload: 1322985843
tags: sea newzealand sky cloud rural canon landscape wellington baringhead eastharbourregionalpark
license: 0
latitude: -41.409132
longitude: 174.868869
accuracy: 13
views: 10
interestingness: 96 out of 93

photo: 6451307027 9e8f11e23a 7174
owner: 31864021@N08
title: Baring Head - Wellington New Zealand
originalsecret: null
originalformat: null
o_height: null
o_width: null
datetaken: 2011-12-03 10:40:00
dateupload: 1322985384
tags: sea newzealand sky cloud canon landscape wellington baringhead eastharbourregionalpark
license: 0
latitude: -41.409132
longitude: 174.868869
accuracy: 13
views: 10
interestingness: 97 out of 93

photo: 6451271157 a45a3a845e 7169
owner: 31864021@N08
title: Baring Head - Wellington New Zealand
originalsecret: null
originalformat: null
o_height: null
o_width: null
datetaken: 2011-12-03 10:17:57
dateupload: 1322984707
tags: sea newzealand sky cloud rock canon landscape wellington baringhead eastharbourregionalpark
license: 0
latitude: -41.409132
longitude: 174.868869
accuracy: 13
views: 2
interestingness: 98 out of 93

photo: 6451186799 aa30cafbe6 7174
owner: 31864021@N08
title: Baring Head - Wellington New Zealand
originalsecret: null
originalformat: null
o_height: null
o_width: null
datetaken: 2011-12-03 09:43:06
dateupload: 1322983185
tags: sea newzealand sky cloud canon landscape wellington baringhead eastharbourregionalpark
license: 0
latitude: -41.409132
longitude: 174.868869
accuracy: 13
views: 12
interestingness: 99 out of 93

photo: 6466973517 5a64f80a5a 7007
owner: 16567230@N05
title: Pour water into pipe and run!
originalsecret: 2819fdec8a
originalformat: jpg
o_height: 1800
o_width: 1200
datetaken: 2011-11-30 12:33:47
dateupload: 1323194264
tags: holiday water volcano display lanzarote steam geyser parquenacionaldetimanfaya rutadelosvolcanes
license: 0
latitude: 29.000858
longitude: -13.751277
accuracy: 12
views: 20
interestingness: 100 out of 93

photo: 6461625547 116444d74c 7030
owner: 64109888@N02
title: A new home for Longton's pigeons.
originalsecret: 6f50775b40
originalformat: jpg
o_height: 2316
o_width: 3287
datetaken: 2011-12-03 10:15:04
dateupload: 1323115697
tags: winter urban architecture scaffolding pigeons sunny panasonic stokeontrent pottery staffordshire potteries a50 longton dmctz5 ayshfordstreet
license: 0
latitude: 52.985385
longitude: -2.136636
accuracy: 16
views: 25
interestingness: 101 out of 93

photo: 6445472637 6887c39168 7141
owner: 36618387@N06
title: IMG_9621_Immature Female Blue Dasher (Pachydiplax longipennis)
originalsecret: 78545dbd42
originalformat: jpg
o_height: 1867
o_width: 1837
datetaken: 2011-07-10 14:25:52
dateupload: 1322896859
tags: california dragonfly davis yolocounty pachydiplaxlongipennis obelisking femalebluedasher odonta dragonflyyoga californiatnc11 northdavispond
license: 0
latitude: 38.571467
longitude: -121.749286
accuracy: 16
views: 16
interestingness: 102 out of 93

photo: 6464266359 28fb2148fe 7154
owner: 28502440@N04
title: The Mysterious "Tree of Life" in Bahrain
originalsecret: null
originalformat: null
o_height: null
o_width: null
datetaken: 2011-12-06 08:36:40
dateupload: 1323149800
tags: life old hot tree water mystery garden bahrain sand desert mysterious eden barren jabal dukhan
license: 0
latitude: 25.971008
longitude: 50.498657
accuracy: 11
views: 14
interestingness: 103 out of 93

photo: 6445770977 d1b0182c12 7018
owner: 47087360@N03
title: white light white heat
originalsecret: null
originalformat: null
o_height: null
o_width: null
datetaken: 2011-11-30 09:50:37
dateupload: 1322903917
tags: 
license: 0
latitude: 41.236075
longitude: -81.566104
accuracy: 15
views: 16
interestingness: 104 out of 93

photo: 6444328825 833726649c 7148
owner: 34211328@N00
title: Heat haze
originalsecret: ebcb693f15
originalformat: jpg
o_height: 1680
o_width: 1583
datetaken: 2011-11-26 14:47:10
dateupload: 1322875493
tags: ottawa canadianparliament
license: 1
latitude: 45.424073
longitude: -75.698799
accuracy: 16
views: 19
interestingness: 105 out of 93

photo: 6441604781 5aaf250f35 7142
owner: 48086238@N06
title: Volcanically heated pool
originalsecret: null
originalformat: null
o_height: null
o_width: null
datetaken: 2011-09-23 08:07:58
dateupload: 1322835765
tags: water landscape volcano day outdoor steam minerals sulphur
license: 0
latitude: 43.616243
longitude: 144.441625
accuracy: 16
views: 15
interestingness: 106 out of 93

photo: 6440770961 f11c7f6f0f 7156
owner: 46821302@N07
title: B/Double Tippers
originalsecret: d8c47b2321
originalformat: jpg
o_height: 3264
o_width: 4928
datetaken: 2011-12-02 18:13:27
dateupload: 1322819260
tags: jerilderie truckstruckstransporthaulagegraintippersquarterdeckflickrnikonnewell hwyhighwaykenwortht908
license: 0
latitude: -35.418314
longitude: 145.689115
accuracy: 14
views: 17
interestingness: 107 out of 93

photo: 6473496253 387377421c 7032
owner: 58879180@N07
title: When you can't make them see the light, make them feel the heat.
originalsecret: null
originalformat: null
o_height: null
o_width: null
datetaken: 2011-12-07 23:56:13
dateupload: 1323292267
tags: 
license: 0
latitude: 51.922828
longitude: 4.478449
accuracy: 11
views: 31
interestingness: 108 out of 93

photo: 6472688663 3d7dc296a1 7026
owner: 53599366@N04
title: 2011-11-25_New House
originalsecret: 7401ea787a
originalformat: jpg
o_height: 933
o_width: 1402
datetaken: 2011-12-07 13:11:02
dateupload: 1323281462
tags: houses architecture buildings newhouse newstreet newsubdivision
license: 0
latitude: 42.942035
longitude: -82.118489
accuracy: 14
views: 8
interestingness: 109 out of 93

photo: 6437987543 ae8214f19f 7168
owner: 87876404@N00
title: Saturday Market 11 25 08.jpg
originalsecret: 824bf35752
originalformat: jpg
o_height: 800
o_width: 600
datetaken: 2011-11-25 13:03:08
dateupload: 1322771855
tags: holiday festival oregon market crafts fair eugene product holidaymarket
license: 0
latitude: 44.04387
longitude: -123.104435
accuracy: 15
views: 39
interestingness: 110 out of 93

photo: 6479285717 98890ea6be 7001
owner: 52365139@N05
title: Central Heating Intelligence: The SparkStation
originalsecret: e2e9ec8323
originalformat: jpg
o_height: 5202
o_width: 3465
datetaken: 2011-12-08 21:34:40
dateupload: 1323388596
tags: december arnhem thenetherlands 2011 koningsweg hackerspace canoneos7d hack42 tamron18270mmf3563diiivcpzd kkn6
license: 5
latitude: 52.035346
longitude: 5.879337
accuracy: 15
views: 9
interestingness: 111 out of 93

photo: 6479282155 babac15e3e 7002
owner: 52365139@N05
title: Central heating pipes, valves and furnace heat exchanger
originalsecret: 8d12397955
originalformat: jpg
o_height: 5202
o_width: 3465
datetaken: 2011-12-08 21:33:42
dateupload: 1323388530
tags: december arnhem thenetherlands 2011 koningsweg hackerspace canoneos7d hack42 tamron18270mmf3563diiivcpzd kkn6
license: 5
latitude: 52.035346
longitude: 5.879337
accuracy: 15
views: 9
interestingness: 112 out of 93

photo: 6477007595 f9cb868f3d 7144
owner: 55027967@N07
title: Get Better Heat, Save Money by Going Hybrid This Winter
originalsecret: null
originalformat: null
o_height: null
o_width: null
datetaken: 2007-07-21 14:11:00
dateupload: 1323356092
tags: money home general system gas pump hybrid gasfurnace greentech heatpumps newsusa applicationengineer dualfuelsystems usingelectricity
license: 0
latitude: 38.899101
longitude: -77.028999
accuracy: 11
views: 15
interestingness: 113 out of 93

photo: 6474715621 9ffd3921bd 7020
owner: 73819323@N00
title: Warren Maxwell
originalsecret: null
originalformat: null
o_height: null
o_width: null
datetaken: 2011-12-07 22:07:19
dateupload: 1323311315
tags: newzealand musician bass guitar guitarist wairarapa crosscreekbluesclub warrenmaxwell thetinhut vinylbison
license: 0
latitude: -41.117383
longitude: 175.384325
accuracy: 13
views: 1
interestingness: 114 out of 93

photo: 6474394185 bed924b046 7011
owner: 37423935@N00
title: Singapore courier
originalsecret: null
originalformat: null
o_height: null
o_width: null
datetaken: 2011-11-25 08:36:33
dateupload: 1323305977
tags: motion blur green bike bicycle speed movement nikon singapore cyclist riding singlespeed messenger nikkor courier panning rider messengerbag rafflesplace bikemessenger courierbag greenbike 18200mm d40 bikecourier
license: 0
latitude: 1.293779
longitude: 103.853256
accuracy: 11
views: 78
interestingness: 115 out of 93

photo: 6474354965 24bc1d36ab 7015
owner: 10845359@N02
title: OHSU and PDX 2
originalsecret: b0bf1a6138
originalformat: jpg
o_height: 2304
o_width: 3456
datetaken: 2011-12-07 11:27:52
dateupload: 1323305335
tags: from above city bridge bus tree car sign oregon portland french book bottle check december crossing printer box library burger tram coke ticket aerial patient stop cap fries repair return button disabled diet streetcar citizen ohsu in 2011 honored oregonhealthandscienceuniversity shrinershospitalforchildren artpetsgmailcom parkermichaelknight
license: 4
latitude: 45.499579
longitude: -122.685259
accuracy: 16
views: 0
interestingness: 116 out of 93

photo: 6469562837 88acdcaa80 7164
owner: 63505562@N02
title: Busted
originalsecret: null
originalformat: null
o_height: null
o_width: null
datetaken: 2011-12-07 14:32:53
dateupload: 1323228773
tags: park nature lamp animal zoo meerkat heat taronga enclosure zoological
license: 0
latitude: -33.843972
longitude: 151.24114
accuracy: 13
views: 17
interestingness: 117 out of 93

photo: 6468324197 0512813ff5 7035
owner: 92156325@N00
title: The only smiling face around here
originalsecret: 1453d2607e
originalformat: jpg
o_height: 1944
o_width: 2592
datetaken: 2011-08-22 13:56:54
dateupload: 1323210575
tags: uk london geotagged unitedkingdom transport croydon roundel reevescorner geo:long=010539 england2011riots geo:lat=5137400
license: 0
latitude: 51.374
longitude: -0.10539
accuracy: 16
views: 5
interestingness: 118 out of 93

photo: 6467218771 7cebfbe72c 7005
owner: 70127529@N00
title: DAVIS AND WARSHOW Mural, Harlem, New York City
originalsecret: null
originalformat: null
o_height: null
o_width: null
datetaken: 2011-12-05 12:09:30
dateupload: 1323197193
tags: street city nyc woman ny newyork art graffiti mural harlem manhattan plumbing pedestrian davis sylvia heating cru 2007 tats warshow 154street
license: 0
latitude: 40.8282
longitude: -73.937001
accuracy: 16
views: 10
interestingness: 119 out of 93

photo: 6466847419 a2aa60577c 7014
owner: 34237437@N05
title: Paraiba Tourmaline (3.89cts)
originalsecret: 33b1e0fa7a
originalformat: jpg
o_height: 5144
o_width: 5144
datetaken: 2011-12-06 15:32:04
dateupload: 1323192724
tags: stones db precious gems pedras tourmaline paraiba duarte gemstones batalha elbaite joia bastos gemas preciosas turmalina dbprecious
license: 0
latitude: -17.851982
longitude: -41.509094
accuracy: 9
views: 9
interestingness: 120 out of 93

photo: 6466695173 f8cdcc5464 7031
owner: 40424780@N07
title: Cremation Ceremony 6th December 2011 (Ubud, Bali)
originalsecret: 9787d49cd0
originalformat: jpg
o_height: 1240
o_width: 827
datetaken: 2011-12-06 13:49:20
dateupload: 1323190815
tags: family bali forest temple fire monkey hands december hand government jalan shiva pura 6th ubud cremation 2011
license: 0
latitude: -8.50496
longitude: 115.254928
accuracy: 11
views: 20
interestingness: 121 out of 93

photo: 6461088849 8a42071bdc 7028
owner: 7718153@N04
title: Al Shahaniyah camel race
originalsecret: null
originalformat: null
o_height: null
o_width: null
datetaken: 2008-04-25 15:51:23
dateupload: 1323109842
tags: qatar camelrace alshahaniyah
license: 0
latitude: 25.40436
longitude: 51.208477
accuracy: 12
views: 6
interestingness: 122 out of 93

photo: 6461079695 9a4ffa1d7c 7003
owner: 7718153@N04
title: Al Shahaniyah camel race
originalsecret: null
originalformat: null
o_height: null
o_width: null
datetaken: 2008-04-25 15:59:56
dateupload: 1323109737
tags: qatar camelrace alshahaniyah
license: 0
latitude: 25.40436
longitude: 51.208477
accuracy: 12
views: 3
interestingness: 123 out of 93

photo: 6458120039 528fa0375d 7003
owner: 30685080@N00
title: Roasted pork
originalsecret: null
originalformat: null
o_height: null
o_width: null
datetaken: 2011-11-24 17:08:34
dateupload: 1323066472
tags: red food holiday cooking kitchen metal dinner recipe lunch pepper cuisine healthy iron dish cut fat nobody fresh sage meat roast gourmet pork cast stove steak rosemary meal heat cutting onion portion cooked fried loin herb baked tenderloin skillet roasted sirloin cholesterol prepared seasoned
license: 0
latitude: 38.949388
longitude: -119.961234
accuracy: 16
views: 4
interestingness: 124 out of 93

photo: 6458117879 c7be212276 7004
owner: 30685080@N00
title: Roasted pork
originalsecret: null
originalformat: null
o_height: null
o_width: null
datetaken: 2011-11-24 17:08:27
dateupload: 1323066439
tags: red food holiday cooking kitchen metal dinner recipe lunch pepper cuisine healthy iron dish cut fat nobody fresh sage meat roast gourmet pork cast stove steak rosemary meal heat cutting onion portion cooked fried loin herb baked tenderloin skillet roasted sirloin cholesterol prepared seasoned
license: 0
latitude: 38.949388
longitude: -119.961234
accuracy: 16
views: 5
interestingness: 125 out of 93

photo: 6457176007 029b9234cf 7026
owner: 48787174@N03
title: Former Elder-Beerman At Woodville Mall
originalsecret: 95bbcf5d12
originalformat: jpg
o_height: 1936
o_width: 2592
datetaken: 2011-12-02 16:07:15
dateupload: 1323054508
tags: ohio abandoned retail mall decay creepy departmentstore northwood woodville woodcounty deadmall elderbeerman
license: 0
latitude: 41.6055
longitude: -83.459334
accuracy: 16
views: 35
interestingness: 126 out of 93

photo: 6456877883 c6b535e1bb 7159
owner: 24893739@N00
title: Burning Away
originalsecret: 41182c2aff
originalformat: jpg
o_height: 3168
o_width: 4752
datetaken: 2010-07-12 10:22:02
dateupload: 1323051281
tags: newmexico route66 desert dry highdesert orderhere since1908 westernnewmexico usegallupsouthwesterncoal 100heat 100value producedbygallupsouthwesterncoalco rexhistoricalmuseum galluphistoricalmuseum galluphistoricalsociety historyoftheregionscoalminingindustry i40sights
license: 0
latitude: 35.526503
longitude: -108.74804
accuracy: 12
views: 4
interestingness: 127 out of 93

photo: 6453794127 14017e478c 7142
owner: 71266843@N03
title: Ju Xiang Yuan Restaurant, Ottawa - Gong Bao Ji Ding
originalsecret: null
originalformat: null
o_height: null
o_width: null
datetaken: 2011-08-17 11:49:21
dateupload: 1323019850
tags: vacation food chicken restaurant chinatown ottawa kung pao ju yuan xiang gongbaojiding
license: 5
latitude: 45.411853
longitude: -75.704826
accuracy: 15
views: 1
interestingness: 128 out of 93

photo: 6452536363 8e544f90dc 7032
owner: 71201735@N03
title: Energized Education
originalsecret: null
originalformat: null
o_height: null
o_width: null
datetaken: 2011-06-02 18:38:21
dateupload: 1323006062
tags: building architecture geotagged deutschland aachen deu nordrheinwestfalen heizkraftwerk superc rwthaachenuniversity heatandpowerplant seminarrooms geo:lat=5077780250 geo:lon=607852936
license: 0
latitude: 50.777785
longitude: 6.078609
accuracy: 16
views: 8
interestingness: 129 out of 93

photo: 6451332021 c1a01fc29d 7145
owner: 31864021@N08
title: Baring Head - Wellington New Zealand
originalsecret: null
originalformat: null
o_height: null
o_width: null
datetaken: 2011-12-03 11:27:58
dateupload: 1322985906
tags: sea newzealand sky cloud rural canon landscape hills wellington baringhead eastharbourregionalpark
license: 0
latitude: -41.409132
longitude: 174.868869
accuracy: 13
views: 9
interestingness: 130 out of 93

photo: 6451326423 0634254a78 7141
owner: 31864021@N08
title: Baring Head - Wellington New Zealand
originalsecret: null
originalformat: null
o_height: null
o_width: null
datetaken: 2011-12-03 11:22:46
dateupload: 1322985793
tags: sea newzealand sky cloud rural canon landscape wellington baringhead eastharbourregionalpark
license: 0
latitude: -41.409132
longitude: 174.868869
accuracy: 13
views: 9
interestingness: 131 out of 93

photo: 6451313755 3b1fd5a529 7146
owner: 31864021@N08
title: Baring Head - Wellington New Zealand
originalsecret: null
originalformat: null
o_height: null
o_width: null
datetaken: 2011-12-03 10:43:56
dateupload: 1322985521
tags: newzealand canon landscape wellington cabbagetree baringhead cordyline cordylineaustralis tikouka eastharbourregionalpark
license: 0
latitude: -41.409132
longitude: 174.868869
accuracy: 13
views: 7
interestingness: 132 out of 93

photo: 6451268357 341a437826 7035
owner: 31864021@N08
title: Baring Head - Wellington New Zealand
originalsecret: null
originalformat: null
o_height: null
o_width: null
datetaken: 2011-12-03 10:17:27
dateupload: 1322984657
tags: sea newzealand sky cloud rock canon landscape wellington baringhead eastharbourregionalpark
license: 0
latitude: -41.409132
longitude: 174.868869
accuracy: 13
views: 2
interestingness: 133 out of 93

photo: 6451218479 56eb54da4b 7160
owner: 31864021@N08
title: Sand convolvulus - Calystegia soldanella - Baring Head - Wellington New Zealand
originalsecret: null
originalformat: null
o_height: null
o_width: null
datetaken: 2011-12-03 09:58:03
dateupload: 1322983754
tags: newzealand flower canon landscape wellington baringhead calystegiasoldanella convolvulus eastharbourregionalpark sandconvolvulus
license: 0
latitude: -41.409132
longitude: 174.868869
accuracy: 13
views: 5
interestingness: 134 out of 93

photo: 6451202961 c41d395c1e 7171
owner: 31864021@N08
title: Baring Head - Wellington New Zealand
originalsecret: null
originalformat: null
o_height: null
o_width: null
datetaken: 2011-12-03 09:55:45
dateupload: 1322983472
tags: sea newzealand sky cloud canon landscape sand wellington baringhead eastharbourregionalpark
license: 0
latitude: -41.409132
longitude: 174.868869
accuracy: 13
views: 3
interestingness: 135 out of 93

photo: 6451200285 f1176e7310 7168
owner: 31864021@N08
title: Baring Head - Wellington New Zealand
originalsecret: null
originalformat: null
o_height: null
o_width: null
datetaken: 2011-12-03 09:55:31
dateupload: 1322983423
tags: sea newzealand sky cloud canon landscape sand wellington baringhead eastharbourregionalpark
license: 0
latitude: -41.409132
longitude: 174.868869
accuracy: 13
views: 2
interestingness: 136 out of 93

photo: 6451195351 557d6debf0 7006
owner: 31864021@N08
title: Baring Head - Wellington New Zealand
originalsecret: null
originalformat: null
o_height: null
o_width: null
datetaken: 2011-12-03 09:50:29
dateupload: 1322983339
tags: newzealand sky cloud flower canon landscape wellington lupin baringhead yellowlupin eastharbourregionalpark
license: 0
latitude: -41.409132
longitude: 174.868869
accuracy: 13
views: 3
interestingness: 137 out of 93

photo: 6451192281 f48f8f453b 7173
owner: 31864021@N08
title: Baring Head - Wellington New Zealand
originalsecret: null
originalformat: null
o_height: null
o_width: null
datetaken: 2011-12-03 09:48:25
dateupload: 1322983283
tags: sea newzealand sky cloud canon landscape sand wellington baringhead eastharbourregionalpark
license: 0
latitude: -41.409132
longitude: 174.868869
accuracy: 13
views: 4
interestingness: 138 out of 93

photo: 6451177383 35f490b630 7173
owner: 31864021@N08
title: Baring Head - Wellington New Zealand
originalsecret: null
originalformat: null
o_height: null
o_width: null
datetaken: 2011-12-03 09:35:49
dateupload: 1322983006
tags: newzealand sky cloud flower canon landscape wellington lupin baringhead eastharbourregionalpark
license: 0
latitude: -41.409132
longitude: 174.868869
accuracy: 13
views: 6
interestingness: 139 out of 93

photo: 6451174335 54b9ce81f5 7160
owner: 31864021@N08
title: Baring Head - Wellington New Zealand
originalsecret: null
originalformat: null
o_height: null
o_width: null
datetaken: 2011-12-03 09:32:53
dateupload: 1322982948
tags: newzealand sky cloud flower canon landscape wellington lupin baringhead eastharbourregionalpark
license: 0
latitude: -41.409132
longitude: 174.868869
accuracy: 13
views: 4
interestingness: 140 out of 93

photo: 6451167781 781693b42e 7148
owner: 31864021@N08
title: Baring Head - Wellington New Zealand
originalsecret: null
originalformat: null
o_height: null
o_width: null
datetaken: 2011-12-03 09:32:16
dateupload: 1322982836
tags: newzealand sky cloud flower canon landscape wellington lupin baringhead eastharbourregionalpark
license: 0
latitude: -41.409132
longitude: 174.868869
accuracy: 13
views: 6
interestingness: 141 out of 93

photo: 6451165139 c510ffdbaa 7006
owner: 31864021@N08
title: Baring Head - Wellington New Zealand
originalsecret: null
originalformat: null
o_height: null
o_width: null
datetaken: 2011-12-03 09:32:16
dateupload: 1322982790
tags: newzealand sky cloud flower canon landscape wellington lupin baringhead eastharbourregionalpark
license: 0
latitude: -41.409132
longitude: 174.868869
accuracy: 13
views: 6
interestingness: 142 out of 93

photo: 6449485845 064e4841df 7015
owner: 71266843@N03
title: 2011-02-14 Spicy Beef shreds
originalsecret: null
originalformat: null
o_height: null
o_width: null
datetaken: 2011-02-13 06:36:44
dateupload: 1322957348
tags: food house beef carrot daikon chilli nunavut 409 iqaluit shreds
license: 5
latitude: 63.745529
longitude: -68.504594
accuracy: 16
views: 0
interestingness: 143 out of 93

photo: 6447411359 c32667ed66 7163
owner: 26361100@N06
title: HAIRTRIGGER LAKE
originalsecret: null
originalformat: null
o_height: null
o_width: null
datetaken: 2008-08-17 13:03:41
dateupload: 1322931152
tags: trees summer mountains color water forest photography landscapes photos lakes meadows waterscapes
license: 0
latitude: 49.593669
longitude: -125.848129
accuracy: 16
views: 15
interestingness: 144 out of 93

photo: 6443000613 800c20e657 7143
owner: 70981241@N00
title: Fort ?Furggels? - Bunker Pilz
originalsecret: 0fda53d1ab
originalformat: jpg
o_height: 3406
o_width: 2268
datetaken: 2011-11-25 14:10:44
dateupload: 1322854904
tags: geotagged army schweiz switzerland suisse fort swiss military kecko ostschweiz bunker badragaz sg svizzera fortress armee pilz milit?r festung militaer 2011 pf?fers furggels stmargrethenberg swissphoto rheintalbild a6355 furkels geo:lat=46981830998097024 geo:lon=95081780578804
license: 4
latitude: 46.98183
longitude: 9.508178
accuracy: 16
views: 17
interestingness: 145 out of 93

photo: 6441922659 8d53aedafc 7156
owner: 21503473@N02
title: 3315 Lakewood . Handsome Lakeview Mansion for Luxury Home Buyer
originalsecret: null
originalformat: null
o_height: null
o_width: null
datetaken: 2011-12-02 09:37:55
dateupload: 1322840275
tags: rooftopdeck chicagorealestate gourmetkitchen woodburningfireplace southportcorridor therealestateloungechicago tommccarey spalikebath lakeviewluxuryhome lakeviewopenhouse 3315lakewood burleyschooldistrict allmasonryhome garagetopdeck radiantheatedlowerlevel
license: 0
latitude: 41.942085
longitude: -87.661354
accuracy: 15
views: 4
interestingness: 146 out of 93

photo: 6441921409 48b5980f32 7147
owner: 21503473@N02
title: 3315 Lakewood . Handsome Lakeview Mansion for Luxury Home Buyer
originalsecret: null
originalformat: null
o_height: null
o_width: null
datetaken: 2011-12-02 09:37:37
dateupload: 1322840257
tags: rooftopdeck chicagorealestate gourmetkitchen woodburningfireplace southportcorridor therealestateloungechicago tommccarey spalikebath lakeviewluxuryhome lakeviewopenhouse 3315lakewood burleyschooldistrict allmasonryhome garagetopdeck radiantheatedlowerlevel
license: 0
latitude: 41.942085
longitude: -87.661354
accuracy: 15
views: 2
interestingness: 147 out of 93

photo: 6441920411 b4954deba7 7150
owner: 21503473@N02
title: 3315 Lakewood . Handsome Lakeview Mansion for Luxury Home Buyer
originalsecret: null
originalformat: null
o_height: null
o_width: null
datetaken: 2011-12-02 09:37:23
dateupload: 1322840243
tags: rooftopdeck chicagorealestate gourmetkitchen woodburningfireplace southportcorridor therealestateloungechicago tommccarey spalikebath lakeviewluxuryhome lakeviewopenhouse 3315lakewood burleyschooldistrict allmasonryhome garagetopdeck radiantheatedlowerlevel
license: 0
latitude: 41.942085
longitude: -87.661354
accuracy: 15
views: 3
interestingness: 148 out of 93

photo: 6441919235 478e862755 7172
owner: 21503473@N02
title: 3315 Lakewood . Handsome Lakeview Mansion for Luxury Home Buyer
originalsecret: null
originalformat: null
o_height: null
o_width: null
datetaken: 2011-12-02 09:37:06
dateupload: 1322840226
tags: rooftopdeck chicagorealestate gourmetkitchen woodburningfireplace southportcorridor therealestateloungechicago tommccarey spalikebath lakeviewluxuryhome lakeviewopenhouse 3315lakewood burleyschooldistrict allmasonryhome garagetopdeck radiantheatedlowerlevel
license: 0
latitude: 41.942085
longitude: -87.661354
accuracy: 15
views: 2
interestingness: 149 out of 93

photo: 6441917871 03194a7d51 7007
owner: 21503473@N02
title: 3315 Lakewood . Handsome Lakeview Mansion for Luxury Home Buyer
originalsecret: null
originalformat: null
o_height: null
o_width: null
datetaken: 2011-12-02 09:36:47
dateupload: 1322840207
tags: rooftopdeck chicagorealestate gourmetkitchen woodburningfireplace southportcorridor therealestateloungechicago tommccarey spalikebath lakeviewluxuryhome lakeviewopenhouse 3315lakewood burleyschooldistrict allmasonryhome garagetopdeck radiantheatedlowerlevel
license: 0
latitude: 41.942085
longitude: -87.661354
accuracy: 15
views: 4
interestingness: 150 out of 93

photo: 6441916895 ba053f6761 7171
owner: 21503473@N02
title: 3315 Lakewood . Handsome Lakeview Mansion for Luxury Home Buyer
originalsecret: null
originalformat: null
o_height: null
o_width: null
datetaken: 2011-12-02 09:36:33
dateupload: 1322840193
tags: rooftopdeck chicagorealestate gourmetkitchen woodburningfireplace southportcorridor therealestateloungechicago tommccarey spalikebath lakeviewluxuryhome lakeviewopenhouse 3315lakewood burleyschooldistrict allmasonryhome garagetopdeck radiantheatedlowerlevel
license: 0
latitude: 41.942085
longitude: -87.661354
accuracy: 15
views: 3
interestingness: 151 out of 93

photo: 6441916459 c7ab30339f 7155
owner: 21503473@N02
title: 3315 Lakewood . Handsome Lakeview Mansion for Luxury Home Buyer
originalsecret: null
originalformat: null
o_height: null
o_width: null
datetaken: 2011-12-02 09:36:28
dateupload: 1322840188
tags: rooftopdeck chicagorealestate gourmetkitchen woodburningfireplace southportcorridor therealestateloungechicago tommccarey spalikebath lakeviewluxuryhome lakeviewopenhouse 3315lakewood burleyschooldistrict allmasonryhome garagetopdeck radiantheatedlowerlevel
license: 0
latitude: 41.942085
longitude: -87.661354
accuracy: 15
views: 2
interestingness: 152 out of 93

photo: 6441915285 6e3c2ac0e5 7144
owner: 21503473@N02
title: 3315 Lakewood . Handsome Lakeview Mansion for Luxury Home Buyer
originalsecret: null
originalformat: null
o_height: null
o_width: null
datetaken: 2011-12-02 09:36:11
dateupload: 1322840171
tags: rooftopdeck chicagorealestate gourmetkitchen woodburningfireplace southportcorridor therealestateloungechicago tommccarey spalikebath lakeviewluxuryhome lakeviewopenhouse 3315lakewood burleyschooldistrict allmasonryhome garagetopdeck radiantheatedlowerlevel
license: 0
latitude: 41.942085
longitude: -87.661354
accuracy: 15
views: 3
interestingness: 153 out of 93

photo: 6441914095 056ae2970c 7173
owner: 21503473@N02
title: 3315 Lakewood . Handsome Lakeview Mansion for Luxury Home Buyer
originalsecret: null
originalformat: null
o_height: null
o_width: null
datetaken: 2011-12-02 09:35:55
dateupload: 1322840155
tags: rooftopdeck chicagorealestate gourmetkitchen woodburningfireplace southportcorridor therealestateloungechicago tommccarey spalikebath lakeviewluxuryhome lakeviewopenhouse 3315lakewood burleyschooldistrict allmasonryhome garagetopdeck radiantheatedlowerlevel
license: 0
latitude: 41.942085
longitude: -87.661354
accuracy: 15
views: 4
interestingness: 154 out of 93

photo: 6441913713 2168beee30 7153
owner: 21503473@N02
title: 3315 Lakewood . Handsome Lakeview Mansion for Luxury Home Buyer
originalsecret: null
originalformat: null
o_height: null
o_width: null
datetaken: 2011-12-02 09:35:50
dateupload: 1322840150
tags: rooftopdeck chicagorealestate gourmetkitchen woodburningfireplace southportcorridor therealestateloungechicago tommccarey spalikebath lakeviewluxuryhome lakeviewopenhouse 3315lakewood burleyschooldistrict allmasonryhome garagetopdeck radiantheatedlowerlevel
license: 0
latitude: 41.942085
longitude: -87.661354
accuracy: 15
views: 2
interestingness: 155 out of 93

photo: 6441913329 68fec76065 7167
owner: 21503473@N02
title: 3315 Lakewood . Handsome Lakeview Mansion for Luxury Home Buyer
originalsecret: null
originalformat: null
o_height: null
o_width: null
datetaken: 2011-12-02 09:35:45
dateupload: 1322840145
tags: rooftopdeck chicagorealestate gourmetkitchen woodburningfireplace southportcorridor therealestateloungechicago tommccarey spalikebath lakeviewluxuryhome lakeviewopenhouse 3315lakewood burleyschooldistrict allmasonryhome garagetopdeck radiantheatedlowerlevel
license: 0
latitude: 41.942085
longitude: -87.661354
accuracy: 15
views: 2
interestingness: 156 out of 93

photo: 6441912763 d15ebb1508 7146
owner: 21503473@N02
title: 3315 Lakewood . Handsome Lakeview Mansion for Luxury Home Buyer
originalsecret: null
originalformat: null
o_height: null
o_width: null
datetaken: 2011-12-02 09:35:37
dateupload: 1322840137
tags: rooftopdeck chicagorealestate gourmetkitchen woodburningfireplace southportcorridor therealestateloungechicago tommccarey spalikebath lakeviewluxuryhome lakeviewopenhouse 3315lakewood burleyschooldistrict allmasonryhome garagetopdeck radiantheatedlowerlevel
license: 0
latitude: 41.942085
longitude: -87.661354
accuracy: 15
views: 4
interestingness: 157 out of 93

photo: 6441912337 4eb4a6bb7c 7152
owner: 21503473@N02
title: 3315 Lakewood . Handsome Lakeview Mansion for Luxury Home Buyer
originalsecret: null
originalformat: null
o_height: null
o_width: null
datetaken: 2011-12-02 09:35:31
dateupload: 1322840131
tags: rooftopdeck chicagorealestate gourmetkitchen woodburningfireplace southportcorridor therealestateloungechicago tommccarey spalikebath lakeviewluxuryhome lakeviewopenhouse 3315lakewood burleyschooldistrict allmasonryhome garagetopdeck radiantheatedlowerlevel
license: 0
latitude: 41.942085
longitude: -87.661354
accuracy: 15
views: 4
interestingness: 158 out of 93

photo: 6441911363 49e72ab3bf 7141
owner: 21503473@N02
title: 3315 Lakewood . Handsome Lakeview Mansion for Luxury Home Buyer
originalsecret: null
originalformat: null
o_height: null
o_width: null
datetaken: 2011-12-02 09:35:17
dateupload: 1322840117
tags: rooftopdeck chicagorealestate gourmetkitchen woodburningfireplace southportcorridor therealestateloungechicago tommccarey spalikebath lakeviewluxuryhome lakeviewopenhouse 3315lakewood burleyschooldistrict allmasonryhome garagetopdeck radiantheatedlowerlevel
license: 0
latitude: 41.942085
longitude: -87.661354
accuracy: 15
views: 2
interestingness: 159 out of 93

photo: 6441910927 4109e5c1f4 7008
owner: 21503473@N02
title: 3315 Lakewood . Handsome Lakeview Mansion for Luxury Home Buyer
originalsecret: null
originalformat: null
o_height: null
o_width: null
datetaken: 2011-12-02 09:35:11
dateupload: 1322840111
tags: rooftopdeck chicagorealestate gourmetkitchen woodburningfireplace southportcorridor therealestateloungechicago tommccarey spalikebath lakeviewluxuryhome lakeviewopenhouse 3315lakewood burleyschooldistrict allmasonryhome garagetopdeck radiantheatedlowerlevel
license: 0
latitude: 41.942085
longitude: -87.661354
accuracy: 15
views: 2
interestingness: 160 out of 93

photo: 6439900063 c3069e6232 7159
owner: 99069150@N00
title: Kerwin John on Just Heat
originalsecret: 3434a34029
originalformat: jpg
o_height: 2848
o_width: 4288
datetaken: 2011-09-05 18:25:00
dateupload: 1322800469
tags: ca horses del mar 10 horseracing pamela delmarracetrack johndel schreckengostpamschreckcomrace marrainy daypaddockjust heatkerwin
license: 0
latitude: 32.976286
longitude: -117.262616
accuracy: 14
views: 0
interestingness: 161 out of 93

photo: 6439863177 9e8595361b 7157
owner: 99069150@N00
title: Just Heat
originalsecret: 788a3fecd6
originalformat: jpg
o_height: 2848
o_width: 4288
datetaken: 2011-09-05 18:23:36
dateupload: 1322799812
tags: ca horses rainyday horseracing delmar paddock delmarracetrack justheat pamelaschreckengost pamschreckcom race10delmar
license: 0
latitude: 32.976286
longitude: -117.262616
accuracy: 14
views: 0
interestingness: 162 out of 93

photo: 6439822347 a70781d14e 7144
owner: 99069150@N00
title: Just Heat
originalsecret: a8f865022f
originalformat: jpg
o_height: 2848
o_width: 4288
datetaken: 2011-09-05 18:14:31
dateupload: 1322799113
tags: ca horses del mar 10 horseracing pamela delmarracetrack schreckengostpamschreckcomrace marrainy daypaddockjust heatdel
license: 0
latitude: 32.976286
longitude: -117.262616
accuracy: 14
views: 0
interestingness: 163 out of 93

photo: 6439816823 f39452f4c6 7146
owner: 99069150@N00
title: Just Heat
originalsecret: ef57bc950a
originalformat: jpg
o_height: 2848
o_width: 4288
datetaken: 2011-09-05 18:14:23
dateupload: 1322799021
tags: ca horses del mar 10 horseracing pamela delmarracetrack schreckengostpamschreckcomrace marrainy daypaddockjust heatdel
license: 0
latitude: 32.976286
longitude: -117.262616
accuracy: 14
views: 1
interestingness: 164 out of 93

photo: 6437717881 01f18cea08 7142
owner: 10496603@N07
title: 
originalsecret: null
originalformat: null
o_height: null
o_width: null
datetaken: 2011-12-01 19:37:17
dateupload: 1322768237
tags: shadow house hot green home contrast fire lomo lca xpro lomography log fireplace warm glow bright timber crossprocess flames lounge grain lofi slidefilm burn heat portsmouth hearth late vignette
license: 0
latitude: 50.797194
longitude: -1.056157
accuracy: 16
views: 9
interestingness: 165 out of 93

photo: 6437589281 814c0c00b2 7142
owner: 71204096@N04
title: Solar-heating-Solar-thermal-Hampshire
originalsecret: null
originalformat: null
o_height: null
o_width: null
datetaken: 2009-11-19 15:24:38
dateupload: 1322766468
tags: solarhampshire solarenergyhampshire solarpowerhampshire solarpanelshampshire solarsystemshampshire solarcompanyhampshire solarwinchester solarenergywinchester solarpowerwinchester solarpanelswinchester solarsystemswinchester solarcompanywinchester solarhotwaterhampshire solarthermalhampshire solarheatinghampshire solarinstallershampshire solarhotwaterwinchester solarthermalwinchester solarheatingwinchester solarinstallerswinchester
license: 0
latitude: 51.023743
longitude: -1.296215
accuracy: 12
views: 0
interestingness: 166 out of 93

photo: 6437588377 e5420de8d7 7144
owner: 71204096@N04
title: Solar-hot-water-Hampshire
originalsecret: null
originalformat: null
o_height: null
o_width: null
datetaken: 2010-11-05 11:12:40
dateupload: 1322766454
tags: solarhampshire solarenergyhampshire solarpowerhampshire solarpanelshampshire solarsystemshampshire solarcompanyhampshire solarwinchester solarenergywinchester solarpowerwinchester solarpanelswinchester solarsystemswinchester solarcompanywinchester solarhotwaterhampshire solarthermalhampshire solarheatinghampshire solarinstallershampshire solarhotwaterwinchester solarthermalwinchester solarheatingwinchester solarinstallerswinchester
license: 0
latitude: 51.023743
longitude: -1.296215
accuracy: 12
views: 0
interestingness: 167 out of 93

photo: 6437302237 7db7d2c055 7010
owner: 71173537@N05
title: Solar-heating-Solar-thermal-Bristol
originalsecret: null
originalformat: null
o_height: null
o_width: null
datetaken: 2010-06-29 15:59:26
dateupload: 1322762496
tags: solarbristol solarpanelsbristol solarsomerset solarpanelssomerset solarenergybristol solarpowerbristol solarsystemsbristol solarcompanybristol solarinstallerbristol solarpvbristol solarenergysomerset solarpowersomerset solarsystemssomerset solarcompanysomerset
license: 0
latitude: 51.452723
longitude: -2.59346
accuracy: 11
views: 0
interestingness: 168 out of 93

photo: 6435531941 fe4a349fb2 7155
owner: 24568808@N04
title: Jamiroquai - Lyon, le 30/11/2011
originalsecret: fe0bfb01fd
originalformat: jpg
o_height: 960
o_width: 1280
datetaken: 2011-11-30 21:46:21
dateupload: 1322733580
tags: concert lyon jamiroquai halle dragster jaykay tonygarnier spacecowboy 69000 canneheat
license: 0
latitude: 45.731467
longitude: 4.824886
accuracy: 14
views: 26
interestingness: 169 out of 93

photo: 6435531387 5b1862ed5a 7145
owner: 24568808@N04
title: Jamiroquai - Lyon, le 30/11/2011
originalsecret: 3515bdd0da
originalformat: jpg
o_height: 960
o_width: 1280
datetaken: 2011-11-30 21:43:21
dateupload: 1322733567
tags: concert lyon jamiroquai halle dragster jaykay tonygarnier spacecowboy 69000 canneheat
license: 0
latitude: 45.731467
longitude: 4.824886
accuracy: 14
views: 21
interestingness: 170 out of 93

photo: 6435530773 671cb1dc10 7158
owner: 24568808@N04
title: Jamiroquai - Lyon, le 30/11/2011
originalsecret: 53af8271a1
originalformat: jpg
o_height: 960
o_width: 1280
datetaken: 2011-11-30 21:41:42
dateupload: 1322733552
tags: concert lyon jamiroquai halle dragster jaykay tonygarnier spacecowboy 69000 canneheat
license: 0
latitude: 45.731467
longitude: 4.824886
accuracy: 14
views: 20
interestingness: 171 out of 93

photo: 6435530285 b9927be7c6 7165
owner: 24568808@N04
title: Jamiroquai - Lyon, le 30/11/2011
originalsecret: f0ed4d61f2
originalformat: jpg
o_height: 960
o_width: 1280
datetaken: 2011-11-30 21:41:35
dateupload: 1322733539
tags: concert lyon jamiroquai halle dragster jaykay tonygarnier spacecowboy 69000 canneheat
license: 0
latitude: 45.731467
longitude: 4.824886
accuracy: 14
views: 17
interestingness: 172 out of 93

photo: 6435529783 6d0c1f4001 7173
owner: 24568808@N04
title: Jamiroquai - Lyon, le 30/11/2011
originalsecret: 6c4f263723
originalformat: jpg
o_height: 960
o_width: 1280
datetaken: 2011-11-30 21:41:27
dateupload: 1322733526
tags: concert lyon jamiroquai halle dragster jaykay tonygarnier spacecowboy 69000 canneheat
license: 0
latitude: 45.731467
longitude: 4.824886
accuracy: 14
views: 17
interestingness: 173 out of 93

photo: 6480535845 2fec2e328f 7032
owner: 26004180@N00
title: RMMR11 3591
originalsecret: null
originalformat: null
o_height: null
o_width: null
datetaken: 2011-08-20 12:52:35
dateupload: 1323411276
tags: reunion monterey motorsports rolex transam lagunaseca historics mazdaraceway 2011
license: 0
latitude: 36.582262
longitude: -121.75803
accuracy: 15
views: 2
interestingness: 174 out of 93

photo: 6479219771 7d7c7b358f 7168
owner: 40586164@N07
title: Drought Stress at Elm Lake
originalsecret: ecd01ceeea
originalformat: jpg
o_height: 720
o_width: 576
datetaken: 2011-12-08 12:41:48
dateupload: 1323387443
tags: statepark sky cloud texas drought brazosbend
license: 4
latitude: 29.37649
longitude: -95.606117
accuracy: 11
views: 3
interestingness: 175 out of 93

photo: 6472688651 0da0315313 7034
owner: 53599366@N04
title: 2011-11-25_New House
originalsecret: 8b0db0fafd
originalformat: jpg
o_height: 933
o_width: 1402
datetaken: 2011-12-07 13:11:02
dateupload: 1323281462
tags: houses architecture buildings newhouse newstreet newsubdivision
license: 0
latitude: 42.942224
longitude: -82.11836
accuracy: 14
views: 8
interestingness: 176 out of 93

photo: 6468317309 cb920c3318 7030
owner: 92156325@N00
title: Fire hydrant / fire damage
originalsecret: 78e4cabc5d
originalformat: jpg
o_height: 2592
o_width: 1944
datetaken: 2011-08-22 13:50:38
dateupload: 1323210557
tags: uk london geotagged unitedkingdom croydon reevescorner geo:long=010539 england2011riots geo:lat=5137400
license: 0
latitude: 51.374
longitude: -0.10539
accuracy: 16
views: 6
interestingness: 177 out of 93

photo: 6466972731 b78f4f2765 7158
owner: 16567230@N05
title: Pour water into pipe and run!
originalsecret: b5d30e5be0
originalformat: jpg
o_height: 1800
o_width: 1200
datetaken: 2011-11-30 12:33:37
dateupload: 1323194256
tags: holiday water volcano display lanzarote steam geyser parquenacionaldetimanfaya rutadelosvolcanes
license: 0
latitude: 29.000858
longitude: -13.751277
accuracy: 12
views: 21
interestingness: 178 out of 93

photo: 6451344861 3bb0170ca4 7168
owner: 31864021@N08
title: Baring Head - Wellington New Zealand
originalsecret: null
originalformat: null
o_height: null
o_width: null
datetaken: 2011-12-03 11:50:23
dateupload: 1322986161
tags: cloud sea sky baringhead landscape wellington newzealand eastharbourregionalpark canon
license: 0
latitude: -41.409132
longitude: 174.868869
accuracy: 13
views: 5
interestingness: 179 out of 93

photo: 6451341945 ae36ed4bae 7149
owner: 31864021@N08
title: Baring Head - Wellington New Zealand
originalsecret: null
originalformat: null
o_height: null
o_width: null
datetaken: 2011-12-03 11:43:15
dateupload: 1322986104
tags: sea newzealand sky cloud canon landscape wellington baringhead eastharbourregionalpark
license: 0
latitude: -41.409132
longitude: 174.868869
accuracy: 13
views: 4
interestingness: 180 out of 93

photo: 6451339459 d0f19aef94 7174
owner: 31864021@N08
title: Baring Head - Wellington New Zealand
originalsecret: null
originalformat: null
o_height: null
o_width: null
datetaken: 2011-12-03 11:43:05
dateupload: 1322986055
tags: sea newzealand sky cloud canon landscape wellington baringhead eastharbourregionalpark
license: 0
latitude: -41.409132
longitude: 174.868869
accuracy: 13
views: 3
interestingness: 181 out of 93

photo: 6451337161 b8e3f3b198 7171
owner: 31864021@N08
title: Baring Head - Wellington New Zealand
originalsecret: null
originalformat: null
o_height: null
o_width: null
datetaken: 2011-12-03 11:41:33
dateupload: 1322986008
tags: sea newzealand sky cloud canon landscape wellington baringhead eastharbourregionalpark
license: 0
latitude: -41.409132
longitude: 174.868869
accuracy: 13
views: 5
interestingness: 182 out of 93

photo: 6451323061 397ec30d18 7002
owner: 31864021@N08
title: Baring Head - Wellington New Zealand
originalsecret: null
originalformat: null
o_height: null
o_width: null
datetaken: 2011-12-03 11:21:22
dateupload: 1322985722
tags: sea newzealand sky cloud canon landscape wellington baringhead eastharbourregionalpark
license: 0
latitude: -41.409132
longitude: 174.868869
accuracy: 13
views: 7
interestingness: 183 out of 93

photo: 6451320973 08aef1e688 7145
owner: 31864021@N08
title: Baring Head - Wellington New Zealand
originalsecret: null
originalformat: null
o_height: null
o_width: null
datetaken: 2011-12-03 11:21:13
dateupload: 1322985676
tags: sea newzealand sky cloud canon landscape wellington baringhead eastharbourregionalpark
license: 0
latitude: -41.409132
longitude: 174.868869
accuracy: 13
views: 10
interestingness: 184 out of 93

photo: 6451318487 02f9dbb1ea 7173
owner: 31864021@N08
title: Baring Head - Wellington New Zealand
originalsecret: null
originalformat: null
o_height: null
o_width: null
datetaken: 2011-12-03 11:13:22
dateupload: 1322985623
tags: sea newzealand sky cloud canon landscape wellington baringhead eastharbourregionalpark
license: 0
latitude: -41.409132
longitude: 174.868869
accuracy: 13
views: 8
interestingness: 185 out of 93

photo: 6451316209 80267c7f4d 7020
owner: 31864021@N08
title: Baring Head - Wellington New Zealand
originalsecret: null
originalformat: null
o_height: null
o_width: null
datetaken: 2011-12-03 10:52:31
dateupload: 1322985575
tags: sea newzealand sky cloud canon landscape wellington baringhead eastharbourregionalpark
license: 0
latitude: -41.409132
longitude: 174.868869
accuracy: 13
views: 8
interestingness: 186 out of 93

photo: 6451304361 d7b5684a3c 7034
owner: 31864021@N08
title: Baring Head - Wellington New Zealand
originalsecret: null
originalformat: null
o_height: null
o_width: null
datetaken: 2011-12-03 10:35:10
dateupload: 1322985333
tags: sea newzealand sky cloud canon landscape wellington baringhead eastharbourregionalpark
license: 0
latitude: -41.409132
longitude: 174.868869
accuracy: 13
views: 8
interestingness: 187 out of 93

photo: 6451301017 0622518f9e 7029
owner: 31864021@N08
title: Baring Head - Wellington New Zealand
originalsecret: null
originalformat: null
o_height: null
o_width: null
datetaken: 2011-12-03 10:33:10
dateupload: 1322985271
tags: sea newzealand sky cloud canon landscape wellington baringhead eastharbourregionalpark
license: 0
latitude: -41.409132
longitude: 174.868869
accuracy: 13
views: 4
interestingness: 188 out of 93

photo: 6451292603 218e8633db 7017
owner: 31864021@N08
title: Baring Head - Wellington New Zealand
originalsecret: null
originalformat: null
o_height: null
o_width: null
datetaken: 2011-12-03 10:30:28
dateupload: 1322985107
tags: sea newzealand sky cloud canon landscape wellington baringhead eastharbourregionalpark
license: 0
latitude: -41.409132
longitude: 174.868869
accuracy: 13
views: 6
interestingness: 189 out of 93

photo: 6451289847 fee61cdf35 7018
owner: 31864021@N08
title: Baring Head - Wellington New Zealand
originalsecret: null
originalformat: null
o_height: null
o_width: null
datetaken: 2011-12-03 10:30:23
dateupload: 1322985052
tags: sea newzealand sky cloud canon landscape wellington baringhead eastharbourregionalpark
license: 0
latitude: -41.409132
longitude: 174.868869
accuracy: 13
views: 1
interestingness: 190 out of 93

photo: 6451286941 d1163c55d4 7167
owner: 31864021@N08
title: Baring Head - Wellington New Zealand
originalsecret: null
originalformat: null
o_height: null
o_width: null
datetaken: 2011-12-03 10:28:08
dateupload: 1322984996
tags: sea newzealand sky cloud canon landscape wellington baringhead eastharbourregionalpark
license: 0
latitude: -41.409132
longitude: 174.868869
accuracy: 13
views: 1
interestingness: 191 out of 93

photo: 6451284193 6933fc1d73 7026
owner: 31864021@N08
title: Baring Head - Wellington New Zealand
originalsecret: null
originalformat: null
o_height: null
o_width: null
datetaken: 2011-12-03 10:28:04
dateupload: 1322984943
tags: sea newzealand sky cloud canon landscape wellington baringhead eastharbourregionalpark
license: 0
latitude: -41.409132
longitude: 174.868869
accuracy: 13
views: 1
interestingness: 192 out of 93

photo: 6451280851 d1f539bdc1 7164
owner: 31864021@N08
title: Baring Head - Wellington New Zealand
originalsecret: null
originalformat: null
o_height: null
o_width: null
datetaken: 2011-12-03 10:21:24
dateupload: 1322984881
tags: newzealand sky cloud rock canon landscape wellington baringhead eastharbourregionalpark
license: 0
latitude: -41.409132
longitude: 174.868869
accuracy: 13
views: 1
interestingness: 193 out of 93

photo: 6451277557 89c36ba9b0 7003
owner: 31864021@N08
title: Baring Head - Wellington New Zealand
originalsecret: null
originalformat: null
o_height: null
o_width: null
datetaken: 2011-12-03 10:19:48
dateupload: 1322984823
tags: newzealand sky cloud rock canon landscape wellington baringhead eastharbourregionalpark
license: 0
latitude: -41.409132
longitude: 174.868869
accuracy: 13
views: 1
interestingness: 194 out of 93

photo: 6451274353 88c7907083 7013
owner: 31864021@N08
title: Baring Head - Wellington New Zealand
originalsecret: null
originalformat: null
o_height: null
o_width: null
datetaken: 2011-12-03 10:18:35
dateupload: 1322984764
tags: newzealand sky cloud rock canon landscape wellington baringhead eastharbourregionalpark
license: 0
latitude: -41.409132
longitude: 174.868869
accuracy: 13
views: 1
interestingness: 195 out of 93

photo: 6451265623 6caf2c09a7 7159
owner: 31864021@N08
title: Baring Head - Wellington New Zealand
originalsecret: null
originalformat: null
o_height: null
o_width: null
datetaken: 2011-12-03 10:16:58
dateupload: 1322984606
tags: newzealand sky cloud rock canon landscape wellington baringhead eastharbourregionalpark
license: 0
latitude: -41.409132
longitude: 174.868869
accuracy: 13
views: 1
interestingness: 196 out of 93

photo: 6451262381 64a458e088 7034
owner: 31864021@N08
title: Baring Head - Wellington New Zealand
originalsecret: null
originalformat: null
o_height: null
o_width: null
datetaken: 2011-12-03 10:16:52
dateupload: 1322984545
tags: newzealand sky cloud rock canon landscape wellington baringhead eastharbourregionalpark
license: 0
latitude: -41.409132
longitude: 174.868869
accuracy: 13
views: 1
interestingness: 197 out of 93

photo: 6451250127 c16eeed645 7155
owner: 31864021@N08
title: Baring Head - Wellington New Zealand
originalsecret: null
originalformat: null
o_height: null
o_width: null
datetaken: 2011-12-03 10:10:33
dateupload: 1322984322
tags: newzealand sky cloud rock canon landscape wellington baringhead eastharbourregionalpark
license: 0
latitude: -41.409132
longitude: 174.868869
accuracy: 13
views: 1
interestingness: 198 out of 93

photo: 6451243159 20f22381e6 7001
owner: 31864021@N08
title: Baring Head - Wellington New Zealand
originalsecret: null
originalformat: null
o_height: null
o_width: null
datetaken: 2011-12-03 10:09:37
dateupload: 1322984195
tags: newzealand sky cloud rock canon landscape wellington baringhead eastharbourregionalpark
license: 0
latitude: -41.409132
longitude: 174.868869
accuracy: 13
views: 1
interestingness: 199 out of 93

photo: 6451238969 b4960ae068 7011
owner: 31864021@N08
title: Baring Head - Wellington New Zealand
originalsecret: null
originalformat: null
o_height: null
o_width: null
datetaken: 2011-12-03 10:09:04
dateupload: 1322984121
tags: newzealand sky cloud rock canon landscape wellington baringhead eastharbourregionalpark
license: 0
latitude: -41.409132
longitude: 174.868869
accuracy: 13
views: 2
interestingness: 200 out of 93

photo: 6451235259 83ba0b51e4 7028
owner: 31864021@N08
title: Baring Head - Wellington New Zealand
originalsecret: null
originalformat: null
o_height: null
o_width: null
datetaken: 2011-12-03 10:07:53
dateupload: 1322984057
tags: newzealand sky cloud rock canon landscape wellington baringhead eastharbourregionalpark
license: 0
latitude: -41.409132
longitude: 174.868869
accuracy: 13
views: 2
interestingness: 201 out of 93

photo: 6451232245 61df472dff 7014
owner: 31864021@N08
title: Baring Head - Wellington New Zealand
originalsecret: null
originalformat: null
o_height: null
o_width: null
datetaken: 2011-12-03 10:07:40
dateupload: 1322984005
tags: newzealand sky cloud rock canon landscape wellington baringhead eastharbourregionalpark
license: 0
latitude: -41.409132
longitude: 174.868869
accuracy: 13
views: 1
interestingness: 202 out of 93

photo: 6451230081 0e3390997f 7008
owner: 31864021@N08
title: Baring Head - Wellington New Zealand
originalsecret: null
originalformat: null
o_height: null
o_width: null
datetaken: 2011-12-03 10:07:39
dateupload: 1322983965
tags: newzealand sky cloud rock canon landscape wellington baringhead eastharbourregionalpark
license: 0
latitude: -41.409132
longitude: 174.868869
accuracy: 13
views: 2
interestingness: 203 out of 93

photo: 6451227353 f85d7766f2 7158
owner: 31864021@N08
title: Baring Head - Wellington New Zealand
originalsecret: null
originalformat: null
o_height: null
o_width: null
datetaken: 2011-12-03 10:06:09
dateupload: 1322983914
tags: newzealand sky cloud rock canon landscape wellington baringhead eastharbourregionalpark
license: 0
latitude: -41.409132
longitude: 174.868869
accuracy: 13
views: 2
interestingness: 204 out of 93

photo: 6451225261 4237e53d1c 7172
owner: 31864021@N08
title: Baring Head - Wellington New Zealand
originalsecret: null
originalformat: null
o_height: null
o_width: null
datetaken: 2011-12-03 10:05:59
dateupload: 1322983876
tags: newzealand sky cloud rock canon landscape wellington baringhead eastharbourregionalpark
license: 0
latitude: -41.409132
longitude: 174.868869
accuracy: 13
views: 4
interestingness: 205 out of 93

photo: 6451222613 d9c869e130 7016
owner: 31864021@N08
title: Baring Head - Wellington New Zealand
originalsecret: null
originalformat: null
o_height: null
o_width: null
datetaken: 2011-12-03 10:02:45
dateupload: 1322983828
tags: newzealand sky cloud flower canon landscape wellington baringhead eastharbourregionalpark
license: 0
latitude: -41.409132
longitude: 174.868869
accuracy: 13
views: 8
interestingness: 206 out of 93

photo: 6451190037 1a2f03b42c 7005
owner: 31864021@N08
title: Baring Head - Wellington New Zealand
originalsecret: null
originalformat: null
o_height: null
o_width: null
datetaken: 2011-12-03 09:44:07
dateupload: 1322983242
tags: sea newzealand sky cloud canon landscape wellington baringhead eastharbourregionalpark
license: 0
latitude: -41.409132
longitude: 174.868869
accuracy: 13
views: 2
interestingness: 207 out of 93

photo: 6451181223 27b1746bfe 7014
owner: 31864021@N08
title: Baring Head - Wellington New Zealand
originalsecret: null
originalformat: null
o_height: null
o_width: null
datetaken: 2011-12-03 09:42:47
dateupload: 1322983076
tags: sea newzealand sky cloud canon landscape wellington baringhead eastharbourregionalpark
license: 0
latitude: -41.409132
longitude: 174.868869
accuracy: 13
views: 6
interestingness: 208 out of 93

photo: 6451171163 d9ac64f7af 7166
owner: 31864021@N08
title: Baring Head - Wellington New Zealand
originalsecret: null
originalformat: null
o_height: null
o_width: null
datetaken: 2011-12-03 09:32:34
dateupload: 1322982894
tags: newzealand sky flower canon landscape wellington lupin baringhead eastharbourregionalpark
license: 0
latitude: -41.409132
longitude: 174.868869
accuracy: 13
views: 6
interestingness: 209 out of 93

photo: 6444129003 c6853e8cc5 7032
owner: 15530177@N05
title: IMG_9224
originalsecret: null
originalformat: null
o_height: null
o_width: null
datetaken: 2011-11-24 21:14:57
dateupload: 1322871780
tags: hockey northcarolina fayetteville 2011 crowncoliseum canonxsi stadiumsandarenas fayettevillefireantz augustariverhawks
license: 0
latitude: 35.015238
longitude: -78.891797
accuracy: 16
views: 0
interestingness: 210 out of 93

photo: 6444127157 5bea97078c 7027
owner: 15530177@N05
title: IMG_9223
originalsecret: null
originalformat: null
o_height: null
o_width: null
datetaken: 2011-11-24 21:14:50
dateupload: 1322871748
tags: hockey northcarolina fayetteville 2011 crowncoliseum canonxsi stadiumsandarenas fayettevillefireantz augustariverhawks
license: 0
latitude: 35.015238
longitude: -78.891797
accuracy: 16
views: 0
interestingness: 211 out of 93

photo: 6444066281 a315c10d39 7020
owner: 15530177@N05
title: IMG_9136
originalsecret: null
originalformat: null
o_height: null
o_width: null
datetaken: 2011-11-24 20:44:52
dateupload: 1322870699
tags: hockey northcarolina fayetteville 2011 crowncoliseum canonxsi stadiumsandarenas fayettevillefireantz augustariverhawks
license: 0
latitude: 35.015238
longitude: -78.891797
accuracy: 16
views: 1
interestingness: 212 out of 93

photo: 6442449625 532db7985f 7007
owner: 22516573@N07
title: Butterhofs interior
originalsecret: null
originalformat: null
o_height: null
o_width: null
datetaken: 2011-11-25 16:12:54
dateupload: 1322848029
tags: retail store farm interior stove heating supply feedstore butterhofs
license: 0
latitude: 39.540165
longitude: -74.664491
accuracy: 16
views: 2
interestingness: 213 out of 93

photo: 6438346765 69d182f06c 7008
owner: 33734254@N03
title: Meerkats
originalsecret: null
originalformat: null
o_height: null
o_width: null
datetaken: 2011-12-01 21:52:25
dateupload: 1322776345
tags: england bw zoo cornwall newquay meerkats
license: 0
latitude: 50.420222
longitude: -5.071563
accuracy: 11
views: 5
interestingness: 214 out of 93

photo: 6451297703 170bbeaa99 7168
