
mintime: 1322697600 maxtime: 1322782178.2
numimgs: 238
total pages: 1
visiting only 1 pages ( up to 250 images)
photo: 6436418833 54f8ef9db5 7017
owner: 24990828@N04
title: des is da Flori
originalsecret: 23baabc051
originalformat: jpg
o_height: 3537
o_width: 4831
datetaken: 2011-12-01 15:32:19
dateupload: 1322750507
tags: sky horse mountains alps nature landscape south himmel berge explore alm alpen landschaft alto alpi pferd tyrol dolomites dolomiti s?dtirol adige dolomiten explored entdecken d5100
license: 0
latitude: 46.540679
longitude: 11.723442
accuracy: 11
views: 387
interestingness: 1 out of 238

photo: 6436086787 daca8730e6 7173
owner: 34125818@N06
title: Snoopy
originalsecret: null
originalformat: null
o_height: null
o_width: null
datetaken: 2011-11-28 17:14:57
dateupload: 1322764101
tags: november autumn portrait horse mist fog germany deutschland hessen herbst wideangle powershot snoopy pferd haflinger odenwald weitwinkel bergstrasse s?dhessen supershot g10 bphotor
license: 0
latitude: 49.616567
longitude: 8.688472
accuracy: 14
views: 170
interestingness: 2 out of 238

photo: 6435992713 75cdf300fa 7032
owner: 25440983@N06
title: 
originalsecret: 1897c38c1b
originalformat: jpg
o_height: 1939
o_width: 2585
datetaken: 2011-09-13 11:35:43
dateupload: 1322743458
tags: horses grass yellow photography photo sneaking 2011 ceca durmitor zabljak montnegro sweetfreedom? piscepolje
license: 0
latitude: 43.195415
longitude: 19.202728
accuracy: 10
views: 108
interestingness: 3 out of 238

photo: 6436551907 82ac0e56a5 7030
owner: 37077400@N04
title: Palomino
originalsecret: 513e575ee6
originalformat: jpg
o_height: 2580
o_width: 3579
datetaken: 2011-10-13 10:42:21
dateupload: 1322752463
tags: ranch horse usa canon idaho
license: 0
latitude: 43.464756
longitude: -114.245681
accuracy: 11
views: 591
interestingness: 4 out of 238

photo: 6431797669 70df94080c 7164
owner: 37587204@N05
title: Fairy princess in wonderland
originalsecret: null
originalformat: null
o_height: null
o_width: null
datetaken: 2011-11-28 17:42:10
dateupload: 1322742130
tags: horse colors girl children wonder kid colorful child ride princess little mirrors fairy amusementpark wonderland merrygoround bangladesh shahbag ligh 2011 shishupark gettyimagesbangladeshq2 gettyimagesbangladeshq3
license: 0
latitude: 23.7098
longitude: 90.407112
accuracy: 11
views: 160
interestingness: 5 out of 238

photo: 6433815223 e2496650b8 7011
owner: 59007947@N04
title: Hunter with Eagle
originalsecret: null
originalformat: null
o_height: null
o_width: null
datetaken: 2011-03-05 12:28:45
dateupload: 1322702305
tags: horse snow eagle mongolia hunter kazakh ulaanbaatar
license: 0
latitude: 47.928501
longitude: 106.912307
accuracy: 11
views: 85
interestingness: 6 out of 238

photo: 6433926099 3d38b2c133 7017
owner: 24666388@N07
title: Caseys Cupcakes@Mission Inn, Riverside, Ca
originalsecret: f882f88174
originalformat: jpg
o_height: 4272
o_width: 2848
datetaken: 2011-11-27 21:21:16
dateupload: 1322703966
tags: california christmas winter horses holiday tree canon festive religious lights downtown december arch carriage riverside religion arcade columns arches christmastree christmaslights lanterns mission vendor panning crepes missioninn lightroom 2011 concumerism outlawmenacephotography
license: 0
latitude: 33.982873
longitude: -117.37293
accuracy: 16
views: 60
interestingness: 7 out of 238

photo: 6436034471 6515467b5e 7173
owner: 37256371@N02
title: With their manes in the wind - Con sus crines al viento
originalsecret: null
originalformat: null
o_height: null
o_width: null
datetaken: 2011-10-09 13:22:36
dateupload: 1322744210
tags: horse argentina caballo tucum?n trancas
license: 0
latitude: -26.23851
longitude: -65.272293
accuracy: 10
views: 91
interestingness: 8 out of 238

photo: 6436369797 a80286a67e 7173
owner: 36623903@N06
title: Beautiful Day
originalsecret: null
originalformat: null
o_height: null
o_width: null
datetaken: 2011-10-15 15:16:54
dateupload: 1322749781
tags: blue trees sky horse white green nature clouds fence raw maine naturallight equine countryroads hff newgloucester pineland nikond90 vickilundphotography colorsnatural ?copywrite
license: 0
latitude: 43.893176
longitude: -70.256752
accuracy: 14
views: 87
interestingness: 9 out of 238

photo: 6437626853 b1761b7615 7025
owner: 41324237@N07
title: The Buttermarket
originalsecret: 0946785896
originalformat: jpg
o_height: 1739
o_width: 1419
datetaken: 2011-10-03 09:43:17
dateupload: 1322766983
tags: old uk england horse tractor english heritage history rural countryside village britain norfolk british plough hamlet agricultural eastanglia ploughing villagesign buttermarket eastlexham intobreckland
license: 0
latitude: 52.717838
longitude: 0.750288
accuracy: 13
views: 42
interestingness: 10 out of 238

photo: 6433822205 e051a8c2d0 7157
owner: 24666388@N07
title: Mission Inn, Riverside, Ca
originalsecret: 37f60ac2b3
originalformat: jpg
o_height: 2129
o_width: 3193
datetaken: 2011-11-27 20:11:33
dateupload: 1322702404
tags: california christmas winter horses holiday tree canon festive religious lights downtown december arch carriage riverside religion arcade columns arches christmastree christmaslights lanterns mission vendor panning crepes missioninn lightroom 2011 worldflowers mygearandme concumerism outlawmenacephotography
license: 0
latitude: 33.982873
longitude: -117.37293
accuracy: 16
views: 36
interestingness: 11 out of 238

photo: 6435316619 8e39fdf88d 7010
owner: 40014214@N06
title: Lago Ercina / Lake Ercina
originalsecret: null
originalformat: null
o_height: null
o_width: null
datetaken: 2011-10-24 17:07:48
dateupload: 1322728268
tags: show travel light vacation horses horse lake holiday luz valencia colors grass fog clouds canon vintage landscape geotagged lago caballo caballos photography eos tour autum asturias colores bn tokina nubes oto?o niebla f28 116 mmb fotografo ercina cesped fotograf?a covadonga 1116 apsc xti 400d principadodeasturias mmbfotografia
license: 0
latitude: 43.270518
longitude: -4.982128
accuracy: 14
views: 84
interestingness: 12 out of 238

photo: 6433556231 b3445961bb 7154
owner: 43307230@N00
title: a night at the races
originalsecret: c55bb7c446
originalformat: jpg
o_height: 2424
o_width: 3687
datetaken: 2011-11-18 22:21:57
dateupload: 1322698434
tags: chairs april horseraces losalamitosracetrack d5100 35mmf18g
license: 0
latitude: 33.807001
longitude: -118.048696
accuracy: 13
views: 68
interestingness: 13 out of 238

photo: 6433814949 ced35b1c10 7025
owner: 24666388@N07
title: Mission Inn, Riverside, Ca
originalsecret: 38714e282e
originalformat: jpg
o_height: 4272
o_width: 2848
datetaken: 2011-11-27 20:04:05
dateupload: 1322702302
tags: california christmas winter horses holiday tree canon festive religious lights downtown december arch carriage riverside religion arcade columns arches christmastree christmaslights lanterns mission vendor panning crepes missioninn lightroom 2011 concumerism outlawmenacephotography
license: 0
latitude: 33.982873
longitude: -117.37293
accuracy: 16
views: 27
interestingness: 14 out of 238

photo: 6436198199 8f32a97d2b 7169
owner: 45923298@N00
title: Benson, AZ Quarter Horse Motel horse with rider
originalsecret: null
originalformat: null
o_height: null
o_width: null
datetaken: 2011-11-30 21:38:05
dateupload: 1322747092
tags: arizona horse sign neon motel az benson rider rvpark
license: 0
latitude: 31.97119
longitude: -110.311843
accuracy: 16
views: 39
interestingness: 15 out of 238

photo: 6433811573 b0cb0a9deb 7033
owner: 24666388@N07
title: Mission Inn, Riverside, Ca
originalsecret: f681e7038f
originalformat: jpg
o_height: 4272
o_width: 2848
datetaken: 2011-11-27 20:05:09
dateupload: 1322702253
tags: california christmas winter horses holiday tree canon festive religious lights downtown december arch carriage riverside religion arcade columns arches christmastree christmaslights lanterns mission nights vendor 1001nights panning crepes 1001 missioninn lightroom 2011 concumerism outlawmenacephotography
license: 0
latitude: 33.982873
longitude: -117.37293
accuracy: 16
views: 29
interestingness: 16 out of 238

photo: 6437836011 7740dced2a 7160
owner: 82651989@N00
title: Horse on a cliff at Sao Miguel. Azores.
originalsecret: e4d8e094f1
originalformat: jpg
o_height: 3456
o_width: 5184
datetaken: 2011-05-15 18:23:02
dateupload: 1322769830
tags: ocean horse seascape portugal landscape atlantic coastline viewpoint atlanticocean azores saomiguel a?ores ribeiragrande scenicsnotjustlandscapes miradourodesantairia
license: 0
latitude: 37.818191
longitude: -25.453124
accuracy: 11
views: 31
interestingness: 17 out of 238

photo: 6433881347 202fa45599 7013
owner: 24666388@N07
title: Mission Inn, Riverside, Ca
originalsecret: 42e15d2b4c
originalformat: jpg
o_height: 2848
o_width: 4272
datetaken: 2011-11-27 20:52:44
dateupload: 1322703280
tags: california christmas winter horses holiday tree canon festive religious lights downtown december arch carriage riverside religion arcade columns arches christmastree christmaslights lanterns mission vendor panning crepes missioninn lightroom 2011 concumerism outlawmenacephotography
license: 0
latitude: 33.982873
longitude: -117.37293
accuracy: 16
views: 25
interestingness: 18 out of 238

photo: 6434957541 9f91530330 7031
owner: 60087371@N00
title: 'Bands' of Brothers
originalsecret: null
originalformat: null
o_height: null
o_width: null
datetaken: 2011-10-30 14:49:43
dateupload: 1322720239
tags: horse asian asia southeastasia traditional malaysia borneo sabah aasia asean tamu nationalgeographic bajau kotabelud tamubesar tamubesarkotabelud afsvrzoomnikkor70300mmf4556gifed earthasia discoveryphotos ?flickraward? ?flickrtravelaward?
license: 0
latitude: 6.350125
longitude: 116.42611
accuracy: 14
views: 27
interestingness: 19 out of 238

photo: 6433913107 6b282c700b 7003
owner: 24666388@N07
title: Mission Inn, Riverside, Ca
originalsecret: 14b53391ab
originalformat: jpg
o_height: 2848
o_width: 4272
datetaken: 2011-11-27 21:04:56
dateupload: 1322703758
tags: california christmas winter horses holiday tree canon festive religious lights downtown december arch carriage riverside religion arcade columns arches christmastree christmaslights lanterns mission vendor panning crepes missioninn lightroom 2011 concumerism outlawmenacephotography
license: 0
latitude: 33.982873
longitude: -117.37293
accuracy: 16
views: 38
interestingness: 20 out of 238

photo: 6433804651 a9d1b1e1c9 7016
owner: 24666388@N07
title: Mission Inn, Riverside, Ca
originalsecret: 4def449ec7
originalformat: jpg
o_height: 1876
o_width: 4272
datetaken: 2011-11-27 20:01:19
dateupload: 1322702155
tags: california christmas winter horses holiday tree canon festive religious lights downtown december arch carriage riverside religion arcade columns arches christmastree christmaslights lanterns mission vendor panning crepes missioninn lightroom 2011 concumerism outlawmenacephotography
license: 0
latitude: 33.982873
longitude: -117.37293
accuracy: 16
views: 17
interestingness: 21 out of 238

photo: 6437381699 a1dbf3aa75 7150
owner: 21804434@N02
title: St Mary's Church, Helmingham, Suffolk
originalsecret: e89ce8687e
originalformat: jpg
o_height: 1196
o_width: 1800
datetaken: 2011-01-01 00:00:00
dateupload: 1322763594
tags: tower church suffolk stmary flint horsechestnut eastanglia helmingham gwuk guessedbysimonk
license: 1
latitude: 52.173132
longitude: 1.202166
accuracy: 16
views: 49
interestingness: 22 out of 238

photo: 6437628951 efc3127f3b 7157
owner: 10817753@N03
title: Stockholm 1911 or 2011?
originalsecret: 6fec5291ac
originalformat: jpg
o_height: 4569
o_width: 5232
datetaken: 2011-10-24 08:57:45
dateupload: 1322767011
tags: horse sepia carriage sweden stockholm djurg?rden h?st vagn djurg?rdsbron canoneos5dmarkii canonef24mmf14liiusm
license: 1
latitude: 59.330986
longitude: 18.093903
accuracy: 16
views: 81
interestingness: 23 out of 238

photo: 6435582285 9f0a887053 7033
owner: 57848406@N04
title: Riding Iceland 1985
originalsecret: 3cd893de0e
originalformat: jpg
o_height: 1644
o_width: 2626
datetaken: 1985-08-01 00:00:00
dateupload: 1322734871
tags: girls horses horse girl island iceland riding 1985 rider rida h?st h?star flickor hestamannam?t
license: 0
latitude: 63.973851
longitude: -21.080703
accuracy: 9
views: 52
interestingness: 24 out of 238

photo: 5939774329 a563c05cec 6142
owner: 93485355@N00
title: al trote, al trote, al galope, galope, galope
originalsecret: null
originalformat: null
o_height: null
o_width: null
datetaken: 2011-06-11 06:50:35
dateupload: 1322761334
tags: horses caballos krakow mateo polonia cracovia carreta img3910
license: 0
latitude: 50.06007
longitude: 19.93259
accuracy: 11
views: 45
interestingness: 25 out of 238

photo: 6437129461 cd65b19a20 7005
owner: 71036593@N03
title: Prancing horse 1.12.11
originalsecret: null
originalformat: null
o_height: null
o_width: null
datetaken: 2011-12-01 16:52:51
dateupload: 1322760250
tags: car ferrari redcar
license: 0
latitude: 55.513996
longitude: -4.322401
accuracy: 16
views: 34
interestingness: 26 out of 238

photo: 6436195633 f465bbcd4c 7030
owner: 45923298@N00
title: Benson, AZ Quarter Horse Motel sign
originalsecret: null
originalformat: null
o_height: null
o_width: null
datetaken: 2011-11-30 21:37:59
dateupload: 1322747048
tags: arizona horse sign neon motel az benson rider rvpark
license: 0
latitude: 31.97119
longitude: -110.311843
accuracy: 16
views: 34
interestingness: 27 out of 238

photo: 6433904557 6d4165a393 7141
owner: 24666388@N07
title: Mission Inn, Riverside, Ca
originalsecret: eebb9f6658
originalformat: jpg
o_height: 2711
o_width: 4066
datetaken: 2011-11-27 21:02:59
dateupload: 1322703619
tags: california christmas winter horses holiday tree canon festive religious lights downtown december arch carriage riverside religion arcade columns arches christmastree christmaslights lanterns mission vendor panning crepes missioninn lightroom 2011 concumerism outlawmenacephotography
license: 0
latitude: 33.982873
longitude: -117.37293
accuracy: 16
views: 22
interestingness: 28 out of 238

photo: 6437726547 c099dbd71f 7161
owner: 13227773@N08
title: stilted elephant & the dark hoof
originalsecret: null
originalformat: null
o_height: null
o_width: null
datetaken: 2010-10-04 11:40:14
dateupload: 1322768364
tags: horse streetart elephant mural hand cityhall belfast horseshoe dali hoof dal? dukeofyork salvadordal? jimlarkin cathedralquarter softwatch thedarkhorse martylyons dannydevenny cam:panasonic=tz5
license: 0
latitude: 54.601517
longitude: -5.928153
accuracy: 16
views: 39
interestingness: 29 out of 238

photo: 6436449555 3cbef31c8c 7029
owner: 40747011@N07
title: Horse Holm
originalsecret: 0b06b53a76
originalformat: jpg
o_height: 637
o_width: 1000
datetaken: 2011-12-01 11:33:27
dateupload: 1322750961
tags: 
license: 0
latitude: 59.861949
longitude: -1.311235
accuracy: 13
views: 142
interestingness: 30 out of 238

photo: 6436302149 f037fece7a 7001
owner: 48963407@N06
title: Horse
originalsecret: null
originalformat: null
o_height: null
o_width: null
datetaken: 2011-11-30 06:33:34
dateupload: 1322748806
tags: 
license: 0
latitude: -25.383735
longitude: -57.337646
accuracy: 8
views: 14
interestingness: 31 out of 238

photo: 6435578485 6eb129b9fe 7158
owner: 57848406@N04
title: Hestamannam?t  Iceland 1985
originalsecret: bd54dbbaea
originalformat: jpg
o_height: 1249
o_width: 2001
datetaken: 1985-08-01 00:00:00
dateupload: 1322734776
tags: horses white men iceland riding hestamannam?t
license: 0
latitude: 64.140267
longitude: -21.921157
accuracy: 9
views: 25
interestingness: 32 out of 238

photo: 6433917367 4aa122ef7d 7006
owner: 24666388@N07
title: Mission Inn, Riverside, Ca
originalsecret: 33e87510f6
originalformat: jpg
o_height: 4071
o_width: 2714
datetaken: 2011-11-27 21:06:10
dateupload: 1322703825
tags: california christmas winter horses holiday tree canon festive religious lights downtown december arch carriage riverside religion arcade columns arches christmastree christmaslights lanterns mission vendor panning crepes missioninn lightroom 2011 concumerism outlawmenacephotography
license: 0
latitude: 33.982873
longitude: -117.37293
accuracy: 16
views: 34
interestingness: 33 out of 238

photo: 6433884767 f718e41abc 7009
owner: 24666388@N07
title: Mission Inn, Riverside, Ca
originalsecret: 699191ecbd
originalformat: jpg
o_height: 2616
o_width: 3616
datetaken: 2011-11-27 20:57:45
dateupload: 1322703330
tags: california christmas winter horses holiday tree canon festive religious lights downtown december arch carriage riverside religion arcade columns arches christmastree christmaslights lanterns mission vendor panning crepes missioninn lightroom 2011 concumerism outlawmenacephotography
license: 0
latitude: 33.982873
longitude: -117.37293
accuracy: 16
views: 17
interestingness: 34 out of 238

photo: 6434237123 b349978355 7154
owner: 25514550@N04
title: Yee-Haw
originalsecret: null
originalformat: null
o_height: null
o_width: null
datetaken: 2011-11-30 14:35:23
dateupload: 1322708530
tags: horse statue bronze austin nikon cowboy tx wideangle d3000
license: 0
latitude: 30.274078
longitude: -97.741434
accuracy: 16
views: 28
interestingness: 35 out of 238

photo: 6433801061 bcca21b7e4 7141
owner: 24666388@N07
title: Cinderella's Dream
originalsecret: a47d709d3e
originalformat: jpg
o_height: 2668
o_width: 4003
datetaken: 2011-11-27 20:00:29
dateupload: 1322702103
tags: california christmas winter horses holiday tree canon festive religious lights downtown december arch carriage riverside religion arcade columns arches christmastree christmaslights lanterns mission vendor panning crepes missioninn lightroom 2011 concumerism outlawmenacephotography
license: 0
latitude: 33.982873
longitude: -117.37293
accuracy: 16
views: 15
interestingness: 36 out of 238

photo: 6435193071 a3d8d6eab0 7162
owner: 70361921@N06
title: A horse apple
originalsecret: null
originalformat: null
o_height: null
o_width: null
datetaken: 2010-06-22 14:32:54
dateupload: 1322725379
tags: plants tree green nature fruit hedgeapple osageorange maclurapomifera horseapple boisdarc
license: 0
latitude: 44.110622
longitude: 15.231235
accuracy: 15
views: 17
interestingness: 37 out of 238

photo: 6433816001 b571c9f3e0 7016
owner: 66684953@N08
title: Rapa nui mashup
originalsecret: null
originalformat: null
o_height: null
o_width: null
datetaken: 2010-01-22 16:29:50
dateupload: 1322702316
tags: horses abstract color clouds purple
license: 0
latitude: -27.2
longitude: -109.466667
accuracy: 1
views: 40
interestingness: 38 out of 238

photo: 6436877417 2520cf2573 7164
owner: 61652060@N04
title: How it Inspires me~
originalsecret: 5fce99ab8a
originalformat: jpg
o_height: 1225
o_width: 1225
datetaken: 2011-12-01 08:28:17
dateupload: 1322756897
tags: park city flowers autumn red horses horse lake flower color macro mushroom water colors leaves animal animals closeup architecture canon landscape mushrooms washington leaf fdsflickrtoys focus spokane downtown colours waterfront image blossom quality blossoms picture highcontrast insects images idaho pinkflower colored blooms waterfeature mybackyard manitopark coeurdalene citypark digitalphotography lowcontrast waterscape infocus macrophotography northidaho springblooms lakesunset horsesgrazing canonshooter citysidewalk digitalcanon macrolife downtowncoeurdalene interestingx qualitysurroundings? canonpicture cdasunset
license: 5
latitude: 47.670049
longitude: -116.776227
accuracy: 13
views: 24
interestingness: 39 out of 238

photo: 6437152107 65988c6ce6 7017
owner: 58047960@N08
title: IMG_0972
originalsecret: f3339e25fd
originalformat: jpg
o_height: 939
o_width: 1409
datetaken: 2011-11-19 03:41:45
dateupload: 1322760538
tags: horse fall race camden south event jockey carolina 2011
license: 0
latitude: 34.276368
longitude: -80.624155
accuracy: 14
views: 10
interestingness: 40 out of 238

photo: 6433909177 6e8b67435a 7168
owner: 24666388@N07
title: Mission Inn, Riverside, Ca
originalsecret: fd9476c86b
originalformat: jpg
o_height: 2848
o_width: 4272
datetaken: 2011-11-27 21:03:53
dateupload: 1322703690
tags: california christmas winter horses holiday tree canon festive religious lights downtown december arch carriage riverside religion arcade columns arches christmastree christmaslights lanterns mission vendor panning crepes missioninn lightroom 2011 concumerism outlawmenacephotography
license: 0
latitude: 33.982873
longitude: -117.37293
accuracy: 16
views: 25
interestingness: 41 out of 238

photo: 6437626245 18d463ae03 7170
owner: 41324237@N07
title: East Lexham Village Sign side 1
originalsecret: a16621a385
originalformat: jpg
o_height: 2036
o_width: 2421
datetaken: 2011-10-03 09:44:30
dateupload: 1322766975
tags: old uk england horse tractor english heritage history rural countryside village britain norfolk british plough hamlet agricultural eastanglia ploughing villagesign eastlexham intobreckland
license: 0
latitude: 52.717838
longitude: 0.750288
accuracy: 13
views: 11
interestingness: 42 out of 238

photo: 6435273277 f4bcb7dfab 7020
owner: 91131327@N00
title: For draught-horses
originalsecret: b60f58598c
originalformat: jpg
o_height: 1704
o_width: 2272
datetaken: 2011-11-10 12:15:16
dateupload: 1322727270
tags: selfportrait hungary shadowplay crazyhorse mezokovesd agriculturemuseum draughthorse amancalledhorse guidojohan
license: 0
latitude: 47.803585
longitude: 20.567436
accuracy: 11
views: 11
interestingness: 43 out of 238

photo: 6433802669 5bc63b5f86 7141
owner: 54790761@N04
title: Zorgvliet Vinery Estate
originalsecret: 24ca054f17
originalformat: jpg
o_height: 5184
o_width: 3456
datetaken: 2011-11-21 01:59:56
dateupload: 1322702127
tags: roses horses tree estate stellenbosch whitefence redroses vinery zorgvliet wineranks colorphotoaward
license: 0
latitude: -33.888372
longitude: 18.84859
accuracy: 11
views: 13
interestingness: 44 out of 238

photo: 6433541071 99300367b4 7019
owner: 45394548@N02
title: Sunrise at White Horse Beach
originalsecret: 2bde738dbf
originalformat: jpg
o_height: 3744
o_width: 5616
datetaken: 2011-11-29 06:31:25
dateupload: 1322698179
tags: 
license: 0
latitude: 41.9305
longitude: -70.558242
accuracy: 11
views: 38
interestingness: 45 out of 238

photo: 6435955089 cedd135228 7026
owner: 7471115@N08
title: Assateague Island Horse
originalsecret: 8866c8c761
originalformat: jpg
o_height: 3392
o_width: 4523
datetaken: 2011-11-25 23:19:54
dateupload: 1322742744
tags: horses horse animals md maryland assateagueisland wildhorses stallion assateague wildhorse
license: 3
latitude: 38.209657
longitude: -75.152213
accuracy: 15
views: 38
interestingness: 46 out of 238

photo: 6433826253 2323299ba6 7020
owner: 24666388@N07
title: RTMD@ Mission Inn, Riverside, Ca
originalsecret: c9f825d532
originalformat: jpg
o_height: 4272
o_width: 2848
datetaken: 2011-11-27 20:15:28
dateupload: 1322702468
tags: california christmas winter horses holiday tree canon festive religious lights downtown december arch carriage riverside religion arcade columns arches christmastree christmaslights lanterns mission vendor panning crepes missioninn lightroom 2011 concumerism outlawmenacephotography
license: 0
latitude: 33.982873
longitude: -117.37293
accuracy: 16
views: 12
interestingness: 47 out of 238

photo: 6437417507 67444ab477 7165
owner: 97697738@N00
title: Winter scene with a touch of nostalgia
originalsecret: null
originalformat: null
o_height: null
o_width: null
datetaken: 2010-12-27 11:45:39
dateupload: 1322764077
tags: winter two horses snow haflinger
license: 0
latitude: 54.866457
longitude: 10.408794
accuracy: 14
views: 20
interestingness: 48 out of 238

photo: 6437149039 ee6a077d85 7160
owner: 58047960@N08
title: IMG_0873
originalsecret: 3d749a4c7e
originalformat: jpg
o_height: 1545
o_width: 2317
datetaken: 2011-11-19 02:57:38
dateupload: 1322760500
tags: horse fall race camden south event jockey carolina 2011
license: 0
latitude: 34.276368
longitude: -80.624155
accuracy: 14
views: 8
interestingness: 49 out of 238

photo: 6438561535 a54366dcc7 7162
owner: 23950443@N02
title: On the way down
originalsecret: 1884d956c4
originalformat: jpg
o_height: 683
o_width: 1024
datetaken: 2011-11-26 14:27:00
dateupload: 1322779144
tags: newzealand horse wellington gymkhana battlehill pauatahanui
license: 0
latitude: -41.082974
longitude: 174.934616
accuracy: 9
views: 17
interestingness: 50 out of 238

photo: 6438039941 8842d3e19f 7030
owner: 28730602@N07
title: 01122011 we'll keep the pink flag flying...
originalsecret: a65ac42071
originalformat: jpg
o_height: 1980
o_width: 2640
datetaken: 2011-12-01 20:30:18
dateupload: 1322772518
tags: lillythepink
license: 0
latitude: 53.856787
longitude: -1.54978
accuracy: 13
views: 34
interestingness: 51 out of 238

photo: 6437625715 b27352af8d 7157
owner: 41324237@N07
title: East Lexham Village Sign side 2
originalsecret: 66f744a299
originalformat: jpg
o_height: 1532
o_width: 2382
datetaken: 2011-10-03 09:43:50
dateupload: 1322766969
tags: old uk england horse tractor english heritage history rural countryside village britain norfolk british plough hamlet agricultural eastanglia ploughing villagesign eastlexham intobreckland
license: 0
latitude: 52.717838
longitude: 0.750288
accuracy: 13
views: 15
interestingness: 52 out of 238

photo: 6433873401 ebec0d87e7 7169
owner: 24666388@N07
title: me and my dude
originalsecret: e8ce75cf8d
originalformat: jpg
o_height: 2848
o_width: 4272
datetaken: 2011-11-27 20:41:58
dateupload: 1322703171
tags: california christmas winter horses holiday tree canon festive religious lights downtown december arch carriage riverside religion arcade columns arches christmastree christmaslights lanterns mission vendor panning crepes missioninn lightroom 2011 concumerism outlawmenacephotography
license: 0
latitude: 33.982873
longitude: -117.37293
accuracy: 16
views: 16
interestingness: 53 out of 238

photo: 6433867775 95d6da5664 7168
owner: 24666388@N07
title: Shay and Roy
originalsecret: 026a351406
originalformat: jpg
o_height: 4272
o_width: 2848
datetaken: 2011-11-27 20:40:19
dateupload: 1322703090
tags: california christmas winter horses holiday tree canon festive religious lights downtown december arch carriage riverside religion arcade columns arches christmastree christmaslights lanterns mission vendor panning crepes missioninn lightroom 2011 concumerism outlawmenacephotography
license: 0
latitude: 33.982873
longitude: -117.37293
accuracy: 16
views: 17
interestingness: 54 out of 238

photo: 6433857965 bcf3c05f1e 7147
owner: 24666388@N07
title: Mission Inn, Riverside, Ca
originalsecret: dcfb4ea492
originalformat: jpg
o_height: 2848
o_width: 4272
datetaken: 2011-11-27 20:35:39
dateupload: 1322702936
tags: california christmas winter horses holiday tree canon festive religious lights downtown december arch carriage riverside religion arcade columns arches christmastree christmaslights lanterns mission vendor panning crepes missioninn lightroom 2011 concumerism outlawmenacephotography
license: 0
latitude: 33.982873
longitude: -117.37293
accuracy: 16
views: 11
interestingness: 55 out of 238

photo: 6437151553 15274a5987 7015
owner: 58047960@N08
title: IMG_0937
originalsecret: eb7fec8ba7
originalformat: jpg
o_height: 854
o_width: 1281
datetaken: 2011-11-19 03:38:17
dateupload: 1322760531
tags: horse fall race camden south event jockey carolina 2011
license: 0
latitude: 34.276368
longitude: -80.624155
accuracy: 14
views: 9
interestingness: 56 out of 238

photo: 6437137803 9d65cdfc66 7147
owner: 58047960@N08
title: IMG_0746
originalsecret: 140f3b01a1
originalformat: jpg
o_height: 1567
o_width: 4701
datetaken: 2011-11-19 01:31:04
dateupload: 1322760359
tags: horse fall race camden south event jockey carolina 2011
license: 0
latitude: 34.276368
longitude: -80.624155
accuracy: 14
views: 7
interestingness: 57 out of 238

photo: 6434170929 a99b72e477 7014
owner: 77945684@N00
title: Into the World
originalsecret: b3b8fb25fd
originalformat: jpg
o_height: 2325
o_width: 2905
datetaken: 2011-11-27 17:23:04
dateupload: 1322707485
tags: 
license: 2
latitude: 38.920786
longitude: -77.035736
accuracy: 16
views: 10
interestingness: 58 out of 238

photo: 6438383829 545fb95f14 7031
owner: 99069150@N00
title: Kids Jump Ball Race
originalsecret: a47085ed73
originalformat: jpg
o_height: 2848
o_width: 4288
datetaken: 2011-09-05 16:51:33
dateupload: 1322776823
tags: ca horses kids horseracing delmar delmarracetrack kidsracing pamelaschreckengost pamschreckcom kidsjumpballrace
license: 0
latitude: 32.976286
longitude: -117.262616
accuracy: 14
views: 3
interestingness: 59 out of 238

photo: 6438013073 53d298225f 7172
owner: 99069150@N00
title: Kids Jump Ball Race
originalsecret: a0a0e9d4e3
originalformat: jpg
o_height: 2848
o_width: 4288
datetaken: 2011-09-05 16:49:36
dateupload: 1322772178
tags: ca horses kids horseracing delmar delmarracetrack kidsracing pamelaschreckengost pamschreckcom kidsjumpballrace
license: 0
latitude: 32.976286
longitude: -117.262616
accuracy: 14
views: 1
interestingness: 60 out of 238

photo: 6436193023 3e44b875a5 7162
owner: 45923298@N00
title: Benson, AZ Quarter Horse Motel
originalsecret: null
originalformat: null
o_height: null
o_width: null
datetaken: 2011-11-30 15:36:47
dateupload: 1322747002
tags: arizona horse sign neon motel az benson rider rvpark
license: 0
latitude: 31.97119
longitude: -110.311843
accuracy: 16
views: 17
interestingness: 61 out of 238

photo: 6433981261 5d8407f5c7 7012
owner: 51100442@N08
title: Horses
originalsecret: c6be322295
originalformat: jpg
o_height: 1267
o_width: 1900
datetaken: 2011-11-30 20:26:08
dateupload: 1322704766
tags: snow michigan ferrari laguna seca
license: 0
latitude: 36.586216
longitude: -121.755466
accuracy: 15
views: 11
interestingness: 62 out of 238

photo: 6433863933 18a28368fb 7143
owner: 24666388@N07
title: Mission Inn, Riverside, Ca
originalsecret: d41cfc1e2a
originalformat: jpg
o_height: 3890
o_width: 2593
datetaken: 2011-11-27 20:39:21
dateupload: 1322703031
tags: california christmas winter horses holiday tree canon festive religious lights downtown december arch carriage riverside religion arcade columns arches christmastree christmaslights lanterns mission vendor panning crepes missioninn lightroom 2011 concumerism outlawmenacephotography
license: 0
latitude: 33.982873
longitude: -117.37293
accuracy: 16
views: 17
interestingness: 63 out of 238

photo: 6433853081 c15252231e 7169
owner: 24666388@N07
title: Mission Inn, Riverside, Ca
originalsecret: 9c52b72645
originalformat: jpg
o_height: 2785
o_width: 4177
datetaken: 2011-11-27 20:33:54
dateupload: 1322702864
tags: california christmas winter horses holiday tree canon festive religious lights downtown december arch carriage riverside religion arcade columns arches christmastree christmaslights lanterns mission vendor panning crepes missioninn lightroom 2011 concumerism outlawmenacephotography
license: 0
latitude: 33.982873
longitude: -117.37293
accuracy: 16
views: 11
interestingness: 64 out of 238

photo: 6433844111 5df2971d3c 7034
owner: 24666388@N07
title: Mission Inn, Riverside, Ca
originalsecret: d034e8d910
originalformat: jpg
o_height: 2573
o_width: 4161
datetaken: 2011-11-27 20:28:57
dateupload: 1322702736
tags: california christmas winter horses holiday tree canon festive religious lights downtown december arch carriage riverside religion arcade columns arches christmastree christmaslights lanterns mission vendor panning crepes missioninn lightroom 2011 concumerism outlawmenacephotography
license: 0
latitude: 33.982873
longitude: -117.37293
accuracy: 16
views: 16
interestingness: 65 out of 238

photo: 6433839445 17fc986d17 7174
owner: 24666388@N07
title: Head warmth a-plenty
originalsecret: 80160c731f
originalformat: jpg
o_height: 2510
o_width: 3764
datetaken: 2011-11-27 20:22:59
dateupload: 1322702669
tags: california christmas winter horses holiday tree canon festive religious lights downtown december arch carriage riverside religion arcade columns arches christmastree christmaslights lanterns mission vendor panning crepes missioninn lightroom 2011 concumerism outlawmenacephotography
license: 0
latitude: 33.982873
longitude: -117.37293
accuracy: 16
views: 13
interestingness: 66 out of 238

photo: 6433833625 d730f3e82f 7011
owner: 24666388@N07
title: Mission Inn, Riverside, Ca
originalsecret: 6c851d420f
originalformat: jpg
o_height: 2566
o_width: 3849
datetaken: 2011-11-27 20:17:00
dateupload: 1322702584
tags: california christmas winter horses white holiday cold tree ice canon festive religious lights frozen downtown december arch carriage riverside iceskating religion skating arcade columns arches christmastree skaters christmaslights skate lanterns mission vendor panning crepes missioninn lightroom 2011 concumerism outlawmenacephotography
license: 0
latitude: 33.982873
longitude: -117.37293
accuracy: 16
views: 27
interestingness: 67 out of 238

photo: 6433830747 1e417b7db4 7012
owner: 24666388@N07
title: CREPES!!!!
originalsecret: 00da701460
originalformat: jpg
o_height: 2848
o_width: 4272
datetaken: 2011-11-27 20:20:56
dateupload: 1322702539
tags: california christmas winter horses holiday tree canon festive religious lights downtown december arch carriage riverside religion arcade columns arches christmastree christmaslights lanterns mission vendor panning crepes missioninn lightroom 2011 concumerism outlawmenacephotography
license: 0
latitude: 33.982873
longitude: -117.37293
accuracy: 16
views: 16
interestingness: 68 out of 238

photo: 6433819817 70913e9afb 7165
owner: 24666388@N07
title: Mission Inn, Riverside, Ca
originalsecret: a839008360
originalformat: jpg
o_height: 2512
o_width: 3468
datetaken: 2011-11-27 20:06:38
dateupload: 1322702369
tags: california christmas winter horses holiday tree canon festive religious lights downtown december arch carriage riverside religion arcade columns arches christmastree christmaslights lanterns mission vendor panning crepes missioninn lightroom 2011 concumerism outlawmenacephotography
license: 0
latitude: 33.982873
longitude: -117.37293
accuracy: 16
views: 9
interestingness: 69 out of 238

photo: 6433588471 5c01f3ac40 7024
owner: 16767123@N08
title: Fighting Stallions Memorial & Capitol Building
originalsecret: 2389c84ce1
originalformat: jpg
o_height: 5184
o_width: 3456
datetaken: 2011-09-26 15:00:53
dateupload: 1322698944
tags: roof horses sculpture building southdakota state pierre capital capitol dome plains fightingstallionsmemorial
license: 0
latitude: 44.366017
longitude: -100.344604
accuracy: 16
views: 1
interestingness: 70 out of 238

photo: 6438760793 61ed580769 7172
owner: 99069150@N00
title: Joel Rosario on Well Monied
originalsecret: 23f6b036bc
originalformat: jpg
o_height: 2848
o_width: 4288
datetaken: 2011-09-05 17:26:01
dateupload: 1322781978
tags: ca horses horseracing delmar paddock delmarracetrack joelrosario wellmonied pamelaschreckengost pamschreckcom race8delmarpaddock
license: 0
latitude: 32.976286
longitude: -117.262616
accuracy: 14
views: 2
interestingness: 71 out of 238

photo: 6438752121 b96f2e3d22 7018
owner: 99069150@N00
title: Joel Rosario on Well Monied
originalsecret: a95f28217c
originalformat: jpg
o_height: 2848
o_width: 4288
datetaken: 2011-09-05 17:26:02
dateupload: 1322781848
tags: ca horses horseracing delmar paddock delmarracetrack joelrosario wellmonied pamelaschreckengost pamschreckcom race8delmarpaddock
license: 0
latitude: 32.976286
longitude: -117.262616
accuracy: 14
views: 1
interestingness: 72 out of 238

photo: 6438742647 83c67e4b8c 7143
owner: 99069150@N00
title: Joseph Talamo on Medaglia d'Amour
originalsecret: 6f799d0749
originalformat: jpg
o_height: 2848
o_width: 4288
datetaken: 2011-09-05 17:25:57
dateupload: 1322781703
tags: ca horses horseracing delmar paddock delmarracetrack josephtalamo pamelaschreckengost pamschreckcom medagliadamour race8delmarpaddock
license: 0
latitude: 32.976286
longitude: -117.262616
accuracy: 14
views: 2
interestingness: 73 out of 238

photo: 6438733531 b6ed2dd285 7012
owner: 99069150@N00
title: Joseph Talamo on Medaglia d'Amour
originalsecret: 62b1025420
originalformat: jpg
o_height: 2848
o_width: 4288
datetaken: 2011-09-05 17:25:56
dateupload: 1322781553
tags: ca horses horseracing delmar paddock delmarracetrack josephtalamo pamelaschreckengost pamschreckcom medagliadamour race8delmarpaddock
license: 0
latitude: 32.976286
longitude: -117.262616
accuracy: 14
views: 1
interestingness: 74 out of 238

photo: 6438724503 023a3a8a95 7007
owner: 99069150@N00
title: Martin Garcia on Go Forth North
originalsecret: ce463538ef
originalformat: jpg
o_height: 2848
o_width: 4288
datetaken: 2011-09-05 17:25:49
dateupload: 1322781423
tags: ca horses horseracing delmar paddock delmarracetrack martingarcia pamelaschreckengost pamschreckcom race8delmarpaddock goforthnorth
license: 0
latitude: 32.976286
longitude: -117.262616
accuracy: 14
views: 2
interestingness: 75 out of 238

photo: 6438715277 278ea50bab 7161
owner: 99069150@N00
title: Martin Garcia on Go Forth North
originalsecret: 3219508748
originalformat: jpg
o_height: 2848
o_width: 4288
datetaken: 2011-09-05 17:25:48
dateupload: 1322781297
tags: ca horses horseracing delmar paddock delmarracetrack martingarcia pamelaschreckengost pamschreckcom race8delmarpaddock goforthnorth
license: 0
latitude: 32.976286
longitude: -117.262616
accuracy: 14
views: 1
interestingness: 76 out of 238

photo: 6438706433 71e2a48fc9 7032
owner: 99069150@N00
title: Martin Garcia on Go Forth North
originalsecret: 1f7667d7aa
originalformat: jpg
o_height: 2848
o_width: 4288
datetaken: 2011-09-05 17:25:45
dateupload: 1322781166
tags: ca horses horseracing delmar paddock delmarracetrack martingarcia pamelaschreckengost pamschreckcom race8delmarpaddock goforthnorth
license: 0
latitude: 32.976286
longitude: -117.262616
accuracy: 14
views: 1
interestingness: 77 out of 238

photo: 6438697545 c533d1dac7 7141
owner: 99069150@N00
title: Martin Garcia on Go Forth North
originalsecret: e92014b379
originalformat: jpg
o_height: 2848
o_width: 4288
datetaken: 2011-09-05 17:25:46
dateupload: 1322781031
tags: ca horses horseracing delmar paddock delmarracetrack martingarcia pamelaschreckengost pamschreckcom race8delmarpaddock goforthnorth
license: 0
latitude: 32.976286
longitude: -117.262616
accuracy: 14
views: 1
interestingness: 78 out of 238

photo: 6438688543 359f1ae9d8 7155
owner: 99069150@N00
title: Martin Garcia on Go Forth North
originalsecret: 8b24938d41
originalformat: jpg
o_height: 2848
o_width: 4288
datetaken: 2011-09-05 17:25:44
dateupload: 1322780903
tags: ca horses horseracing delmar paddock delmarracetrack martingarcia pamelaschreckengost pamschreckcom race8delmarpaddock goforthnorth
license: 0
latitude: 32.976286
longitude: -117.262616
accuracy: 14
views: 1
interestingness: 79 out of 238

photo: 6438677959 5edd4261ac 7004
owner: 99069150@N00
title: Martin Garcia on Go Forth North
originalsecret: b01efcdd13
originalformat: jpg
o_height: 2848
o_width: 4288
datetaken: 2011-09-05 17:25:44
dateupload: 1322780741
tags: ca horses horseracing delmar paddock delmarracetrack martingarcia pamelaschreckengost pamschreckcom race8delmarpaddock goforthnorth
license: 0
latitude: 32.976286
longitude: -117.262616
accuracy: 14
views: 1
interestingness: 80 out of 238

photo: 6438667011 853ee9e5ce 7141
owner: 99069150@N00
title: Brice Blanc on All Star Heart
originalsecret: 76de849143
originalformat: jpg
o_height: 2848
o_width: 4288
datetaken: 2011-09-05 17:25:27
dateupload: 1322780581
tags: ca horses horseracing delmar paddock delmarracetrack briceblanc allstarheart pamelaschreckengost pamschreckcom race8delmarpaddock
license: 0
latitude: 32.976286
longitude: -117.262616
accuracy: 14
views: 1
interestingness: 81 out of 238

photo: 6438658061 118ee4686a 7007
owner: 99069150@N00
title: Brice Blanc on All Star Heart
originalsecret: a2f37d72b8
originalformat: jpg
o_height: 2848
o_width: 4288
datetaken: 2011-09-05 17:25:26
dateupload: 1322780455
tags: ca horses horseracing delmar paddock delmarracetrack briceblanc allstarheart pamelaschreckengost pamschreckcom race8delmarpaddock
license: 0
latitude: 32.976286
longitude: -117.262616
accuracy: 14
views: 1
interestingness: 82 out of 238

photo: 6438650933 7e12cdee09 7173
owner: 99069150@N00
title: All Star Heart
originalsecret: 134ce8964b
originalformat: jpg
o_height: 2848
o_width: 4288
datetaken: 2011-09-05 17:25:22
dateupload: 1322780351
tags: ca horses horseracing delmar paddock delmarracetrack allstarheart pamelaschreckengost pamschreckcom race8delmarpaddock
license: 0
latitude: 32.976286
longitude: -117.262616
accuracy: 14
views: 0
interestingness: 83 out of 238

photo: 6438641069 a1679886e9 7145
owner: 99069150@N00
title: Rafael Bejarano on Andina
originalsecret: 76c167d635
originalformat: jpg
o_height: 2848
o_width: 4288
datetaken: 2011-09-05 17:25:17
dateupload: 1322780212
tags: ca horses horseracing delmar paddock adina delmarracetrack rafaelbejarano pamelaschreckengost pamschreckcom race8delmarpaddock
license: 0
latitude: 32.976286
longitude: -117.262616
accuracy: 14
views: 0
interestingness: 84 out of 238

photo: 6438630965 a313184be1 7019
owner: 99069150@N00
title: Adina
originalsecret: 3ef7f349e5
originalformat: jpg
o_height: 2848
o_width: 4288
datetaken: 2011-09-05 17:25:13
dateupload: 1322780088
tags: ca horses horseracing delmar paddock adina delmarracetrack pamelaschreckengost pamschreckcom race8delmarpaddock
license: 0
latitude: 32.976286
longitude: -117.262616
accuracy: 14
views: 0
interestingness: 85 out of 238

photo: 6438620615 9060b2dd1e 7174
owner: 99069150@N00
title: Patrick Valenzuela on It Tiz
originalsecret: 01809a2bea
originalformat: jpg
o_height: 2848
o_width: 4288
datetaken: 2011-09-05 17:25:10
dateupload: 1322779947
tags: ca horses horseracing delmar paddock delmarracetrack patrickvalenzuela ittiz pamelaschreckengost pamschreckcom race8delmarpaddock
license: 0
latitude: 32.976286
longitude: -117.262616
accuracy: 14
views: 1
interestingness: 86 out of 238

photo: 6438611039 e167d564d8 7032
owner: 99069150@N00
title: Patrick Valenzuela on It Tiz
originalsecret: fc31612183
originalformat: jpg
o_height: 2848
o_width: 4288
datetaken: 2011-09-05 17:25:10
dateupload: 1322779809
tags: ca horses horseracing delmar paddock delmarracetrack patrickvalenzuela ittiz pamelaschreckengost pamschreckcom race8delmarpaddock
license: 0
latitude: 32.976286
longitude: -117.262616
accuracy: 14
views: 1
interestingness: 87 out of 238

photo: 6438602073 8d77d16f26 7144
owner: 99069150@N00
title: It Tiz
originalsecret: 70cc5b7aae
originalformat: jpg
o_height: 2848
o_width: 4288
datetaken: 2011-09-05 17:25:07
dateupload: 1322779685
tags: delmarracetrack horseracing horses pamelaschreckengost pamschreckcom race8delmarpaddock paddock ittiz delmar ca
license: 0
latitude: 32.976286
longitude: -117.262616
accuracy: 14
views: 1
interestingness: 88 out of 238

photo: 6438580875 7648d1a07d 7142
owner: 99069150@N00
title: Ninth Infantry
originalsecret: 02230403af
originalformat: jpg
o_height: 2848
o_width: 4288
datetaken: 2011-09-05 17:24:58
dateupload: 1322779402
tags: ca horses horseracing delmar paddock delmarracetrack pamelaschreckengost pamschreckcom race8delmarpaddock ninthinfantry
license: 0
latitude: 32.976286
longitude: -117.262616
accuracy: 14
views: 1
interestingness: 89 out of 238

photo: 6438550361 6d08ed2440 7161
owner: 99069150@N00
title: Chantal Sutherland
originalsecret: 1e45ba2c9a
originalformat: jpg
o_height: 2848
o_width: 4288
datetaken: 2011-09-05 17:23:10
dateupload: 1322779002
tags: ca horses horseracing delmar paddock delmarracetrack chantalsutherland pamelaschreckengost pamschreckcom race8delmarpaddock
license: 0
latitude: 32.976286
longitude: -117.262616
accuracy: 14
views: 2
interestingness: 90 out of 238

photo: 6438540979 6218a58dd8 7168
owner: 99069150@N00
title: Chantal Sutherland
originalsecret: 8e89603fc0
originalformat: jpg
o_height: 2848
o_width: 4288
datetaken: 2011-09-05 17:23:00
dateupload: 1322778885
tags: ca horses horseracing delmar paddock delmarracetrack chantalsutherland pamelaschreckengost pamschreckcom race8delmarpaddock
license: 0
latitude: 32.976286
longitude: -117.262616
accuracy: 14
views: 2
interestingness: 91 out of 238

photo: 6438531393 0b20395b0b 7174
owner: 99069150@N00
title: Go Forth North
originalsecret: d66152d10e
originalformat: jpg
o_height: 2848
o_width: 4288
datetaken: 2011-09-05 17:22:02
dateupload: 1322778762
tags: ca horses horseracing delmar paddock delmarracetrack pamelaschreckengost pamschreckcom race8delmarpaddock goforthnorth
license: 0
latitude: 32.976286
longitude: -117.262616
accuracy: 14
views: 1
interestingness: 92 out of 238

photo: 6438521433 3fb5944937 7170
owner: 99069150@N00
title: Go Forth North
originalsecret: ecb31e426f
originalformat: jpg
o_height: 2848
o_width: 4288
datetaken: 2011-09-05 17:22:00
dateupload: 1322778639
tags: ca horses horseracing delmar paddock delmarracetrack pamelaschreckengost pamschreckcom race8delmarpaddock goforthnorth
license: 0
latitude: 32.976286
longitude: -117.262616
accuracy: 14
views: 1
interestingness: 93 out of 238

photo: 6438513299 c83dab2f64 7014
owner: 99069150@N00
title: Mike Smith
originalsecret: 3703d23f97
originalformat: jpg
o_height: 2848
o_width: 4288
datetaken: 2011-09-05 17:21:56
dateupload: 1322778530
tags: ca horses horseracing delmar paddock mikesmith delmarracetrack pamelaschreckengost pamschreckcom race8delmarpaddock
license: 0
latitude: 32.976286
longitude: -117.262616
accuracy: 14
views: 1
interestingness: 94 out of 238

photo: 6438503767 d92d6aa872 7163
owner: 99069150@N00
title: Mike Smith
originalsecret: e2bcd40403
originalformat: jpg
o_height: 2848
o_width: 4288
datetaken: 2011-09-05 17:21:55
dateupload: 1322778401
tags: ca horses horseracing delmar paddock mikesmith delmarracetrack pamelaschreckengost pamschreckcom race8delmarpaddock
license: 0
latitude: 32.976286
longitude: -117.262616
accuracy: 14
views: 1
interestingness: 95 out of 238

photo: 6438495429 7e248ed899 7169
owner: 99069150@N00
title: Mike Smith
originalsecret: 47d7725bbd
originalformat: jpg
o_height: 2848
o_width: 4288
datetaken: 2011-09-05 17:21:55
dateupload: 1322778295
tags: ca horses horseracing delmar paddock mikesmith delmarracetrack pamelaschreckengost pamschreckcom race8delmarpaddock
license: 0
latitude: 32.976286
longitude: -117.262616
accuracy: 14
views: 1
interestingness: 96 out of 238

photo: 6438474949 0f84e01220 7142
owner: 99069150@N00
title: Turning Top
originalsecret: bfdea49076
originalformat: jpg
o_height: 2848
o_width: 4288
datetaken: 2011-09-05 17:18:07
dateupload: 1322778033
tags: ca horses horseracing delmar paddock delmarracetrack turningtop pamelaschreckengost pamschreckcom race8delmarpaddock
license: 0
latitude: 32.976286
longitude: -117.262616
accuracy: 14
views: 1
interestingness: 97 out of 238

photo: 6438463319 a1ba7de0cd 7160
owner: 99069150@N00
title: Turning Top
originalsecret: abee4bde65
originalformat: jpg
o_height: 2848
o_width: 4288
datetaken: 2011-09-05 17:18:07
dateupload: 1322777887
tags: ca horses horseracing delmar paddock delmarracetrack turningtop pamelaschreckengost pamschreckcom race8delmarpaddock
license: 0
latitude: 32.976286
longitude: -117.262616
accuracy: 14
views: 2
interestingness: 98 out of 238

photo: 6438453371 5f0394e163 7160
owner: 99069150@N00
title: It Tiz
originalsecret: 1a0f1484d7
originalformat: jpg
o_height: 2848
o_width: 4288
datetaken: 2011-09-05 17:16:46
dateupload: 1322777757
tags: ca horses horseracing delmar paddock delmarracetrack ittiz pamelaschreckengost pamschreckcom race8delmarpaddock
license: 0
latitude: 32.976286
longitude: -117.262616
accuracy: 14
views: 1
interestingness: 99 out of 238

photo: 6438444339 53d7e096f4 7019
owner: 99069150@N00
title: It Tiz
originalsecret: 58b0571188
originalformat: jpg
o_height: 2848
o_width: 4288
datetaken: 2011-09-05 17:16:45
dateupload: 1322777639
tags: ca horses horseracing delmar paddock delmarracetrack ittiz pamelaschreckengost pamschreckcom race8delmarpaddock
license: 0
latitude: 32.976286
longitude: -117.262616
accuracy: 14
views: 1
interestingness: 100 out of 238

photo: 6438435485 5231f707a6 7155
owner: 99069150@N00
title: Turning Top
originalsecret: 0f7135ae9c
originalformat: jpg
o_height: 2848
o_width: 4288
datetaken: 2011-09-05 17:16:30
dateupload: 1322777516
tags: ca horses horseracing delmar paddock delmarracetrack turningtop pamelaschreckengost pamschreckcom race8delmarpaddock
license: 0
latitude: 32.976286
longitude: -117.262616
accuracy: 14
views: 3
interestingness: 101 out of 238

photo: 6438426863 73192b8148 7172
owner: 99069150@N00
title: All Star Heart
originalsecret: 4140d49e06
originalformat: jpg
o_height: 2848
o_width: 4288
datetaken: 2011-09-05 17:16:25
dateupload: 1322777400
tags: ca horses horseracing delmar paddock delmarracetrack allstarheart pamelaschreckengost pamschreckcom race8delmarpaddock
license: 0
latitude: 32.976286
longitude: -117.262616
accuracy: 14
views: 2
interestingness: 102 out of 238

photo: 6438374321 7c616e527e 7145
owner: 99069150@N00
title: Kids Jump Ball Race
originalsecret: 095888c444
originalformat: jpg
o_height: 2848
o_width: 4288
datetaken: 2011-09-05 16:51:27
dateupload: 1322776698
tags: ca horses kids horseracing delmar delmarracetrack kidsracing pamelaschreckengost pamschreckcom kidsjumpballrace
license: 0
latitude: 32.976286
longitude: -117.262616
accuracy: 14
views: 3
interestingness: 103 out of 238

photo: 6438365395 ffb084bf70 7019
owner: 99069150@N00
title: Kids Jump Ball Race
originalsecret: 1326fd665c
originalformat: jpg
o_height: 2848
o_width: 4288
datetaken: 2011-09-05 16:51:22
dateupload: 1322776581
tags: ca horses kids horseracing delmar delmarracetrack kidsracing pamelaschreckengost pamschreckcom kidsjumpballrace
license: 0
latitude: 32.976286
longitude: -117.262616
accuracy: 14
views: 1
interestingness: 104 out of 238

photo: 6438355523 64f230d7c9 7014
owner: 99069150@N00
title: Kids Jump Ball Race
originalsecret: 807e646864
originalformat: jpg
o_height: 2848
o_width: 4288
datetaken: 2011-09-05 16:50:37
dateupload: 1322776454
tags: ca horses kids horseracing delmar delmarracetrack kidsracing pamelaschreckengost pamschreckcom kidsjumpballrace
license: 0
latitude: 32.976286
longitude: -117.262616
accuracy: 14
views: 1
interestingness: 105 out of 238

photo: 6438344993 6516b9c7d5 7151
owner: 99069150@N00
title: Kids Jump Ball Race
originalsecret: 9ae5b70886
originalformat: jpg
o_height: 2848
o_width: 4288
datetaken: 2011-09-05 16:50:40
dateupload: 1322776323
tags: ca horses kids horseracing delmar delmarracetrack kidsracing pamelaschreckengost pamschreckcom kidsjumpballrace
license: 0
latitude: 32.976286
longitude: -117.262616
accuracy: 14
views: 2
interestingness: 106 out of 238

photo: 6438333509 c1bed6f07d 7002
owner: 99069150@N00
title: Kids Jump Ball Race
originalsecret: 00a1bebac4
originalformat: jpg
o_height: 2848
o_width: 4288
datetaken: 2011-09-05 16:50:37
dateupload: 1322776185
tags: ca horses kids horseracing delmar delmarracetrack kidsracing pamelaschreckengost pamschreckcom kidsjumpballrace
license: 0
latitude: 32.976286
longitude: -117.262616
accuracy: 14
views: 1
interestingness: 107 out of 238

photo: 6438322841 2f9030f706 7017
owner: 99069150@N00
title: Kids Jump Ball Race
originalsecret: 52dcbd8e0e
originalformat: jpg
o_height: 2848
o_width: 4288
datetaken: 2011-09-05 16:50:37
dateupload: 1322776057
tags: ca horses kids horseracing delmar delmarracetrack kidsracing pamelaschreckengost pamschreckcom kidsjumpballrace
license: 0
latitude: 32.976286
longitude: -117.262616
accuracy: 14
views: 1
interestingness: 108 out of 238

photo: 6438311465 23c39e23d0 7165
owner: 99069150@N00
title: Kids Jump Ball Race
originalsecret: 9df53cee01
originalformat: jpg
o_height: 2848
o_width: 4288
datetaken: 2011-09-05 16:50:36
dateupload: 1322775911
tags: ca horses kids horseracing delmar delmarracetrack kidsracing pamelaschreckengost pamschreckcom kidsjumpballrace
license: 0
latitude: 32.976286
longitude: -117.262616
accuracy: 14
views: 2
interestingness: 109 out of 238

photo: 6438298761 6eff2d263e 7033
owner: 99069150@N00
title: Kids Jump Ball Race
originalsecret: 43d65bb73d
originalformat: jpg
o_height: 2848
o_width: 4288
datetaken: 2011-09-05 16:50:35
dateupload: 1322775753
tags: ca horses kids horseracing delmar delmarracetrack kidsracing pamelaschreckengost pamschreckcom kidsjumpballrace
license: 0
latitude: 32.976286
longitude: -117.262616
accuracy: 14
views: 2
interestingness: 110 out of 238

photo: 6438288579 7c8c2ae121 7026
owner: 99069150@N00
title: Kids Jump Ball Race
originalsecret: 7f94419880
originalformat: jpg
o_height: 2848
o_width: 4288
datetaken: 2011-09-05 16:50:36
dateupload: 1322775620
tags: ca horses kids horseracing delmar delmarracetrack kidsracing pamelaschreckengost pamschreckcom kidsjumpballrace
license: 0
latitude: 32.976286
longitude: -117.262616
accuracy: 14
views: 1
interestingness: 111 out of 238

photo: 6438277309 cdb33563f9 7166
owner: 99069150@N00
title: Kids Jump Ball Race
originalsecret: 92a3027abb
originalformat: jpg
o_height: 2848
o_width: 4288
datetaken: 2011-09-05 16:50:31
dateupload: 1322775477
tags: ca horses kids horseracing delmar delmarracetrack kidsracing pamelaschreckengost pamschreckcom kidsjumpballrace
license: 0
latitude: 32.976286
longitude: -117.262616
accuracy: 14
views: 1
interestingness: 112 out of 238

photo: 6438265709 544f733d69 7010
owner: 99069150@N00
title: Kids Jump Ball Race
originalsecret: 7143912ec0
originalformat: jpg
o_height: 2848
o_width: 4288
datetaken: 2011-09-05 16:50:31
dateupload: 1322775330
tags: ca horses kids horseracing delmar delmarracetrack kidsracing pamelaschreckengost pamschreckcom kidsjumpballrace
license: 0
latitude: 32.976286
longitude: -117.262616
accuracy: 14
views: 1
interestingness: 113 out of 238

photo: 6438254955 62977d9b45 7147
owner: 99069150@N00
title: Kids Jump Ball Race
originalsecret: e874a5f1c5
originalformat: jpg
o_height: 2848
o_width: 4288
datetaken: 2011-09-05 16:50:26
dateupload: 1322775189
tags: ca horses kids horseracing delmar delmarracetrack kidsracing pamelaschreckengost pamschreckcom kidsjumpballrace
license: 0
latitude: 32.976286
longitude: -117.262616
accuracy: 14
views: 1
interestingness: 114 out of 238

photo: 6438241735 77312f4266 7001
owner: 99069150@N00
title: Kids Jump Ball Race
originalsecret: 5329fc7f75
originalformat: jpg
o_height: 2848
o_width: 4288
datetaken: 2011-09-05 16:50:26
dateupload: 1322775023
tags: ca horses kids horseracing delmar delmarracetrack kidsracing pamelaschreckengost pamschreckcom kidsjumpballrace
license: 0
latitude: 32.976286
longitude: -117.262616
accuracy: 14
views: 1
interestingness: 115 out of 238

photo: 6438231799 70d7d6edcd 7026
owner: 99069150@N00
title: Kids Jump Ball Race
originalsecret: 3a4b51999b
originalformat: jpg
o_height: 2848
o_width: 4288
datetaken: 2011-09-05 16:50:23
dateupload: 1322774889
tags: ca horses kids horseracing delmar delmarracetrack kidsracing pamelaschreckengost pamschreckcom kidsjumpballrace
license: 0
latitude: 32.976286
longitude: -117.262616
accuracy: 14
views: 1
interestingness: 116 out of 238

photo: 6438220379 66c1832cf6 7145
owner: 99069150@N00
title: Kids Jump Ball Race
originalsecret: eb77d4b4eb
originalformat: jpg
o_height: 2848
o_width: 4288
datetaken: 2011-09-05 16:50:21
dateupload: 1322774743
tags: ca horses kids horseracing delmar delmarracetrack kidsracing pamelaschreckengost pamschreckcom kidsjumpballrace
license: 0
latitude: 32.976286
longitude: -117.262616
accuracy: 14
views: 3
interestingness: 117 out of 238

photo: 6438208411 91817b6529 7025
owner: 99069150@N00
title: Kids Jump Ball Race
originalsecret: 6822d3b65f
originalformat: jpg
o_height: 2848
o_width: 4288
datetaken: 2011-09-05 16:50:10
dateupload: 1322774587
tags: ca horses kids horseracing delmar delmarracetrack kidsracing pamelaschreckengost pamschreckcom kidsjumpballrace
license: 0
latitude: 32.976286
longitude: -117.262616
accuracy: 14
views: 1
interestingness: 118 out of 238

photo: 6438198087 ee36398db9 7002
owner: 99069150@N00
title: Kids Jump Ball Race
originalsecret: a3e22165f8
originalformat: jpg
o_height: 2848
o_width: 4288
datetaken: 2011-09-05 16:50:04
dateupload: 1322774450
tags: ca horses kids horseracing delmar delmarracetrack kidsracing pamelaschreckengost pamschreckcom kidsjumpballrace
license: 0
latitude: 32.976286
longitude: -117.262616
accuracy: 14
views: 1
interestingness: 119 out of 238

photo: 6438186373 9da2e662e6 7163
owner: 99069150@N00
title: Kids Jump Ball Race
originalsecret: 811cd153a5
originalformat: jpg
o_height: 2848
o_width: 4288
datetaken: 2011-09-05 16:50:04
dateupload: 1322774299
tags: ca horses kids horseracing delmar delmarracetrack kidsracing pamelaschreckengost pamschreckcom kidsjumpballrace
license: 0
latitude: 32.976286
longitude: -117.262616
accuracy: 14
views: 1
interestingness: 120 out of 238

photo: 6438173447 d750715eb3 7170
owner: 99069150@N00
title: Kids Jump Ball Race
originalsecret: f8dd2deb14
originalformat: jpg
o_height: 2848
o_width: 4288
datetaken: 2011-09-05 16:49:58
dateupload: 1322774141
tags: ca horses kids horseracing delmar delmarracetrack kidsracing pamelaschreckengost pamschreckcom kidsjumpballrace
license: 0
latitude: 32.976286
longitude: -117.262616
accuracy: 14
views: 1
interestingness: 121 out of 238

photo: 6438161311 59ea8c03c6 7144
owner: 99069150@N00
title: Kids Jump Ball Race
originalsecret: 19cdced6f9
originalformat: jpg
o_height: 2848
o_width: 4288
datetaken: 2011-09-05 16:49:57
dateupload: 1322773986
tags: ca horses kids horseracing delmar delmarracetrack kidsracing pamelaschreckengost pamschreckcom kidsjumpballrace
license: 0
latitude: 32.976286
longitude: -117.262616
accuracy: 14
views: 1
interestingness: 122 out of 238

photo: 6438149001 e315ccc285 7023
owner: 99069150@N00
title: Kids Jump Ball Race
originalsecret: 0171a78a81
originalformat: jpg
o_height: 2848
o_width: 4288
datetaken: 2011-09-05 16:49:58
dateupload: 1322773837
tags: ca horses kids horseracing delmar delmarracetrack kidsracing pamelaschreckengost pamschreckcom kidsjumpballrace
license: 0
latitude: 32.976286
longitude: -117.262616
accuracy: 14
views: 1
interestingness: 123 out of 238

photo: 6438137533 938824cf63 7146
owner: 99069150@N00
title: Kids Jump Ball Race
originalsecret: 5a618f156b
originalformat: jpg
o_height: 2848
o_width: 4288
datetaken: 2011-09-05 16:49:57
dateupload: 1322773688
tags: ca horses kids horseracing delmar delmarracetrack kidsracing pamelaschreckengost pamschreckcom kidsjumpballrace
license: 0
latitude: 32.976286
longitude: -117.262616
accuracy: 14
views: 1
interestingness: 124 out of 238

photo: 6438126049 532d8c2e2d 7008
owner: 99069150@N00
title: Kids Jump Ball Race
originalsecret: 04bc25acda
originalformat: jpg
o_height: 2848
o_width: 4288
datetaken: 2011-09-05 16:49:55
dateupload: 1322773551
tags: ca horses kids horseracing delmar delmarracetrack kidsracing pamelaschreckengost pamschreckcom kidsjumpballrace
license: 0
latitude: 32.976286
longitude: -117.262616
accuracy: 14
views: 0
interestingness: 125 out of 238

photo: 6438114603 9443cb9399 7144
owner: 99069150@N00
title: Kids Jump Ball Race
originalsecret: 138a5ac31f
originalformat: jpg
o_height: 2848
o_width: 4288
datetaken: 2011-09-05 16:49:55
dateupload: 1322773411
tags: ca horses kids horseracing delmar delmarracetrack kidsracing pamelaschreckengost pamschreckcom kidsjumpballrace
license: 0
latitude: 32.976286
longitude: -117.262616
accuracy: 14
views: 0
interestingness: 126 out of 238

photo: 6438103043 48959184ed 7023
owner: 99069150@N00
title: Kids Jump Ball Race
originalsecret: 91e2d2e9ee
originalformat: jpg
o_height: 2848
o_width: 4288
datetaken: 2011-09-05 16:49:53
dateupload: 1322773266
tags: ca horses kids horseracing delmar delmarracetrack kidsracing pamelaschreckengost pamschreckcom kidsjumpballrace
license: 0
latitude: 32.976286
longitude: -117.262616
accuracy: 14
views: 0
interestingness: 127 out of 238

photo: 6438092091 073138f138 7147
owner: 99069150@N00
title: Kids Jump Ball Race
originalsecret: f78c32892f
originalformat: jpg
o_height: 2848
o_width: 4288
datetaken: 2011-09-05 16:49:53
dateupload: 1322773135
tags: ca horses kids horseracing delmar delmarracetrack kidsracing pamelaschreckengost pamschreckcom kidsjumpballrace
license: 0
latitude: 32.976286
longitude: -117.262616
accuracy: 14
views: 0
interestingness: 128 out of 238

photo: 6438080335 d90322e2c7 7013
owner: 99069150@N00
title: Kids Jump Ball Race
originalsecret: ec1945dac0
originalformat: jpg
o_height: 2848
o_width: 4288
datetaken: 2011-09-05 16:49:53
dateupload: 1322772994
tags: ca horses kids horseracing delmar delmarracetrack kidsracing pamelaschreckengost pamschreckcom kidsjumpballrace
license: 0
latitude: 32.976286
longitude: -117.262616
accuracy: 14
views: 0
interestingness: 129 out of 238

photo: 6438068257 dd2833858a 7011
owner: 99069150@N00
title: Kids Jump Ball Race
originalsecret: 8a39be51ab
originalformat: jpg
o_height: 2848
o_width: 4288
datetaken: 2011-09-05 16:49:52
dateupload: 1322772850
tags: ca horses kids horseracing delmar delmarracetrack kidsracing pamelaschreckengost pamschreckcom kidsjumpballrace
license: 0
latitude: 32.976286
longitude: -117.262616
accuracy: 14
views: 0
interestingness: 130 out of 238

photo: 6438056015 272000995d 7148
owner: 99069150@N00
title: Kids Jump Ball Race
originalsecret: 62410b03a9
originalformat: jpg
o_height: 2848
o_width: 4288
datetaken: 2011-09-05 16:49:52
dateupload: 1322772710
tags: ca horses kids horseracing delmar delmarracetrack kidsracing pamelaschreckengost pamschreckcom kidsjumpballrace
license: 0
latitude: 32.976286
longitude: -117.262616
accuracy: 14
views: 0
interestingness: 131 out of 238

photo: 6438045275 fa7406f9cf 7023
owner: 99069150@N00
title: Kids Jump Ball Race
originalsecret: b1a640c303
originalformat: jpg
o_height: 2848
o_width: 4288
datetaken: 2011-09-05 16:49:51
dateupload: 1322772581
tags: ca horses kids horseracing delmar delmarracetrack kidsracing pamelaschreckengost pamschreckcom kidsjumpballrace
license: 0
latitude: 32.976286
longitude: -117.262616
accuracy: 14
views: 0
interestingness: 132 out of 238

photo: 6438034551 1388bbdbc9 7152
owner: 99069150@N00
title: Kids Jump Ball Race
originalsecret: 54da1a64b5
originalformat: jpg
o_height: 2848
o_width: 4288
datetaken: 2011-09-05 16:49:51
dateupload: 1322772448
tags: ca horses kids horseracing delmar delmarracetrack kidsracing pamelaschreckengost pamschreckcom kidsjumpballrace
license: 0
latitude: 32.976286
longitude: -117.262616
accuracy: 14
views: 0
interestingness: 133 out of 238

photo: 6438024011 b6c8e2fff4 7014
owner: 99069150@N00
title: Kids Jump Ball Race
originalsecret: f7c21230dd
originalformat: jpg
o_height: 2848
o_width: 4288
datetaken: 2011-09-05 16:49:49
dateupload: 1322772315
tags: ca horses kids horseracing delmar delmarracetrack kidsracing pamelaschreckengost pamschreckcom kidsjumpballrace
license: 0
latitude: 32.976286
longitude: -117.262616
accuracy: 14
views: 0
interestingness: 134 out of 238

photo: 6438001677 e0aa8c5d9d 7015
owner: 99069150@N00
title: Kids Jump Ball Race
originalsecret: b66a41d2e3
originalformat: jpg
o_height: 2848
o_width: 4288
datetaken: 2011-09-05 16:49:28
dateupload: 1322772037
tags: ca horses kids horseracing delmar delmarracetrack kidsracing pamelaschreckengost pamschreckcom kidsjumpballrace
license: 0
latitude: 32.976286
longitude: -117.262616
accuracy: 14
views: 0
interestingness: 135 out of 238

photo: 6437929387 faea1d4279 7031
owner: 99069150@N00
title: Wiener Dog Races at Del Mar
originalsecret: 656e370689
originalformat: jpg
o_height: 2848
o_width: 4288
datetaken: 2011-09-05 16:20:24
dateupload: 1322771115
tags: ca horses dog mar wiener horseracing pamela races delmarracetrack schreckengostpamschreckcomwiener dogspeopledogsdel
license: 0
latitude: 32.976286
longitude: -117.262616
accuracy: 14
views: 6
interestingness: 136 out of 238

photo: 6437915345 d7dc67a2e0 7143
owner: 59870440@N08
title: Ethiopian Child shepherd on horse, Simien Mountains (Samen tarara), Ethiopia
originalsecret: 8d4c25a1a2
originalformat: jpg
o_height: 680
o_width: 1024
datetaken: 2011-10-08 05:58:38
dateupload: 1322770926
tags: africa trip travel horse black nature montagne cheval monkey shepherd african naturallight farmer baboon ethiopia abyssinian animaux montain tourisme peasant afrique singe berger ethiopian paysan etiopia abyssinia ethiopie simien fermier babouin abyssinie abisinia etiopija habesistan ????? faunesauvage etiopien ????? abissinia ????????? abessinien etiyopya ??????? ??????? ??????? ????????? lumie?renaturelle ???????? ???? ???? 85mmf28sam a?thiopien ethiopie? etiopi?a etio?pia ????????? ?????????? ?????????? ?????? ?????? ??????????
license: 0
latitude: 13.274699
longitude: 38.240661
accuracy: 16
views: 14
interestingness: 137 out of 238

photo: 6437907283 f5fec7b67e 7017
owner: 99069150@N00
title: Wiener Dog Races at Del Mar
originalsecret: f67e089f8b
originalformat: jpg
o_height: 2848
o_width: 4288
datetaken: 2011-09-05 16:20:22
dateupload: 1322770814
tags: ca horses dog mar wiener horseracing pamela races delmarracetrack schreckengostpamschreckcomwiener dogspeopledel
license: 0
latitude: 32.976286
longitude: -117.262616
accuracy: 14
views: 6
interestingness: 138 out of 238

photo: 6437884241 74e650de00 7023
owner: 99069150@N00
title: Wiener Dog Races at Del Mar
originalsecret: dacba76144
originalformat: jpg
o_height: 2848
o_width: 4288
datetaken: 2011-09-05 16:19:32
dateupload: 1322770499
tags: ca horses dog mar wiener horseracing pamela races delmarracetrack schreckengostpamschreckcomwiener dogsdel
license: 0
latitude: 32.976286
longitude: -117.262616
accuracy: 14
views: 15
interestingness: 139 out of 238

photo: 6437866417 c40b244469 7013
owner: 99069150@N00
title: Wiener Dog Races at Del Mar
originalsecret: a0794e5e7b
originalformat: jpg
o_height: 2848
o_width: 4288
datetaken: 2011-09-05 16:19:32
dateupload: 1322770244
tags: ca horses dog mar wiener horseracing pamela races delmarracetrack schreckengostpamschreckcomwiener dogsdel
license: 0
latitude: 32.976286
longitude: -117.262616
accuracy: 14
views: 10
interestingness: 140 out of 238

photo: 6437847743 8a0326d23e 7015
owner: 99069150@N00
title: Wiener Dog Races at Del Mar
originalsecret: decf890999
originalformat: jpg
o_height: 2848
o_width: 4288
datetaken: 2011-09-05 16:19:32
dateupload: 1322769990
tags: ca horses dog mar wiener horseracing pamela races delmarracetrack schreckengostpamschreckcomwiener dogsdel
license: 0
latitude: 32.976286
longitude: -117.262616
accuracy: 14
views: 6
interestingness: 141 out of 238

photo: 6437827599 aaa3abd9de 7005
owner: 99069150@N00
title: Wiener Dog Races at Del Mar
originalsecret: 6f337ddc13
originalformat: jpg
o_height: 2848
o_width: 4288
datetaken: 2011-09-05 16:19:30
dateupload: 1322769717
tags: ca horses dog mar wiener horseracing pamela races delmarracetrack schreckengostpamschreckcomwiener dogspeopledel
license: 0
latitude: 32.976286
longitude: -117.262616
accuracy: 14
views: 6
interestingness: 142 out of 238

photo: 6437815179 751399cc03 7016
owner: 24609104@N06
title: 1927 Russell Highway Patrol #2 grader
originalsecret: 91566afbf8
originalformat: jpg
o_height: 2432
o_width: 3648
datetaken: 2011-10-23 15:31:07
dateupload: 1322769561
tags: auto road canada car highway automobile russell antique newbrunswick patrol havelock 1927 grader
license: 0
latitude: 46.005144
longitude: -65.302026
accuracy: 15
views: 14
interestingness: 143 out of 238

photo: 6437802629 f2a22d609d 7005
owner: 99069150@N00
title: Wiener Dog Races at Del Mar
originalsecret: be1b7ddac8
originalformat: jpg
o_height: 2848
o_width: 4288
datetaken: 2011-09-05 16:19:30
dateupload: 1322769405
tags: ca horses dog mar wiener horseracing pamela races delmarracetrack schreckengostpamschreckcomwiener dogspeopledel
license: 0
latitude: 32.976286
longitude: -117.262616
accuracy: 14
views: 9
interestingness: 144 out of 238

photo: 6437782131 94b4076401 7153
owner: 99069150@N00
title: Wiener Dog Races at Del Mar
originalsecret: 1cb35fde4d
originalformat: jpg
o_height: 2848
o_width: 4288
datetaken: 2011-09-05 16:19:18
dateupload: 1322769136
tags: ca horses dog mar wiener horseracing pamela races delmarracetrack schreckengostpamschreckcomwiener dogspeopledel
license: 0
latitude: 32.976286
longitude: -117.262616
accuracy: 14
views: 5
interestingness: 145 out of 238

photo: 6437763797 deb20b6aed 7033
owner: 99069150@N00
title: Race 5 Del Mar
originalsecret: bcf868a5fe
originalformat: jpg
o_height: 2848
o_width: 4288
datetaken: 2011-09-05 16:10:47
dateupload: 1322768876
tags: ca horses del mar 5 horseracing pamela mardel delmarracetrack schreckengostpamschreckcomrace
license: 0
latitude: 32.976286
longitude: -117.262616
accuracy: 14
views: 0
interestingness: 146 out of 238

photo: 6437746607 9d2b57054c 7030
owner: 99069150@N00
title: Race 5 Del Mar
originalsecret: 621213d855
originalformat: jpg
o_height: 2848
o_width: 4288
datetaken: 2011-09-05 16:10:47
dateupload: 1322768648
tags: ca horses del mar 5 horseracing pamela mardel delmarracetrack schreckengostpamschreckcomrace
license: 0
latitude: 32.976286
longitude: -117.262616
accuracy: 14
views: 0
interestingness: 147 out of 238

photo: 6437731073 f8279b76e2 7159
owner: 99069150@N00
title: Race 5 Del Mar
originalsecret: 8bef3a54e2
originalformat: jpg
o_height: 2848
o_width: 4288
datetaken: 2011-09-05 16:10:43
dateupload: 1322768434
tags: ca horses del mar 5 horseracing pamela mardel delmarracetrack schreckengostpamschreckcomrace
license: 0
latitude: 32.976286
longitude: -117.262616
accuracy: 14
views: 0
interestingness: 148 out of 238

photo: 6437712065 9aece16e72 7169
owner: 99069150@N00
title: Race 5 Del Mar
originalsecret: fca224561c
originalformat: jpg
o_height: 2848
o_width: 4288
datetaken: 2011-09-05 16:10:38
dateupload: 1322768149
tags: ca horses del mar 5 horseracing pamela mardel delmarracetrack schreckengostpamschreckcomrace
license: 0
latitude: 32.976286
longitude: -117.262616
accuracy: 14
views: 0
interestingness: 149 out of 238

photo: 6437694317 15cbfb93f4 7169
owner: 99069150@N00
title: Race 5 Del Mar
originalsecret: d908600475
originalformat: jpg
o_height: 2848
o_width: 4288
datetaken: 2011-09-05 16:09:22
dateupload: 1322767890
tags: ca horses del mar 5 horseracing pamela mardel delmarracetrack schreckengostpamschreckcomrace
license: 0
latitude: 32.976286
longitude: -117.262616
accuracy: 14
views: 0
interestingness: 150 out of 238

photo: 6437674587 7c4d58f8fc 7147
owner: 99069150@N00
title: Race 5 Del Mar
originalsecret: 6ed8488e7e
originalformat: jpg
o_height: 2848
o_width: 4288
datetaken: 2011-09-05 16:09:18
dateupload: 1322767623
tags: ca horses del mar 5 horseracing pamela mardel delmarracetrack schreckengostpamschreckcomrace
license: 0
latitude: 32.976286
longitude: -117.262616
accuracy: 14
views: 0
interestingness: 151 out of 238

photo: 6437652473 948a7a6927 7002
owner: 99069150@N00
title: Race 5 Del Mar
originalsecret: 4f00087b95
originalformat: jpg
o_height: 2848
o_width: 4288
datetaken: 2011-09-05 16:09:13
dateupload: 1322767333
tags: ca horses del mar 5 horseracing pamela mardel delmarracetrack schreckengostpamschreckcomrace
license: 0
latitude: 32.976286
longitude: -117.262616
accuracy: 14
views: 0
interestingness: 152 out of 238

photo: 6437632467 7a7eb81070 7158
owner: 99069150@N00
title: Race 5 Del Mar
originalsecret: 3929875fc1
originalformat: jpg
o_height: 2848
o_width: 4288
datetaken: 2011-09-05 16:09:09
dateupload: 1322767058
tags: ca horses del mar 5 horseracing pamela mardel delmarracetrack schreckengostpamschreckcomrace
license: 0
latitude: 32.976286
longitude: -117.262616
accuracy: 14
views: 0
interestingness: 153 out of 238

photo: 6437614543 84b4ee5b4e 7023
owner: 40083594@N04
title: Black Icelandic Horse
originalsecret: 3112b4ab7c
originalformat: jpg
o_height: 670
o_width: 1024
datetaken: 2011-12-01 07:22:43
dateupload: 1322766825
tags: travel winter sunset sky horse cloud snow cold cute eye ice beautiful up animal fence mouth hair photography iceland wire furry nikon europe close farm freezing shaggy temperature nikkor barbed minus mane icelandic 2011 2470 d7000 katclay
license: 0
latitude: 64.25727
longitude: -21.1443
accuracy: 11
views: 31
interestingness: 154 out of 238

photo: 6437611677 2126852ec1 7164
owner: 99069150@N00
title: Race 5 Del Mar
originalsecret: 913506f955
originalformat: jpg
o_height: 2848
o_width: 4288
datetaken: 2011-09-05 16:08:15
dateupload: 1322766787
tags: ca horses del mar 5 horseracing pamela mardel delmarracetrack schreckengostpamschreckcomrace
license: 0
latitude: 32.976286
longitude: -117.262616
accuracy: 14
views: 0
interestingness: 155 out of 238

photo: 6437589643 76afaf8994 7019
owner: 99069150@N00
title: Race 4 Del Mar
originalsecret: 3fefcfcd70
originalformat: jpg
o_height: 2848
o_width: 4288
datetaken: 2011-09-05 15:38:22
dateupload: 1322766473
tags: ca horses del mar 4 horseracing pamela mardel delmarracetrack schreckengostpamschreckcomrace
license: 0
latitude: 32.976286
longitude: -117.262616
accuracy: 14
views: 0
interestingness: 156 out of 238

photo: 6437570959 394f602077 7012
owner: 99069150@N00
title: Race 4 Del Mar
originalsecret: 7f6110ede2
originalformat: jpg
o_height: 2848
o_width: 4288
datetaken: 2011-09-05 15:38:22
dateupload: 1322766213
tags: ca horses del mar 4 horseracing pamela mardel delmarracetrack schreckengostpamschreckcomrace
license: 0
latitude: 32.976286
longitude: -117.262616
accuracy: 14
views: 0
interestingness: 157 out of 238

photo: 6437551211 f66b2769e9 7007
owner: 99069150@N00
title: Joel Rosario on One Magical Girl
originalsecret: c53d730465
originalformat: jpg
o_height: 2848
o_width: 4288
datetaken: 2011-09-05 15:38:21
dateupload: 1322765950
tags: ca horses horseracing delmar delmarracetrack joelrosario pamelaschreckengost pamschreckcom race4delmar onemagicalgirl
license: 0
latitude: 32.976286
longitude: -117.262616
accuracy: 14
views: 0
interestingness: 158 out of 238

photo: 6437531543 b072f5841a 7017
owner: 99069150@N00
title: David Flores on Do Somethin
originalsecret: ccebb84967
originalformat: jpg
o_height: 2848
o_width: 4288
datetaken: 2011-09-05 15:27:27
dateupload: 1322765680
tags: ca horses horseracing delmar delmarracetrack dosomethin davidflores pamelaschreckengost pamschreckcom race4delmar
license: 0
latitude: 32.976286
longitude: -117.262616
accuracy: 14
views: 0
interestingness: 159 out of 238

photo: 6437511221 3521e85866 7161
owner: 99069150@N00
title: Martin Garcia on Handfull
originalsecret: 014740da98
originalformat: jpg
o_height: 2848
o_width: 4288
datetaken: 2011-09-05 15:27:19
dateupload: 1322765395
tags: ca horses horseracing delmar handfull delmarracetrack martingarcia pamelaschreckengost pamschreckcom race4delmar
license: 0
latitude: 32.976286
longitude: -117.262616
accuracy: 14
views: 0
interestingness: 160 out of 238

photo: 6437493599 1accc2f265 7034
owner: 99069150@N00
title: Martin Garcia on Handfull
originalsecret: 71cbd7c9a7
originalformat: jpg
o_height: 2848
o_width: 4288
datetaken: 2011-09-05 15:27:17
dateupload: 1322765145
tags: ca horses horseracing delmar handfull delmarracetrack martingarcia pamelaschreckengost pamschreckcom race4delmar
license: 0
latitude: 32.976286
longitude: -117.262616
accuracy: 14
views: 0
interestingness: 161 out of 238

photo: 6437479797 d817d57cd3 7156
owner: 99069150@N00
title: Martin Pedroza on Ms Pianist
originalsecret: 1eed9c97f5
originalformat: jpg
o_height: 2848
o_width: 4288
datetaken: 2011-09-05 15:27:04
dateupload: 1322764932
tags: ca horses horseracing delmar delmarracetrack martinpedroza pamelaschreckengost pamschreckcom race4delmar mspianist
license: 0
latitude: 32.976286
longitude: -117.262616
accuracy: 14
views: 0
interestingness: 162 out of 238

photo: 6437460869 e78cf329d1 7141
owner: 99069150@N00
title: Joseph Talamo on Kilted Tilt
originalsecret: fd2ff5a52b
originalformat: jpg
o_height: 2848
o_width: 4288
datetaken: 2011-09-05 15:27:02
dateupload: 1322764672
tags: ca horses horseracing delmar delmarracetrack josephtalamo pamelaschreckengost pamschreckcom kiltedtilt race4delmar
license: 0
latitude: 32.976286
longitude: -117.262616
accuracy: 14
views: 0
interestingness: 163 out of 238

photo: 6437422969 b8539c675c 7148
owner: 99069150@N00
title: Wiener Dog Races at Del Mar
originalsecret: 237c3e049e
originalformat: jpg
o_height: 2848
o_width: 4288
datetaken: 2011-09-05 15:19:11
dateupload: 1322764154
tags: ca horses people dogs horseracing delmar wienerdogs delmarracetrack wienerdograces pamelaschreckengost pamschreckcom
license: 0
latitude: 32.976286
longitude: -117.262616
accuracy: 14
views: 4
interestingness: 164 out of 238

photo: 6437400307 450121d87f 7147
owner: 99069150@N00
title: Wiener Dog Races at Del Mar
originalsecret: 5b4da71362
originalformat: jpg
o_height: 2848
o_width: 4288
datetaken: 2011-09-05 15:19:07
dateupload: 1322763844
tags: ca horses people dogs horseracing delmar wienerdogs delmarracetrack wienerdograces pamelaschreckengost pamschreckcom
license: 0
latitude: 32.976286
longitude: -117.262616
accuracy: 14
views: 4
interestingness: 165 out of 238

photo: 6437376275 0c19d77814 7144
owner: 99069150@N00
title: Wiener Dog Races at Del Mar
originalsecret: 9709dbc126
originalformat: jpg
o_height: 2848
o_width: 4288
datetaken: 2011-09-05 15:18:25
dateupload: 1322763517
tags: ca horses dogs horseracing delmar wienerdogs delmarracetrack wienerdograces pamelaschreckengost pamschreckcom
license: 0
latitude: 32.976286
longitude: -117.262616
accuracy: 14
views: 3
interestingness: 166 out of 238

photo: 6437359343 c10dc36253 7155
owner: 99069150@N00
title: Wiener Dog Races at Del Mar
originalsecret: 615ec11d5e
originalformat: jpg
o_height: 2848
o_width: 4288
datetaken: 2011-09-05 15:18:25
dateupload: 1322763279
tags: ca horses dogs horseracing delmar wienerdogs delmarracetrack wienerdograces pamelaschreckengost pamschreckcom
license: 0
latitude: 32.976286
longitude: -117.262616
accuracy: 14
views: 2
interestingness: 167 out of 238

photo: 6437341461 0a8eba9b76 7160
owner: 99069150@N00
title: Wiener Dog Races at Del Mar
originalsecret: 2a25af4e45
originalformat: jpg
o_height: 2848
o_width: 4288
datetaken: 2011-09-05 15:18:25
dateupload: 1322763031
tags: ca horses dogs horseracing delmar wienerdogs delmarracetrack wienerdograces pamelaschreckengost pamschreckcom
license: 0
latitude: 32.976286
longitude: -117.262616
accuracy: 14
views: 2
interestingness: 168 out of 238

photo: 6437321745 d126d773fa 7144
owner: 99069150@N00
title: Wiener Dog Races at Del Mar
originalsecret: d955ebf3aa
originalformat: jpg
o_height: 2848
o_width: 4288
datetaken: 2011-09-05 15:18:24
dateupload: 1322762755
tags: ca horses dogs horseracing delmar wienerdogs delmarracetrack wienerdograces pamelaschreckengost pamschreckcom
license: 0
latitude: 32.976286
longitude: -117.262616
accuracy: 14
views: 3
interestingness: 169 out of 238

photo: 6437301037 cf1ebe1411 7002
owner: 99069150@N00
title: Wiener Dog Races at Del Mar
originalsecret: b961b408d9
originalformat: jpg
o_height: 2848
o_width: 4288
datetaken: 2011-09-05 15:18:23
dateupload: 1322762480
tags: ca horses people dogs horseracing delmar wienerdogs delmarracetrack wienerdograces pamelaschreckengost pamschreckcom
license: 0
latitude: 32.976286
longitude: -117.262616
accuracy: 14
views: 2
interestingness: 170 out of 238

photo: 6437282767 7d67cde756 7161
owner: 99069150@N00
title: Wiener Dog Races at Del Mar
originalsecret: 46fbc5545a
originalformat: jpg
o_height: 2848
o_width: 4288
datetaken: 2011-09-05 15:18:23
dateupload: 1322762229
tags: ca horses people dogs horseracing delmar wienerdogs delmarracetrack wienerdograces pamelaschreckengost pamschreckcom
license: 0
latitude: 32.976286
longitude: -117.262616
accuracy: 14
views: 3
interestingness: 171 out of 238

photo: 6437272491 7f5df6b26f 7145
owner: 99069150@N00
title: Wiener Dog Races at Del Mar
originalsecret: 4b0ea2c6ce
originalformat: jpg
o_height: 2848
o_width: 4288
datetaken: 2011-09-05 15:18:22
dateupload: 1322762091
tags: ca horses people dogs horseracing delmar wienerdogs delmarracetrack wienerdograces pamelaschreckengost pamschreckcom
license: 0
latitude: 32.976286
longitude: -117.262616
accuracy: 14
views: 2
interestingness: 172 out of 238

photo: 6437193833 3399abc0ae 7014
owner: 99069150@N00
title: Mike Smith on Ruler of Dubai
originalsecret: f17de8ca5d
originalformat: jpg
o_height: 2848
o_width: 4288
datetaken: 2011-09-05 15:06:23
dateupload: 1322761066
tags: ca horses 3 del mar horseracing pamela delmarracetrack marmike schreckengostpamschreckcomrace smithruler dubaidel
license: 0
latitude: 32.976286
longitude: -117.262616
accuracy: 14
views: 0
interestingness: 173 out of 238

photo: 6437179123 481f001dce 7023
owner: 99069150@N00
title: Race 2 Del Mar
originalsecret: f5efd8913f
originalformat: jpg
o_height: 2848
o_width: 4288
datetaken: 2011-09-05 14:35:01
dateupload: 1322760885
tags: ca 2 horses del mar horseracing pamela mardel delmarracetrack schreckengostpamschreckcomrace
license: 0
latitude: 32.976286
longitude: -117.262616
accuracy: 14
views: 0
interestingness: 174 out of 238

photo: 6437168891 e9f134accd 7030
owner: 99069150@N00
title: Race 2 Del Mar
originalsecret: 914372acec
originalformat: jpg
o_height: 2848
o_width: 4288
datetaken: 2011-09-05 14:34:57
dateupload: 1322760755
tags: ca 2 horses del mar horseracing pamela mardel delmarracetrack schreckengostpamschreckcomrace
license: 0
latitude: 32.976286
longitude: -117.262616
accuracy: 14
views: 0
interestingness: 175 out of 238

photo: 6437155519 76360eed78 7144
owner: 99069150@N00
title: Race 2 Del Mar
originalsecret: e046c57cd4
originalformat: jpg
o_height: 2848
o_width: 4288
datetaken: 2011-09-05 14:33:33
dateupload: 1322760583
tags: ca 2 horses del mar horseracing pamela mardel delmarracetrack schreckengostpamschreckcomrace
license: 0
latitude: 32.976286
longitude: -117.262616
accuracy: 14
views: 3
interestingness: 176 out of 238

photo: 6437143709 0c7302df53 7020
owner: 99069150@N00
title: Race 1 Del Mar
originalsecret: 3420e0563b
originalformat: jpg
o_height: 2848
o_width: 4288
datetaken: 2011-09-05 14:03:47
dateupload: 1322760434
tags: ca horses del 1 mar horseracing pamela delmar delmarracetrack schreckengostpamschreckcomrace
license: 0
latitude: 32.976286
longitude: -117.262616
accuracy: 14
views: 0
interestingness: 177 out of 238

photo: 6437130259 4888b0ae8e 7155
owner: 99069150@N00
title: Race 1 Del Mar
originalsecret: e226546e4c
originalformat: jpg
o_height: 2848
o_width: 4288
datetaken: 2011-09-05 14:02:06
dateupload: 1322760260
tags: ca horses del 1 mar horseracing pamela delmar delmarracetrack schreckengostpamschreckcomrace
license: 0
latitude: 32.976286
longitude: -117.262616
accuracy: 14
views: 0
interestingness: 178 out of 238

photo: 6437122265 30d5e68714 7027
owner: 99069150@N00
title: Race 1 Del Mar
originalsecret: 5099c8ae1b
originalformat: jpg
o_height: 2848
o_width: 4288
datetaken: 2011-09-05 14:02:02
dateupload: 1322760155
tags: ca horses del 1 mar horseracing pamela delmar delmarracetrack schreckengostpamschreckcomrace
license: 0
latitude: 32.976286
longitude: -117.262616
accuracy: 14
views: 0
interestingness: 179 out of 238

photo: 6437118249 4de55b90a0 7019
owner: 99069150@N00
title: Martin Garcia on Kisses for Kate
originalsecret: 902c57eb36
originalformat: jpg
o_height: 2848
o_width: 4288
datetaken: 2011-09-05 13:51:15
dateupload: 1322760100
tags: ca horses del for 1 mar horseracing pamela mardel delmarracetrack katemartin schreckengostpamschreckcomkisses garciarace
license: 0
latitude: 32.976286
longitude: -117.262616
accuracy: 14
views: 1
interestingness: 180 out of 238

photo: 6437114907 f1a19b9f8d 7145
owner: 99069150@N00
title: Freddy Fong Jr on C R Lovely Lady
originalsecret: a70a1e801f
originalformat: jpg
o_height: 2848
o_width: 4288
datetaken: 2011-09-05 13:50:38
dateupload: 1322760056
tags: ca horses horseracing delmar delmarracetrack pamelaschreckengost pamschreckcom crlovelylady feddyfongjr race1delmar
license: 0
latitude: 32.976286
longitude: -117.262616
accuracy: 14
views: 0
interestingness: 181 out of 238

photo: 6435953967 a8aafa5909 7020
owner: 7471115@N08
title: Assateague Island Horse 2
originalsecret: fae9db3129
originalformat: jpg
o_height: 3456
o_width: 5184
datetaken: 2011-11-25 23:25:15
dateupload: 1322742722
tags: horses horse animals md maryland assateagueisland wildhorses stallion assateague wildhorse
license: 3
latitude: 38.209657
longitude: -75.152213
accuracy: 15
views: 31
interestingness: 182 out of 238

photo: 6435526209 57615a6139 7170
owner: 65509306@N03
title: Day 107: "Decline of the West" by Conor Harrington
originalsecret: null
originalformat: null
o_height: null
o_width: null
datetaken: 2011-12-01 09:57:15
dateupload: 1322733435
tags: streetart square mural squareformat brannan e1 manonhorse declineofthewest postgrafitti conorharrington shoreditchart iphoneography instagramapp uploaded:by=instagram fashionstreetgrafitti
license: 0
latitude: 51.518397
longitude: -0.073871
accuracy: 15
views: 36
interestingness: 183 out of 238

photo: 6435380953 820e8f919d 7028
owner: 96614638@N00
title: HPD Color Guard
originalsecret: null
originalformat: null
o_height: null
o_width: null
datetaken: 2011-11-24 10:08:20
dateupload: 1322729883
tags: thanksgiving horses texas houston police flags parade policewoman law lonestar usflag policeofficers policemen thanksgivingdayparade oldglory officers hpd carolinestreet texasstateflag holidayparade houstonpolicedepartment mountedofficers dallasstreet houstonholidayparade cityofhoustonflag
license: 0
latitude: 29.753852
longitude: -95.363414
accuracy: 16
views: 30
interestingness: 184 out of 238

photo: 6435179435 7d261fed70 7175
owner: 60162443@N00
title: Horse and Carriage in the Old Port, Montreal
originalsecret: 7b4c86e5e7
originalformat: jpg
o_height: 5711
o_width: 5749
datetaken: 2011-11-22 13:07:59
dateupload: 1322725059
tags: travel montreal 120film mf rodinal oldport acros filmphotography fujiacros100 fujifilmneopanacros100 standdeveloping quaisduvieuxport browniehawkeyeflashmediumformat
license: 2
latitude: 45.50779
longitude: -73.551889
accuracy: 16
views: 4
interestingness: 185 out of 238

photo: 6433892833 c6e950de63 7170
owner: 24666388@N07
title: Mission Inn, Riverside, Ca
originalsecret: c8a2024280
originalformat: jpg
o_height: 2658
o_width: 4272
datetaken: 2011-11-27 20:58:29
dateupload: 1322703443
tags: california christmas winter horses holiday tree train canon festive toy religious lights downtown december arch carriage riverside religion arcade columns arches christmastree christmaslights lanterns mission vendor panning crepes missioninn lightroom toytrain 2011 concumerism outlawmenacephotography
license: 0
latitude: 33.982873
longitude: -117.37293
accuracy: 16
views: 36
interestingness: 186 out of 238

photo: 6433585589 6d7c69d9a0 7162
owner: 16767123@N08
title: Fighting Stallions Memorial
originalsecret: f75c41382e
originalformat: jpg
o_height: 5184
o_width: 3456
datetaken: 2011-09-26 14:59:40
dateupload: 1322698903
tags: horses sculpture southdakota plane memorial state crash pierre capital capitol plains fightingstallions
license: 0
latitude: 44.366055
longitude: -100.344958
accuracy: 16
views: 0
interestingness: 187 out of 238

photo: 6433584649 0cfee56bdd 7163
owner: 16767123@N08
title: Fighting Stallions Memorial
originalsecret: e34aa9a582
originalformat: jpg
o_height: 3456
o_width: 5184
datetaken: 2011-09-26 14:59:21
dateupload: 1322698888
tags: horses sculpture southdakota plane memorial state crash pierre capital capitol plains fightingstallions
license: 0
latitude: 44.366055
longitude: -100.344958
accuracy: 16
views: 0
interestingness: 188 out of 238

photo: 6438593255 34db79eca1 7014
owner: 99069150@N00
title: Patrick Valenzuela
originalsecret: 561e75e3b2
originalformat: jpg
o_height: 2848
o_width: 4288
datetaken: 2011-09-05 17:25:02
dateupload: 1322779566
tags: ca horses horseracing delmar paddock delmarracetrack pamelaschreckengost pamschreckcom race8delmarpaddock
license: 0
latitude: 32.976286
longitude: -117.262616
accuracy: 14
views: 1
interestingness: 189 out of 238

photo: 6438568815 8646d2fd20 7144
owner: 99069150@N00
title: Patrick Valenzuela
originalsecret: 89364d57a9
originalformat: jpg
o_height: 2848
o_width: 4288
datetaken: 2011-09-05 17:23:33
dateupload: 1322779236
tags: ca horses horseracing delmar paddock delmarracetrack pamelaschreckengost pamschreckcom race8delmarpaddock
license: 0
latitude: 32.976286
longitude: -117.262616
accuracy: 14
views: 1
interestingness: 190 out of 238

photo: 6438559489 b6f4d8709e 7018
owner: 99069150@N00
title: Patrick Valenzuela
originalsecret: f66c11bd98
originalformat: jpg
o_height: 2848
o_width: 4288
datetaken: 2011-09-05 17:23:24
dateupload: 1322779117
tags: ca horses horseracing delmar paddock delmarracetrack pamelaschreckengost pamschreckcom race8delmarpaddock
license: 0
latitude: 32.976286
longitude: -117.262616
accuracy: 14
views: 1
interestingness: 191 out of 238

photo: 6438486005 e2ce77cd72 7028
owner: 99069150@N00
title: Paddock
originalsecret: 5d1e8c4a56
originalformat: jpg
o_height: 2848
o_width: 4288
datetaken: 2011-09-05 17:19:09
dateupload: 1322778176
tags: ca horses horseracing delmar paddock delmarracetrack pamelaschreckengost pamschreckcom race8delmarpaddock
license: 0
latitude: 32.976286
longitude: -117.262616
accuracy: 14
views: 1
interestingness: 192 out of 238

photo: 6437443415 71c92dd326 7143
owner: 99069150@N00
title: Wiener Dog Races at Del Mar
originalsecret: 8d1c7438d2
originalformat: jpg
o_height: 2848
o_width: 4288
datetaken: 2011-09-05 15:19:28
dateupload: 1322764431
tags: ca horses people horseracing delmar delmarracetrack wienerdograces pamelaschreckengost pamschreckcom
license: 0
latitude: 32.976286
longitude: -117.262616
accuracy: 14
views: 1
interestingness: 193 out of 238

photo: 6437261851 2a894dd363 7146
owner: 99069150@N00
title: Wiener Dog Races at Del Mar
originalsecret: edae2e69e9
originalformat: jpg
o_height: 2848
o_width: 4288
datetaken: 2011-09-05 15:18:21
dateupload: 1322761949
tags: ca horses people horseracing delmar delmarracetrack wienerdograces pamelaschreckengost pamschreckcom
license: 0
latitude: 32.976286
longitude: -117.262616
accuracy: 14
views: 0
interestingness: 194 out of 238

photo: 6437250935 a694a9d886 7002
owner: 99069150@N00
title: Wiener Dog Races at Del Mar
originalsecret: 64124ab1fc
originalformat: jpg
o_height: 2848
o_width: 4288
datetaken: 2011-09-05 15:18:21
dateupload: 1322761803
tags: ca horses people horseracing delmar delmarracetrack wienerdograces pamelaschreckengost pamschreckcom
license: 0
latitude: 32.976286
longitude: -117.262616
accuracy: 14
views: 0
interestingness: 195 out of 238

photo: 6437241155 cf6295606d 7003
owner: 99069150@N00
title: Wiener Dog Races at Del Mar
originalsecret: f8fa538eec
originalformat: jpg
o_height: 2848
o_width: 4288
datetaken: 2011-09-05 15:17:07
dateupload: 1322761670
tags: ca horses people horseracing delmar delmarracetrack wienerdograces pamelaschreckengost pamschreckcom
license: 0
latitude: 32.976286
longitude: -117.262616
accuracy: 14
views: 0
interestingness: 196 out of 238

photo: 6437229921 fb0d191be7 7025
owner: 99069150@N00
title: Wiener Dog Races at Del Mar
originalsecret: 1e31a1f140
originalformat: jpg
o_height: 2848
o_width: 4288
datetaken: 2011-09-05 15:17:00
dateupload: 1322761517
tags: ca horses people horseracing delmar delmarracetrack wienerdograces pamelaschreckengost pamschreckcom
license: 0
latitude: 32.976286
longitude: -117.262616
accuracy: 14
views: 1
interestingness: 197 out of 238

photo: 6437218849 70be463552 7027
owner: 99069150@N00
title: Wiener Dog Races at Del Mar
originalsecret: 4043972393
originalformat: jpg
o_height: 2848
o_width: 4288
datetaken: 2011-09-05 15:16:07
dateupload: 1322761369
tags: ca horses people horseracing delmar delmarracetrack wienerdograces pamelaschreckengost pamschreckcom
license: 0
latitude: 32.976286
longitude: -117.262616
accuracy: 14
views: 1
interestingness: 198 out of 238

photo: 6437207695 1e0ea051b1 7141
owner: 99069150@N00
title: Wiener Dog Races at Del Mar
originalsecret: 5cf4168604
originalformat: jpg
o_height: 2848
o_width: 4288
datetaken: 2011-09-05 15:12:53
dateupload: 1322761231
tags: ca horses people horseracing delmar delmarracetrack wienerdograces pamelaschreckengost pamschreckcom
license: 0
latitude: 32.976286
longitude: -117.262616
accuracy: 14
views: 0
interestingness: 199 out of 238

photo: 6437162247 a31dc914d0 7026
owner: 58047960@N08
title: IMG_1046
originalsecret: b57d143c53
originalformat: jpg
o_height: 3744
o_width: 5616
datetaken: 2011-11-19 04:23:40
dateupload: 1322760668
tags: horse fall race camden south event jockey carolina 2011
license: 0
latitude: 34.276368
longitude: -80.624155
accuracy: 14
views: 6
interestingness: 200 out of 238

photo: 6437156739 3494b5a804 7010
owner: 58047960@N08
title: Jockeys at Rest
originalsecret: c54c124a1f
originalformat: jpg
o_height: 3191
o_width: 4787
datetaken: 2011-11-19 03:56:17
dateupload: 1322760598
tags: horse fall race camden south event jockey carolina 2011
license: 0
latitude: 34.276368
longitude: -80.624155
accuracy: 14
views: 13
interestingness: 201 out of 238

photo: 6437151011 f4a67fda2c 7153
owner: 58047960@N08
title: IMG_0891
originalsecret: 02573e826c
originalformat: jpg
o_height: 2323
o_width: 3485
datetaken: 2011-11-19 03:01:12
dateupload: 1322760525
tags: horse fall race camden south event jockey carolina 2011
license: 0
latitude: 34.276368
longitude: -80.624155
accuracy: 14
views: 6
interestingness: 202 out of 238

photo: 6437147831 cff88e9582 7032
owner: 58047960@N08
title: IMG_0819
originalsecret: 62c9fb1e55
originalformat: jpg
o_height: 824
o_width: 1235
datetaken: 2011-11-19 02:16:49
dateupload: 1322760486
tags: horse fall race camden south event jockey carolina 2011
license: 0
latitude: 34.276368
longitude: -80.624155
accuracy: 14
views: 7
interestingness: 203 out of 238

photo: 6437147397 8963f675dd 7143
owner: 58047960@N08
title: IMG_0815
originalsecret: 354eaf7ab8
originalformat: jpg
o_height: 3632
o_width: 5447
datetaken: 2011-11-19 02:14:33
dateupload: 1322760480
tags: horse fall race camden south event jockey carolina 2011
license: 0
latitude: 34.276368
longitude: -80.624155
accuracy: 14
views: 8
interestingness: 204 out of 238

photo: 6437143031 3fe5dbd2b0 7006
owner: 58047960@N08
title: IMG_0793
originalsecret: 591954803f
originalformat: jpg
o_height: 2288
o_width: 3432
datetaken: 2011-11-19 02:07:06
dateupload: 1322760427
tags: horse fall race camden south event jockey carolina 2011
license: 0
latitude: 34.276368
longitude: -80.624155
accuracy: 14
views: 8
interestingness: 205 out of 238

photo: 6437140951 6ccb5cd362 7171
owner: 58047960@N08
title: IMG_0755
originalsecret: 864bf5dd91
originalformat: jpg
o_height: 3456
o_width: 5182
datetaken: 2011-11-19 01:31:11
dateupload: 1322760400
tags: horse fall race camden south event jockey carolina 2011
license: 0
latitude: 34.276368
longitude: -80.624155
accuracy: 14
views: 4
interestingness: 206 out of 238

photo: 6437138159 d8e5040175 7012
owner: 58047960@N08
title: IMG_0747
originalsecret: af5d8b57c3
originalformat: jpg
o_height: 654
o_width: 847
datetaken: 2011-11-19 01:31:05
dateupload: 1322760364
tags: horse fall race camden south event jockey carolina 2011
license: 0
latitude: 34.276368
longitude: -80.624155
accuracy: 14
views: 8
interestingness: 207 out of 238

photo: 6437136307 f246e759da 7156
owner: 58047960@N08
title: IMG_0742
originalsecret: 0f9f9d0472
originalformat: jpg
o_height: 1154
o_width: 1731
datetaken: 2011-11-19 01:30:58
dateupload: 1322760339
tags: horse fall race camden south event jockey carolina 2011
license: 0
latitude: 34.276368
longitude: -80.624155
accuracy: 14
views: 9
interestingness: 208 out of 238

photo: 6437135371 0da9041c52 7169
owner: 58047960@N08
title: IMG_0727
originalsecret: ec62510b0a
originalformat: jpg
o_height: 1153
o_width: 891
datetaken: 2011-11-19 01:21:09
dateupload: 1322760327
tags: horse fall race camden south event jockey carolina 2011
license: 0
latitude: 34.276368
longitude: -80.624155
accuracy: 14
views: 7
interestingness: 209 out of 238

photo: 6436515951 37b9a36660 7166
owner: 43085827@N07
title: 1066 Reenactment
originalsecret: null
originalformat: null
o_height: null
o_width: null
datetaken: 2011-10-15 12:08:30
dateupload: 1322751941
tags: horses abbey battle warriors hastings reenactment 1066 normans saxons
license: 0
latitude: 50.915519
longitude: 0.48883
accuracy: 11
views: 0
interestingness: 210 out of 238

photo: 6436515537 0a56879af2 7006
owner: 43085827@N07
title: 1066 Reenactment
originalsecret: null
originalformat: null
o_height: null
o_width: null
datetaken: 2011-10-15 12:16:17
dateupload: 1322751935
tags: horses abbey battle warriors hastings reenactment 1066 normans saxons
license: 0
latitude: 50.915519
longitude: 0.48883
accuracy: 11
views: 0
interestingness: 211 out of 238

photo: 6436166241 38c1410955 7030
owner: 40470653@N04
title: Main Lodge - Former Horse Barn
originalsecret: 8292dc6893
originalformat: jpg
o_height: 1200
o_width: 1600
datetaken: 2011-04-22 19:15:26
dateupload: 1322746539
tags: illinois log cabin logcabin bb bedandbreakfast 2011 shawneenationalforest oldesquatinn
license: 0
latitude: 37.801322
longitude: -88.834839
accuracy: 16
views: 3
interestingness: 212 out of 238

photo: 6435788779 94e6dc16ed 7034
owner: 71136231@N03
title: Bus Lane
originalsecret: null
originalformat: null
o_height: null
o_width: null
datetaken: 2011-06-09 09:25:04
dateupload: 1322739348
tags: sensethecity
license: 0
latitude: 51.537666
longitude: -0.176
accuracy: 16
views: 18
interestingness: 213 out of 238

photo: 6434597947 12ab438f4c 7172
owner: 81249623@N00
title: Painted Desert AZ
originalsecret: 51ba1a182f
originalformat: jpg
o_height: 1098
o_width: 1600
datetaken: 2011-11-20 12:47:52
dateupload: 1322713814
tags: arizona horse southwest america travels scenery roadtrip painteddesert 2011
license: 3
latitude: 35.294671
longitude: -110.063695
accuracy: 12
views: 25
interestingness: 214 out of 238

photo: 6438417291 646681774c 7003
owner: 99069150@N00
title: Race 7 Del Mar
originalsecret: 16b9d4f2ab
originalformat: jpg
o_height: 2848
o_width: 4288
datetaken: 2011-09-05 17:10:08
dateupload: 1322777263
tags: ca horses horseracing delmar delmarracetrack pamelaschreckengost pamschreckcom race7delmar
license: 0
latitude: 32.976286
longitude: -117.262616
accuracy: 14
views: 1
interestingness: 215 out of 238

photo: 6438405585 4bd2384812 7148
owner: 99069150@N00
title: Race 7 Del Mar
originalsecret: 7b137dc7b0
originalformat: jpg
o_height: 2848
o_width: 4288
datetaken: 2011-09-05 17:10:09
dateupload: 1322777106
tags: ca horses horseracing delmar delmarracetrack pamelaschreckengost pamschreckcom race7delmar
license: 0
latitude: 32.976286
longitude: -117.262616
accuracy: 14
views: 1
interestingness: 216 out of 238

photo: 6438394627 20096f3bae 7168
owner: 99069150@N00
title: Race 7 Del Mar
originalsecret: bb616bc94c
originalformat: jpg
o_height: 2848
o_width: 4288
datetaken: 2011-09-05 17:10:07
dateupload: 1322776966
tags: ca horses horseracing delmar delmarracetrack pamelaschreckengost pamschreckcom race7delmar
license: 0
latitude: 32.976286
longitude: -117.262616
accuracy: 14
views: 4
interestingness: 217 out of 238

photo: 6437972311 ebd81102ba 7021
owner: 99069150@N00
title: Race 6 Del Mar
originalsecret: 6e427986e6
originalformat: jpg
o_height: 2848
o_width: 4288
datetaken: 2011-09-05 16:41:42
dateupload: 1322771657
tags: ca horses horseracing delmar delmarracetrack pamelaschreckengost pamschreckcom race6delmar
license: 0
latitude: 32.976286
longitude: -117.262616
accuracy: 14
views: 0
interestingness: 218 out of 238

photo: 6437108479 3d8a926ce8 7020
owner: 99069150@N00
title: Del Mar Paddock
originalsecret: 7437588c37
originalformat: jpg
o_height: 2848
o_width: 4288
datetaken: 2011-09-05 12:10:25
dateupload: 1322759969
tags: ca horses horseracing delmar paddock delmarracetrack pamelaschreckengost pamschreckcom
license: 0
latitude: 32.976286
longitude: -117.262616
accuracy: 14
