
mintime: 1322697600 maxtime: 1322733590.86
numimgs: 298
total pages: 2
visiting only 2 pages ( up to 500 images)
photo: 6390780493 08b0454bca 6112
owner: 35110249@N05
title: Grapes Berceau in Autumn
originalsecret: 4238e1d673
originalformat: jpg
o_height: 699
o_width: 1050
datetaken: 2011-11-08 15:16:14
dateupload: 1322729460
tags: autumn holland fall netherlands dutch state herfst nederland tunnel villa niederlande berceau burcht landhuis najaar stins provincefriesland a550 loofgang jelsum dekemastate martienuiterweerd carlzeisssony1680 martienarnhem sonyalpha550 mygearandme mygearandmepremium martienholland mygearandmebronze fotomartien formerstronghold
license: 0
latitude: 53.233269
longitude: 5.782005
accuracy: 10
views: 273
interestingness: 1 out of 298

photo: 6434711141 17c8b7d069 7156
owner: 49031479@N04
title: Startrails & light...
originalsecret: 94184525c6
originalformat: jpg
o_height: 1280
o_width: 954
datetaken: 2011-12-01 04:58:42
dateupload: 1322715579
tags: uk longexposure england orange lightpainting colour night canon photography evening streetlights spin gothic orb moonlit nighttime sphere lighttrails nightscene canon1740mmf4lusm ott hardwick startrails lightpolution lightpainted lapp northeastengland lenser canoneos5dmarkii hardwickcountrypark lenserv24 iluminatte fellwalker1 lensert7 seemedlikeagoodideathetime
license: 0
latitude: 54.65591
longitude: -1.463284
accuracy: 15
views: 216
interestingness: 2 out of 298

photo: 6435527731 86cec02610 7169
owner: 34336832@N07
title: Romantic Dortmund
originalsecret: null
originalformat: null
o_height: null
o_width: null
datetaken: 2011-11-01 15:03:11
dateupload: 1322733473
tags: old beautiful deutschland photo casa foto shot haus pic historic alemania capture maison viejo tyskland allemagne dortmund germania halftimbered fachwerk colombages fachwerkhaus aplerbeck entremadodemadera flickrstruereflection1
license: 0
latitude: 51.494176
longitude: 7.560203
accuracy: 15
views: 125
interestingness: 3 out of 298

photo: 6435180855 0367f95eec 7021
owner: 62290036@N04
title: N. Phila, 2010
originalsecret: null
originalformat: null
o_height: null
o_width: null
datetaken: 2011-05-09 15:22:52
dateupload: 1322725093
tags: 120 bronica philly rvp100f sqa halfhouse
license: 0
latitude: 40.008003
longitude: -75.166322
accuracy: 16
views: 392
interestingness: 4 out of 298

photo: 6433820727 122c3926a2 7164
owner: 41752856@N08
title: "Contrasts"
originalsecret: null
originalformat: null
o_height: null
o_width: null
datetaken: 2011-11-21 18:35:27
dateupload: 1322702382
tags: cat gato animais nikond7000
license: 0
latitude: -22.919978
longitude: -43.26416
accuracy: 13
views: 101
interestingness: 5 out of 298

photo: 6435420931 d6ed35558f 7017
owner: 91256982@N00
title: skyscape
originalsecret: 68a315b437
originalformat: jpg
o_height: 900
o_width: 911
datetaken: 2011-12-01 20:14:18
dateupload: 1322730858
tags: city windows sky urban blackandwhite bw sun 120 film skyline architecture modern clouds buildings mediumformat skyscape cityscape glare afternoon skyscrapers 4x4 curves towers grain perspective angles australia melbourne victoria scan lookup negative squareformat flare epson hp5 cbd walls agfa vignetting f8 ilford cloudporn cwb urbanlandscape agnar ilfordhp5plus isoly v700 cloudage ltbourkest keystoning 1100s bourkeplace marlandhouse agfaisolyiia isolyiia coloragnar55mmf56 goldsbroughlane
license: 3
latitude: -37.814869
longitude: 144.957062
accuracy: 16
views: 158
interestingness: 6 out of 298

photo: 6433758745 9dc97020ff 7158
owner: 67745415@N06
title: House Sparrows
originalsecret: null
originalformat: null
o_height: null
o_width: null
datetaken: 2011-11-11 18:54:27
dateupload: 1322701476
tags: birds avianexcellence
license: 0
latitude: 22.6207
longitude: 88.400931
accuracy: 16
views: 324
interestingness: 7 out of 298

photo: 6435523065 e57a9d2c92 7004
owner: 46688094@N04
title: Fuchsias
originalsecret: null
originalformat: null
o_height: null
o_width: null
datetaken: 2011-12-01 11:42:31
dateupload: 1322733363
tags: flowers newzealand summer fuchsia nz hastings sonycybershot hawkesbay cornwallpark simplyflowers homelandsea johnholtmemorialdisplayhouse dschx100v
license: 0
latitude: -39.631803
longitude: 176.845378
accuracy: 13
views: 97
interestingness: 8 out of 298

photo: 6435449057 e35a784e36 7142
owner: 68278382@N06
title: Damascus 2011
originalsecret: null
originalformat: null
o_height: null
o_width: null
datetaken: 2011-11-30 12:12:58
dateupload: 1322731522
tags: city sky mountain clouds buildings capital mount arab syria arabian damascus syrian ????? ??? ????? ???? ????? ?????? ??? ?????? nawar kassioun abigfave canoneos400d ?????? ??????? flickraward kouli flickraward5 flickrawardgallery
license: 0
latitude: 33.513633
longitude: 36.310501
accuracy: 10
views: 169
interestingness: 9 out of 298

photo: 6435490381 57f5e22d98 7009
owner: 25424627@N06
title: Porto - Straight to the river
originalsecret: a49ed26539
originalformat: jpg
o_height: 662
o_width: 1000
datetaken: 2011-01-02 15:22:13
dateupload: 1322732540
tags: city bridge winter vacation people house holiday cold texture portugal water rain clouds stairs buildings river landscape boat day angle cloudy wide porto rainy land copyrights canonef1740mmf4lusm oporto texturized canon5dmarkii antoniogiudice ?t4tophotography2011
license: 0
latitude: 41.140479
longitude: -8.610534
accuracy: 14
views: 72
interestingness: 10 out of 298

photo: 6435212147 bc6cf1ae9a 7002
owner: 10201287@N04
title: lonely simple morning
originalsecret: null
originalformat: null
o_height: null
o_width: null
datetaken: 2011-11-27 07:17:17
dateupload: 1322725854
tags: morning abandoned sunrise decay oldhouse abandonedhouse coconuttree simple paddyfield selangor ruleofthird ro3 simpanglima sungaibesar sabakbernam
license: 0
latitude: 3.666699
longitude: 100.983299
accuracy: 11
views: 89
interestingness: 11 out of 298

photo: 6435503851 4946c0cb21 7032
owner: 30982194@N05
title: View ? Vista de Albarrac?n, Teruel (Arag?n, Spain), HDR 4
originalsecret: b84413d2ff
originalformat: jpg
o_height: 660
o_width: 1000
datetaken: 2010-06-04 13:01:23
dateupload: 1322732868
tags: red espa?a rot tower church wall photoshop spain rojo nikon torre dorf village view bell map pueblo iglesia kirche vista aragon handheld aussicht nikkor 1735mmf28d defensive muralla tone teruel hdr spanien campanario stadtmauer albarracin glockenturm photomatix tonemapped tonemapping tonemap guadalaviar rodeno aragonien d700 gettyimagesiberiaq3
license: 0
latitude: 40.40839
longitude: -1.439239
accuracy: 11
views: 106
interestingness: 12 out of 298

photo: 6433671779 cd75871759 7155
owner: 8945641@N02
title: House
originalsecret: null
originalformat: null
o_height: null
o_width: null
datetaken: 2011-11-21 14:47:53
dateupload: 1322700178
tags: hangzhou china ?? house tree multipleexposure window chanmelmle mel melinda
license: 0
latitude: 30.249577
longitude: 120.116958
accuracy: 11
views: 73
interestingness: 13 out of 298

photo: 6434266571 8ac293128d 7017
owner: 10219945@N04
title: Court-house at Columbus Circle, Syracuse downtown
originalsecret: null
originalformat: null
o_height: null
o_width: null
datetaken: 2011-11-26 13:59:53
dateupload: 1322711424
tags: building downtown syracuse
license: 0
latitude: 43.049321
longitude: -76.14624
accuracy: 11
views: 32
interestingness: 14 out of 298

photo: 6435419697 6e995ebc7d 7148
owner: 28182844@N07
title: Masjid Putrajaya, Malaysia
originalsecret: null
originalformat: null
o_height: null
o_width: null
datetaken: 2011-12-01 14:06:15
dateupload: 1322730828
tags: life eve blue pakistan red art history love beautiful beauty mystery architecture contrast canon wonderful hope evening amazing cool asia exposure flickr moments alone ray colours peace artistic gorgeous awesome muslim famous bricks extreme joy expressions experiment happiness mosque explore architect experience fancy mysterious even worth around everyone lovely karachi 1224mm worl dazed wonders begining feelings mortal blooming dazzling beauiful astonishing 500d amazaing mywinners concordians archietect
license: 0
latitude: 2.713809
longitude: 101.819915
accuracy: 11
views: 108
interestingness: 15 out of 298

photo: 6434425095 5dfefccc17 7017
owner: 23448498@N02
title: Festive In Blue & Orange
originalsecret: 5cc2ef33e5
originalformat: jpg
o_height: 2386
o_width: 4234
datetaken: 2011-11-29 17:45:18
dateupload: 1322711282
tags: winter shadow fence lights nikon holidays december glow zoom decorative seasonal christmaslights chain happyholidays links davidsmith calgaryalbertacanada
license: 0
latitude: 50.948221
longitude: -114.010856
accuracy: 14
views: 52
interestingness: 16 out of 298

photo: 6435454037 453e15645f 7163
owner: 40965940@N04
title: Still Standing
originalsecret: 659eb9d35d
originalformat: jpg
o_height: 530
o_width: 800
datetaken: 2011-11-09 16:37:26
dateupload: 1322731642
tags: door old ohio sky house reflection tree brick glass rural nikon angle 1800s wide perspective atmosphere eerie fisheye weathered jewett germano d7000 truebritgal prooptic8mmf35fisheyelens
license: 0
latitude: 40.399509
longitude: -80.963058
accuracy: 11
views: 106
interestingness: 17 out of 298

photo: 6434621057 d957ca2835 7150
owner: 32134562@N08
title: Massachusetts State House
originalsecret: null
originalformat: null
o_height: null
o_width: null
datetaken: 2011-11-30 12:07:04
dateupload: 1322714157
tags: house building boston golden state massachusetts vivid sunny historic velvia dome beaconhill
license: 0
latitude: 42.357663
longitude: -71.063518
accuracy: 15
views: 72
interestingness: 18 out of 298

photo: 6434598389 a3f42b029c 7007
owner: 42867681@N08
title: 65///365
originalsecret: be968c4c46
originalformat: jpg
o_height: 1440
o_width: 1989
datetaken: 2011-11-30 17:24:23
dateupload: 1322713820
tags: pink blue house canada animal toy blurry bedroom edmonton dof room indoors alberta flannel octopus teenager canon50f18ii canon60d michaeloverbeck
license: 0
latitude: 53.542551
longitude: -113.494606
accuracy: 11
views: 120
interestingness: 19 out of 298

photo: 6429157883 1862f7fc67 6050
owner: 41254428@N05
title: The Hallway
originalsecret: null
originalformat: null
o_height: null
o_width: null
datetaken: 2011-09-21 18:07:55
dateupload: 1322699037
tags: light shadow blackandwhite bw monochrome lines contrast canon blackwhite taiwan beautifullight wideangle indoor line taipei contrasty wideanglelens llens digitalmonochrome geo76 canoneos5dmarkii 1635mmf28llens ????
license: 0
latitude: 25.028197
longitude: 121.532515
accuracy: 16
views: 60
interestingness: 20 out of 298

photo: 6433553487 30eb92ccc1 7015
owner: 8343129@N07
title: November St Katharine Docks
originalsecret: null
originalformat: null
o_height: null
o_width: null
datetaken: 2011-11-27 14:59:16
dateupload: 1322698387
tags: sky london water architecture docks buildings reflections boats nikon bars colours footbridge ships bridges sunny starbucks gherkin hdr 30stmaryaxe towerhill cruiseships stkatharinedocks photomatix footbridges towerbridgehouse herontower nikkor18105mm nikond7000
license: 0
latitude: 51.507393
longitude: -0.072441
accuracy: 14
views: 89
interestingness: 21 out of 298

photo: 6435408427 7170436d81 7146
owner: 27214061@N07
title: VILLE DE TROYES
originalsecret: null
originalformat: null
o_height: null
o_width: null
datetaken: 2011-11-18 18:32:03
dateupload: 1322730539
tags: troyes
license: 0
latitude: 48.29804
longitude: 4.077644
accuracy: 16
views: 57
interestingness: 22 out of 298

photo: 6434741975 febd6197ca 7016
owner: 23448498@N02
title: Winter Coat
originalsecret: b63ee1214d
originalformat: jpg
o_height: 4330
o_width: 3250
datetaken: 2011-11-30 16:41:57
dateupload: 1322716134
tags: trees winter sky house snow nature beauty pinetree nikon zoom branches wintercoat limbs needles freshsnow davidsmith calgaryalbertacanada
license: 0
latitude: 50.946396
longitude: -114.010384
accuracy: 14
views: 46
interestingness: 23 out of 298

photo: 6434079621 46ee08841a 7010
owner: 50446746@N02
title: Bridgeport Covered Bridge
originalsecret: ea43cac0fa
originalformat: jpg
o_height: 3456
o_width: 4307
datetaken: 2011-11-26 12:57:38
dateupload: 1322706189
tags: california bridge autumn fall northerncalifornia fallcolors autumncolors coveredbridge nevadacounty yubariver bridgeportcoveredbridge canon7d bridgeportnevadacountyca
license: 0
latitude: 37.434619
longitude: -120.002082
accuracy: 11
views: 53
interestingness: 24 out of 298

photo: 6434465035 0aeebf15ef 7035
owner: 37443071@N00
title: Carousel House
originalsecret: null
originalformat: null
o_height: null
o_width: null
datetaken: 2011-11-29 18:39:45
dateupload: 1322711865
tags: shadow house color fall colors yellow night canon eos rebel newjersey purple asburypark nj carousel og monmouthcounty 2011 550d t2i efs18135mmf3556is mygearandme mygearandmepremium
license: 0
latitude: 40.217614
longitude: -74.00147
accuracy: 16
views: 39
interestingness: 25 out of 298

photo: 6435507305 6061784bee 7029
owner: 51746218@N03
title: Ottensen, Hamburg
originalsecret: 61bb7263bb
originalformat: jpg
o_height: 2592
o_width: 3872
datetaken: 2011-11-06 11:31:02
dateupload: 1322732955
tags: germany deutschland hamburg suburbia scooter parked ottensen socialhousing
license: 4
latitude: 53.555759
longitude: 9.917564
accuracy: 14
views: 44
interestingness: 26 out of 298

photo: 6435244193 451d85ed7b 7172
owner: 11462409@N00
title: Phan Thiet 2011 018.
originalsecret: null
originalformat: null
o_height: null
o_width: null
datetaken: 2011-11-15 05:35:44
dateupload: 1322726614
tags: old travel history architecture temple asia interior vietnam bulding azja elisabethgaj vietnam2011
license: 0
latitude: 10.922314
longitude: 108.110961
accuracy: 8
views: 39
interestingness: 27 out of 298

photo: 6434841121 5acbdf4486 7012
owner: 59061468@N07
title: Clouds Are Rolling
originalsecret: 0d0a177ae1
originalformat: jpg
o_height: 2854
o_width: 1914
datetaken: 2011-11-12 13:47:34
dateupload: 1322717974
tags: sky house clouds missouri hdr rolling chesterfield faustpark tenuouslink nikond40 111211 gregbizzle
license: 0
latitude: 38.653629
longitude: -90.55352
accuracy: 11
views: 64
interestingness: 28 out of 298

photo: 6433544321 d1cdc46d08 7174
owner: 23448498@N02
title: Winter Returns In Glorious Form
originalsecret: dbc112997a
originalformat: jpg
o_height: 3250
o_width: 4330
datetaken: 2011-11-30 16:37:04
dateupload: 1322698234
tags: street trees houses winter light shadow sky snow cold cars nature clouds landscape evening frozen twilight nikon glow dusk silhouettes freshsnow davidsmith calgaryalbertacanada
license: 0
latitude: 50.947518
longitude: -114.009826
accuracy: 14
views: 45
interestingness: 29 out of 298

photo: 6433724701 2d58c5fc74 7028
owner: 81065540@N00
title: Week 48: They Multiply
originalsecret: c440d1960a
originalformat: jpg
o_height: 612
o_width: 612
datetaken: 2011-11-30 16:56:01
dateupload: 1322700961
tags: street dog yellow underpass square oakland mac pit pitbull sidewalk squareformat freeway sofafree luminance neutered nearmyhouse pitmix lomofi theusualspot iphoneography 52weeksfordogs instagramapp uploaded:by=instagram theyearofthebug yearofthebug
license: 3
latitude: 37.794904
longitude: -122.207314
accuracy: 15
views: 43
interestingness: 30 out of 298

photo: 6435528275 9d3a32a999 7156
owner: 38967376@N06
title: Graff / Tag @ Dunkerque (Nord France)
originalsecret: null
originalformat: null
o_height: null
o_width: null
datetaken: 2011-11-27 13:45:15
dateupload: 1322733487
tags: street mer house france art colors wall port painting de graffiti nikon couleurs tag ? graph hip hop graff bateau rue mur dunkerque nord 59 benj d7000 nikkor18105mm darses
license: 0
latitude: 51.039289
longitude: 2.367854
accuracy: 13
views: 61
interestingness: 31 out of 298

photo: 6433884837 8a621818c1 7168
owner: 33034505@N06
title: thirst quenching station
originalsecret: null
originalformat: null
o_height: null
o_width: null
datetaken: 2011-11-26 18:19:59
dateupload: 1322703330
tags: house david water glass coffee station virginia cool counter beverage bayou va bakery dcist iced thirst quenching guas
license: 0
latitude: 38.891433
longitude: -77.083923
accuracy: 16
views: 62
interestingness: 32 out of 298

photo: 6430970731 4673776dd6 7025
owner: 47770928@N08
title: Del otro lado...
originalsecret: null
originalformat: null
o_height: null
o_width: null
datetaken: 2011-11-27 19:00:35
dateupload: 1322708398
tags: new light summer sky orange naturaleza sun color macro reflection verde green art love primavera luz nature argentina colors yellow photography luces photo google nikon flickr day foto dof photos bokeh top live colores nov30 explore amarillo reflejo contraste perspectiva jpg 365 proyect geo d?a naranja nueva day30 fot?grafo franco brillo week48 fotograf?a c?mara pring encuadre day332 day333 2011 enfoque nitidez explored nitido rostan i365 proyect365 proyecto365 d3100 nikond3100 francorostan load333
license: 0
latitude: -38.084175
longitude: -63.430938
accuracy: 11
views: 106
interestingness: 33 out of 298

photo: 6435322815 a30b48e4ef 7021
owner: 83014686@N00
title: house_20110804_D_065530
originalsecret: fc7ec7dff1
originalformat: jpg
o_height: 1371
o_width: 1600
datetaken: 2011-08-04 11:31:53
dateupload: 1322728416
tags: house canada digital newfoundland 2011 stevenhouse houselightgallery
license: 0
latitude: 49.598337
longitude: -57.788171
accuracy: 12
views: 23
interestingness: 34 out of 298

photo: 6433805355 8a1da73beb 7028
owner: 8329920@N06
title: Brass Yale Key Design
originalsecret: 16f32b303c
originalformat: jpg
o_height: 1977
o_width: 2942
datetaken: 2011-12-01 01:16:05
dateupload: 1322702165
tags: brassyalekeydesign
license: 0
latitude: 52.672661
longitude: -1.971831
accuracy: 14
views: 18
interestingness: 35 out of 298

photo: 6434828329 8c2632a01e 7016
owner: 8070463@N03
title: Through the window
originalsecret: fb60151872
originalformat: jpg
o_height: 4256
o_width: 2832
datetaken: 2011-09-11 11:19:48
dateupload: 1322717716
tags: street houses sky distortion abstract tree window germany munich m?nchen bathroom bayern bavaria nikon d700
license: 6
latitude: 48.165019
longitude: 11.529293
accuracy: 15
views: 36
interestingness: 36 out of 298

photo: 6434759557 4b638eee8a 7001
owner: 44124472358@N01
title: Dinner at Book Bindery
originalsecret: null
originalformat: null
o_height: null
o_width: null
datetaken: 2011-11-30 21:14:04
dateupload: 1322716444
tags: food iphone bookbindery project365 dipticapp
license: 0
latitude: 47.647833
longitude: -122.352834
accuracy: 16
views: 95
interestingness: 37 out of 298

photo: 6434696875 17387f720c 7167
owner: 35870491@N02
title: Tongue Tied
originalsecret: null
originalformat: null
o_height: null
o_width: null
datetaken: 2011-11-30 19:51:55
dateupload: 1322715338
tags: selfportrait color feet fun lyrics shoes floor legs angles canvas splash dailyphoto ankles indiekids musicaddicts imemine indiefashion blipfoto mysexylegs retrofeel seattleeveryday showusyourbest portraitswithoutaface lovelifeandbeauty tonguetiedbygrouplove
license: 0
latitude: 47.601417
longitude: -122.334823
accuracy: 11
views: 97
interestingness: 38 out of 298

photo: 6434393151 46bf6e153f 7175
owner: 23630286@N05
title: kitchen window
originalsecret: 6c8134e47e
originalformat: jpg
o_height: 1723
o_width: 2585
datetaken: 2011-11-29 13:26:18
dateupload: 1322710838
tags: sunrise raindrops newhouse kitchenwindow
license: 0
latitude: 42.68387
longitude: -70.844167
accuracy: 15
views: 16
interestingness: 39 out of 298

photo: 6435161159 1d9ecea551 7007
owner: 15581971@N07
title: Row
originalsecret: 0e52423c29
originalformat: jpg
o_height: 611
o_width: 1000
datetaken: 2011-04-16 12:51:24
dateupload: 1322724642
tags: street city uk travel england sky urban house building weather clouds work bath britain 7d 24105 bathwick 2011 canonef24105mmf4lisusm
license: 0
latitude: 51.381397
longitude: -2.3597
accuracy: 16
views: 58
interestingness: 40 out of 298

photo: 6433745413 0c383205c4 7035
owner: 67745415@N06
title: House Sparrow
originalsecret: null
originalformat: null
o_height: null
o_width: null
datetaken: 2011-11-11 18:30:21
dateupload: 1322701275
tags: birds
license: 0
latitude: 22.620656
longitude: 88.400952
accuracy: 16
views: 29
interestingness: 41 out of 298

photo: 6433513699 3395dd044e 7153
owner: 25139888@N08
title: Sunset over Ligurian Sea
originalsecret: null
originalformat: null
o_height: null
o_width: null
datetaken: 2011-09-08 19:28:37
dateupload: 1322697735
tags: ocean park sunset sea vacation italy orange house bay coast boat nikon europe riviera italia village dusk liguria cliffs national tiny terre mm nikkor cinque riomaggiore ligurian d90 1685 thefivelands
license: 0
latitude: 44.098507
longitude: 9.737427
accuracy: 16
views: 40
interestingness: 42 out of 298

photo: 6433954807 b5f2d17b9b 7172
owner: 33668703@N07
title: Charleston Sunset Silhouette
originalsecret: null
originalformat: null
o_height: null
o_width: null
datetaken: 2011-11-30 17:04:26
dateupload: 1322704387
tags: sunset southcarolina charleston fallsunset
license: 0
latitude: 32.753431
longitude: -79.898943
accuracy: 15
views: 18
interestingness: 43 out of 298

photo: 6434090313 d629ffff8c 7157
owner: 31086818@N08
title: Clayton House Motel - Ardmore, Oklahoma
originalsecret: 3652453091
originalformat: jpg
o_height: 1312
o_width: 2096
datetaken: 2011-11-30 21:25:40
dateupload: 1322706340
tags: oklahoma postcard motel ardmore claytonhouse
license: 0
latitude: 34.158298
longitude: -97.143119
accuracy: 16
views: 92
interestingness: 44 out of 298

photo: 6434609621 308222c62c 7174
owner: 72216068@N00
title: HDR - San Francisco Skyline from the Pilot house of the Eureka - Maritime Museum - Fisherman's Wharf - San Francisco, CA.
originalsecret: f31c71a662
originalformat: jpg
o_height: 1333
o_width: 2000
datetaken: 2011-10-16 15:58:37
dateupload: 1322713982
tags: sanfrancisco ca wood wheel canon fishermanswharf hdr eureka throttle 5dmarkii ef2470mmf28lskylineclouds pilothouseshipswheel
license: 0
latitude: 37.809364
longitude: -122.421458
accuracy: 16
views: 34
interestingness: 45 out of 298

photo: 6435079309 1c63642157 7160
owner: 70937404@N04
title: Oranges to Blues
originalsecret: null
originalformat: null
o_height: null
o_width: null
datetaken: 2011-12-01 08:50:27
dateupload: 1322722869
tags: blue trees orange cloud house lake reflection water grass sunrise frost
license: 0
latitude: 46.208351
longitude: 6.1427
accuracy: 11
views: 19
interestingness: 46 out of 298

photo: 6434006049 676e8be1c8 7166
owner: 36698994@N04
title: Holyrood Park - Edinburgh
originalsecret: 67a22579d7
originalformat: jpg
o_height: 970
o_width: 1456
datetaken: 2009-08-09 13:51:52
dateupload: 1322705131
tags: 
license: 0
latitude: 55.951566
longitude: -3.156831
accuracy: 14
views: 45
interestingness: 47 out of 298

photo: 6433829145 2809af02a3 7016
owner: 41821172@N08
title: National Centre for the Performing Arts (China) ?????
originalsecret: null
originalformat: null
o_height: null
o_width: null
datetaken: 2011-09-17 18:43:43
dateupload: 1322702514
tags: china beijing ????? nationalcentrefortheperformingarts
license: 0
latitude: 39.904364
longitude: 116.382318
accuracy: 15
views: 28
interestingness: 48 out of 298

photo: 6433512253 714fc26be6 7141
owner: 25139888@N08
title: Sunset in Riomaggiore
originalsecret: null
originalformat: null
o_height: null
o_width: null
datetaken: 2011-09-08 19:23:07
dateupload: 1322697710
tags: ocean park sunset sea vacation italy brown house fish eye bay coast boat nikon europe riviera italia village dusk liguria cliffs trail national tiny terre mm nikkor cinque riomaggiore ligurian d90 1685 thefivelands
license: 0
latitude: 44.098507
longitude: 9.737427
accuracy: 16
views: 21
interestingness: 49 out of 298

photo: 6434259927 bdd0f61169 7152
owner: 21938136@N02
title: ???? Jing Jin, A View Of China's Deserted Eco City
originalsecret: null
originalformat: null
o_height: null
o_width: null
datetaken: 2011-12-01 11:02:31
dateupload: 1322708866
tags: china house tianjin jingjin
license: 0
latitude: 39.120472
longitude: 117.185668
accuracy: 9
views: 31
interestingness: 50 out of 298

photo: 6435468769 64e5577677 7011
owner: 64519878@N03
title: Rockefeller Center
originalsecret: 54636d8873
originalformat: jpg
o_height: 3483
o_width: 5600
datetaken: 2011-11-30 23:01:15
dateupload: 1322732001
tags: blackandwhite bw newyork christmastree grandcentralstation treelighting radiocity houselights rockafellerplaza
license: 0
latitude: 40.757237
longitude: -73.972749
accuracy: 13
views: 78
interestingness: 51 out of 298

photo: 6434089985 6725114178 7008
owner: 31086818@N08
title: Clayton House Motel - Ardmore, Oklahoma
originalsecret: 31796bc90b
originalformat: jpg
o_height: 1312
o_width: 2080
datetaken: 2011-11-30 21:25:34
dateupload: 1322706334
tags: oklahoma postcard motel ardmore claytonhouse
license: 0
latitude: 34.158283
longitude: -97.14315
accuracy: 16
views: 68
interestingness: 52 out of 298

photo: 6433969145 f9c3fe1b5f 7021
owner: 42216204@N08
title: La finestra illuminata
originalsecret: null
originalformat: null
o_height: null
o_width: null
datetaken: 2011-11-27 17:27:36
dateupload: 1322704597
tags: windows light moon house home casa luna finestra notte luce noght provecanonricky
license: 0
latitude: 45.83139
longitude: 8.565429
accuracy: 11
views: 33
interestingness: 53 out of 298

photo: 6466449185 f120f0f783 7026
owner: 44580083@N05
title: Vue du Phare de La Garoupe
originalsecret: 5a138078f1
originalformat: jpg
o_height: 588
o_width: 2500
datetaken: 2011-12-01 09:49:09
dateupload: 1322729349
tags: mer eos mediterranean pano c?tedazur stitched antibes panoramique m?diterran?e frenchriviera 2011 baiedesanges garoupe tokinaaf2035mmf28 atx235afpro
license: 1
latitude: 43.564424
longitude: 7.13209
accuracy: 15
views: 46
interestingness: 54 out of 298

photo: 6435296123 08f6f2a8b6 7034
owner: 25857074@N03
title: UNHCR News Story: 16 Days of Activism: Couples in the Congo stand up to the stigma of rape
originalsecret: null
originalformat: null
o_height: null
o_width: null
datetaken: 2010-11-10 11:37:35
dateupload: 1322727768
tags: africa camp news women hiv rape greatlakes help aid health conflict congo shelter camps information firewood assistance unhcr victims trauma drc flee displacement newsstory idps idp humanitarianaid woma sexualviolence democraticrepublicofthecongo internallydisplacedpeople southkivu genderbasedviolence fdlr forceddisplacement internallydisplaced unrefugeeagency kavumu highcommissionerforrefugees forciblydisplaced violenceagainstwoman theinterahamwe hutumilitia psychosocialandmedicalassistancecentre
license: 0
latitude: -4.03479
longitude: 21.756269
accuracy: 2
views: 106
interestingness: 55 out of 298

photo: 6434077169 0eaba47cf7 7149
owner: 51531976@N00
title: 069
originalsecret: 4878bea310
originalformat: jpg
o_height: 1936
o_width: 2592
datetaken: 2011-11-30 08:15:24
dateupload: 1322706153
tags: 
license: 0
latitude: 44.976333
longitude: -93.2715
accuracy: 16
views: 26
interestingness: 56 out of 298

photo: 6435438753 3e0c0acaf2 7025
owner: 16924681@N00
title: Licht is voor je ogen.
originalsecret: f8edbed282
originalformat: jpg
o_height: 2616
o_width: 3488
datetaken: 2011-11-30 13:28:18
dateupload: 1322731755
tags: east behindthebarn
license: 1
latitude: 52.724354
longitude: 6.304836
accuracy: 13
views: 27
interestingness: 57 out of 298

photo: 6435170039 ab17817f7b 7171
owner: 21998518@N08
title: 20111201_6396 Wild flowers grow where once stood a house
originalsecret: c300e525e7
originalformat: jpg
o_height: 933
o_width: 1400
datetaken: 2011-12-01 20:26:59
dateupload: 1322724841
tags: christchurch lensbaby earthquake wildflowers bexley pacificpark redzone
license: 0
latitude: -43.516291
longitude: 172.723778
accuracy: 16
views: 68
interestingness: 58 out of 298

photo: 6435176753 5c3dc8dda4 7162
owner: 64667396@N00
title: State Historical Museum, Moscow
originalsecret: dd682431ac
originalformat: jpg
o_height: 4068
o_width: 2702
datetaken: 2011-11-17 16:06:48
dateupload: 1322724998
tags: bw museum state nb historical moscou nikonians nikoniste moscounikond300
license: 1
latitude: 55.755791
longitude: 37.616028
accuracy: 15
views: 81
interestingness: 59 out of 298

photo: 6434003949 a9420ea153 7162
owner: 7202153@N03
title: Emery's early iPod - an Edison phonograph - Kolb residence - Grand Canyon Village
originalsecret: 4df07a354a
originalformat: jpg
o_height: 3000
o_width: 4000
datetaken: 2011-11-17 15:28:30
dateupload: 1322705101
tags: park arizona building history home architecture movie studio nationalpark village district grandcanyon south grand photographic canyon historic national residence rim southrim kolb grandcanyonnationalpark nationalhistoricdistrict kolbstudio alhikesaz arizonamemoryproject gc2011 kolbresidence grandcanyonvillagehistoricdistrict
license: 2
latitude: 36.057538
longitude: -112.145744
accuracy: 16
views: 40
interestingness: 60 out of 298

photo: 6434049717 0065a33235 7164
owner: 51035555243@N01
title: Junior
originalsecret: 17d030a374
originalformat: jpg
o_height: 2087
o_width: 3130
datetaken: 2010-01-16 20:43:40
dateupload: 1322705744
tags: usa unitedstates nashville guitar tennessee unitedstatesofamerica livemusic opry grandoleopry rymanauditorium ryman grandoldopry rymantheater grandoldopryhouse uniongospeltabernacle
license: 2
latitude: 36.16173
longitude: -86.777595
accuracy: 16
views: 118
interestingness: 61 out of 298

photo: 6434870851 503730c800 7029
owner: 31998658@N06
title: DSC_0244
originalsecret: af1d157b06
originalformat: jpg
o_height: 2592
o_width: 3872
datetaken: 2011-11-27 14:43:33
dateupload: 1322718528
tags: lens prime nikon f mm nikkor 18 35 d60
license: 6
latitude: 33.992942
longitude: -117.931709
accuracy: 15
views: 118
interestingness: 62 out of 298

photo: 6433661211 db90aff959 7009
owner: 18972693@N06
title: Our Lady of Sorrows Basilica
originalsecret: 90df1a65e7
originalformat: jpg
o_height: 1131
o_width: 1697
datetaken: 2011-10-15 12:26:43
dateupload: 1322700026
tags: chicago church lowlight basilica existinglight garfieldpark f28 efs1755mmf28isusm ourladyofsorrowsbasilica canoneos60d ohc2011 openhousechicago
license: 0
latitude: 41.876958
longitude: -87.704243
accuracy: 15
views: 9
interestingness: 63 out of 298

photo: 6434004439 140fc0c172 7173
owner: 7202153@N03
title: Historic Kolb Studio - Grand Canyon - South Rim
originalsecret: 8fbe2c29f8
originalformat: jpg
o_height: 2468
o_width: 3688
datetaken: 2011-11-17 14:22:48
dateupload: 1322705108
tags: park arizona building history home architecture movie studio nationalpark village district flag grandcanyon south americanflag grand photographic canyon historic national american residence rim southrim kolb grandcanyonnationalpark nationalhistoricdistrict kolbstudio alhikesaz arizonamemoryproject gc2011 kolbresidence grandcanyonvillagehistoricdistrict
license: 2
latitude: 36.057538
longitude: -112.145744
accuracy: 16
views: 62
interestingness: 64 out of 298

photo: 6433771723 fb793b1468 7160
owner: 33988281@N00
title: Yellow Tower House
originalsecret: null
originalformat: null
o_height: null
o_width: null
datetaken: 2011-06-29 08:32:39
dateupload: 1322701667
tags: house island michigan victorian mackinacisland smalltown mackinawisland towerhouse mackinaccounty mackinawcounty
license: 0
latitude: 45.846514
longitude: -84.620266
accuracy: 16
views: 31
interestingness: 65 out of 298

photo: 6433604195 d59ef68e88 7023
owner: 29936458@N05
title: Smith College 2011 Fall Mum Show
originalsecret: 9b656ab8a8
originalformat: jpg
o_height: 960
o_width: 1600
datetaken: 2011-11-19 00:00:11
dateupload: 1322699170
tags: flower color ma northampton massachusetts botanicgarden chrysanthemum smithcollege 2011 charleskellogg charlesgkellogg charliekellogg fallmumshow copyright2011
license: 1
latitude: 42.319113
longitude: -72.640056
accuracy: 14
views: 3
interestingness: 66 out of 298

photo: 6433597697 c9c8d319c0 7173
owner: 29936458@N05
title: Smith College 2011 Fall Mum Show
originalsecret: b93a5cb4d4
originalformat: jpg
o_height: 1600
o_width: 1071
datetaken: 2011-11-19 00:00:00
dateupload: 1322699073
tags: flower color ma northampton massachusetts botanicgarden chrysanthemum smithcollege 2011 charleskellogg charlesgkellogg charliekellogg fallmumshow copyright2011
license: 1
latitude: 42.319113
longitude: -72.640056
accuracy: 14
views: 2
interestingness: 67 out of 298

photo: 6435338119 79bda29afc 7146
owner: 62603704@N05
title: Scooter club colours
originalsecret: null
originalformat: null
o_height: null
o_width: null
datetaken: 2011-11-29 12:21:01
dateupload: 1322728825
tags: england club pub vespa scooter lambretta stokeontrent milton staffordshire outercircle
license: 0
latitude: 53.048695
longitude: -2.147226
accuracy: 13
views: 17
interestingness: 68 out of 298

photo: 6435171981 0559db9e82 7165
owner: 37996585435@N01
title: Langham Place
originalsecret: 647abdf8d3
originalformat: jpg
o_height: 788
o_width: 5064
datetaken: 2011-11-30 08:10:59
dateupload: 1322724885
tags: pano panorama iphone langhamplace london bbc broadcastinghouse allsouls
license: 4
latitude: 51.517582
longitude: -0.142943
accuracy: 15
views: 32
interestingness: 69 out of 298

photo: 6434416697 e09efda8a0 7026
owner: 8257393@N05
title: HTHouseNorth-shoreAucklandNZ 006 PS ?
originalsecret: null
originalformat: null
o_height: null
o_width: null
datetaken: 2011-12-01 14:15:03
dateupload: 1322711157
tags: architecture ps auckland domestic northshore nz nikaupalms nativebush peteshep copyrightphoto harryturbott
license: 0
latitude: -36.810796
longitude: 174.738643
accuracy: 11
views: 8
interestingness: 70 out of 298

photo: 6434415675 12848ab32c 7161
owner: 8257393@N05
title: HTHouseNorth-shoreAucklandNZ 002 PS ?
originalsecret: null
originalformat: null
o_height: null
o_width: null
datetaken: 2011-12-01 14:11:17
dateupload: 1322711143
tags: architecture ps auckland domestic northshore nz pohutukawa nativebush peteshep copyrightphoto harryturbott weatheringcedar
license: 0
latitude: -36.811208
longitude: 174.740123
accuracy: 11
views: 10
interestingness: 71 out of 298

photo: 6435499293 65791a29da 7142
owner: 52490026@N07
title: house
originalsecret: null
originalformat: null
o_height: null
o_width: null
datetaken: 2011-12-01 17:45:55
dateupload: 1322732755
tags: building hongkong hiking villiage iphone hongkonglife iphonegraphy
license: 0
latitude: 22.5032
longitude: 114.206314
accuracy: 11
views: 11
interestingness: 72 out of 298

photo: 6435228049 1ec76315bd 7169
owner: 58628677@N00
title: Mia Lopez 04
originalsecret: null
originalformat: null
o_height: null
o_width: null
datetaken: 2011-11-30 14:03:18
dateupload: 1322726243
tags: rio model mia gma7 germanmoreno tinayuzuki mialopez canoneoskissx4 dwarfina walangtulugan
license: 0
latitude: 14.500229
longitude: 120.992912
accuracy: 11
views: 85
interestingness: 73 out of 298

photo: 6434310245 3c7d149097 7150
owner: 33988281@N00
title: Rearick Cottage
originalsecret: null
originalformat: null
o_height: null
o_width: null
datetaken: 2011-06-29 08:32:33
dateupload: 1322709613
tags: house island michigan victorian mackinacisland smalltown mackinawisland towerhouse mackinaccounty mackinawcounty
license: 0
latitude: 45.84663
longitude: -84.620395
accuracy: 16
views: 42
interestingness: 74 out of 298

photo: 6434302125 703bc67863 7155
owner: 84071758@N00
title: Mays - 365 Day 324
originalsecret: null
originalformat: null
o_height: null
o_width: null
datetaken: 2011-11-24 17:21:58
dateupload: 1322709487
tags: thanksgiving portrait smile parents couple id idaho boise laugh 365project
license: 0
latitude: 43.605131
longitude: -116.194152
accuracy: 11
views: 64
interestingness: 75 out of 298

photo: 6434235007 eec3c63157 7150
owner: 30909354@N00
title: November 26, 2011 {365-330}
originalsecret: null
originalformat: null
o_height: null
o_width: null
datetaken: 2011-11-26 15:31:15
dateupload: 1322708498
tags: california red art home girl oneaday childhood tallulah youth watercolor painting relax ginger photo kid rainbow paint child artistic tea daughter young redhead couch photoaday freckles 365 redhair app 4s pictureaday iphone fairoaks project365 danielmacdonald lomob dmacphoto iphoneography danielmacdonaldphotographer dmacphotocom iphone4s
license: 0
latitude: 38.635431
longitude: -121.286594
accuracy: 16
views: 104
interestingness: 76 out of 298

photo: 6435430837 c1559a56ce 7141
owner: 44925514@N05
title: Pantomime outside Panton House
originalsecret: 201b6a2400
originalformat: jpg
o_height: 683
o_width: 1024
datetaken: 2011-11-30 15:47:26
dateupload: 1322731089
tags: city urban london protest demonstration occupy pantonstreet mickdavies xstrata pantonhouse
license: 0
latitude: 51.509376
longitude: -0.132136
accuracy: 15
views: 51
interestingness: 77 out of 298

photo: 6434701937 bf8b2cbeb5 7160
owner: 58628677@N00
title: Mia Lopez 02
originalsecret: null
originalformat: null
o_height: null
o_width: null
datetaken: 2011-11-30 15:30:56
dateupload: 1322715421
tags: model mia gma7 germanmoreno mastershowman mialopez canoneoskissx4 walangtulugan
license: 0
latitude: 14.500229
longitude: 120.992912
accuracy: 11
views: 120
interestingness: 78 out of 298

photo: 6434385711 3c40c7e1c6 7005
owner: 81415279@N00
title: 113011A-1
originalsecret: null
originalformat: null
o_height: null
o_width: null
datetaken: 2011-11-30 14:05:50
dateupload: 1322710730
tags: street red house color tree shadows bright garage scooter sidewalk digitalphoto
license: 0
latitude: 37.750493
longitude: -122.427334
accuracy: 14
views: 41
interestingness: 79 out of 298

photo: 6434946179 3a5c5b346a 7150
owner: 21738253@N03
title: Sint Nicolaaskerk
originalsecret: f36e0a778d
originalformat: jpg
o_height: 2400
o_width: 3600
datetaken: 2011-04-10 14:00:05
dateupload: 1322720018
tags: urban holland brick church netherlands dutch amsterdam canal blackwhite architechture kerk sintnicolaaskerk rowhouses oudezijdsvoorburgwal neobaroque neorenaissance 2011 stnicolaschurch renaissancearchitecture dutchgoldenage adrianusbleijs
license: 1
latitude: 52.374813
longitude: 4.899322
accuracy: 16
views: 3
interestingness: 80 out of 298

photo: 6433557825 17735f7ce4 7007
owner: 33037982@N04
title: An end and a beginning ...
originalsecret: c931d3b665
originalformat: jpg
o_height: 480
o_width: 640
datetaken: 2011-11-30 06:52:51
dateupload: 1322698461
tags: morning england westsussex melancholy eastpreston brianhill endandbeginning
license: 0
latitude: 50.81492
longitude: -0.483822
accuracy: 16
views: 10
interestingness: 81 out of 298

photo: 6434479889 242a38cf0d 7026
owner: 62109617@N08
title: outrun my gun
originalsecret: null
originalformat: null
o_height: null
o_width: null
datetaken: 2011-11-30 05:07:21
dateupload: 1322712080
tags: trees house creepy
license: 0
latitude: 41.405399
longitude: -80.388031
accuracy: 11
views: 9
interestingness: 82 out of 298

photo: 6433783151 dfbfca7824 7030
owner: 67745415@N06
title: Black Kite threatning House Crows
originalsecret: null
originalformat: null
o_height: null
o_width: null
datetaken: 2011-01-04 14:28:05
dateupload: 1322701841
tags: birds
license: 0
latitude: 22.620646
longitude: 88.400942
accuracy: 16
views: 8
interestingness: 83 out of 298

photo: 6434975539 95a2c4d776 7035
owner: 58628677@N00
title: Mia Lopez 03
originalsecret: null
originalformat: null
o_height: null
o_width: null
datetaken: 2011-11-30 15:25:03
dateupload: 1322720580
tags: model mia gma7 mariaozawa germanmoreno mialopez canoneoskissx4 dwarfina walangtulugan
license: 0
latitude: 14.500229
longitude: 120.992912
accuracy: 11
views: 92
interestingness: 84 out of 298

photo: 6434840425 0b98b54a7b 7161
owner: 24431382@N03
title: Revisionary Survey for the determination of the Light Houses and Defensive Works  of the Harbor of San Francisco, California (1857)
originalsecret: 78940501ea
originalformat: jpg
o_height: 4643
o_width: 7981
datetaken: 2011-11-30 21:39:20
dateupload: 1322717960
tags: sanfrancisco map historic fortpoint topographic pointlobos presidio noaa blackpoint tsheet coastsurvey
license: 4
latitude: 37.81075
longitude: -122.476884
accuracy: 16
views: 52
interestingness: 85 out of 298

photo: 6434407781 9d32fa41af 7023
owner: 33988281@N00
title: The Windermere
originalsecret: null
originalformat: null
o_height: null
o_width: null
datetaken: 2011-06-29 08:36:12
dateupload: 1322711032
tags: house island hotel michigan mackinacisland smalltown mackinaccounty constructed1887
license: 0
latitude: 45.84697
longitude: -84.618893
accuracy: 16
views: 11
interestingness: 86 out of 298

photo: 6435328705 061a012995 7029
owner: 12494104@N00
title: Darlington Civic 6196
originalsecret: null
originalformat: null
o_height: null
o_width: null
datetaken: 2011-11-24 09:50:09
dateupload: 1322728576
tags: uk england cinema architecture teatro kino theater theatre cleveland olympus palace cine darlington civic e3 teesside edwardian grade2 listed hippodrome countydurham parkgate boroughroad newhippodrome owenward gordonhoskins
license: 0
latitude: 54.524659
longitude: -1.54859
accuracy: 16
views: 42
interestingness: 87 out of 298

photo: 6434790195 a10978cf96 7026
owner: 33988281@N00
title: McNally Cottage
originalsecret: null
originalformat: null
o_height: null
o_width: null
datetaken: 2011-06-29 08:40:09
dateupload: 1322716978
tags: house island michigan mackinacisland smalltown mackinaccounty constructed1889
license: 0
latitude: 45.848236
longitude: -84.618839
accuracy: 16
views: 18
interestingness: 88 out of 298

photo: 6433602551 36042d01b7 7020
owner: 29936458@N05
title: Smith College 2011 Fall Mum Show
originalsecret: aacba9d078
originalformat: jpg
o_height: 960
o_width: 1600
datetaken: 2011-11-19 00:00:08
dateupload: 1322699145
tags: flower color ma northampton massachusetts botanicgarden chrysanthemum smithcollege 2011 charleskellogg charlesgkellogg charliekellogg fallmumshow copyright2011
license: 1
latitude: 42.319113
longitude: -72.640056
accuracy: 14
views: 6
interestingness: 89 out of 298

photo: 6435323057 78c5015dc7 7157
owner: 83014686@N00
title: house_20110804_D_065534_st14
originalsecret: 0de1c2a4ea
originalformat: jpg
o_height: 1059
o_width: 1600
datetaken: 2011-08-04 11:33:10
dateupload: 1322728422
tags: panorama house canada digital newfoundland stitched 2011 stevenhouse houselightgallery
license: 0
latitude: 49.598337
longitude: -57.788171
accuracy: 12
views: 11
interestingness: 90 out of 298

photo: 6435089327 266d7f1cf3 7031
owner: 34325628@N05
title: Abandoned Neighborhood in Atlantic City, NJ
originalsecret: 3331755828
originalformat: jpg
o_height: 3168
o_width: 4752
datetaken: 2011-11-26 17:04:58
dateupload: 1322723086
tags: city houses urban streets grass buildings newjersey sand forsale dusk nj posters atlanticcity jersey ac jerseyshore bookcovers crumbling albumcovers longlight abadnoned jerze chrisgoldberg
license: 2
latitude: 39.366197
longitude: -74.414348
accuracy: 15
views: 14
interestingness: 91 out of 298

photo: 6435088335 df3dede81f 7175
owner: 34325628@N05
title: Shuttered House in Atlantic City, NJ
originalsecret: fb92ed79d8
originalformat: jpg
o_height: 2878
o_width: 4752
datetaken: 2011-11-26 17:03:56
dateupload: 1322723061
tags: houses abandoned buildings newjersey sand forsale dusk nj posters atlanticcity jersey ac jerseyshore bookcovers albumcovers shuttered archtiecture longlight jerze chrisgoldberg
license: 2
latitude: 39.366197
longitude: -74.414348
accuracy: 15
views: 14
interestingness: 92 out of 298

photo: 6435451059 ca38940a2d 7001
owner: 64207340@N08
title: 6194 - G?tes de France - Location de vacances - Le Noyer - Breuilpont dans l'Eure en Normandie
originalsecret: 6421337504
originalformat: jpg
o_height: 450
o_width: 600
datetaken: 2004-01-02 18:58:59
dateupload: 1322731568
tags: trip travel family famille vacation house paris france tourism nature cuisine vacances tv weekend internet cottage terrasse location c?te barbecue normandie 27 maison vernon normandy b?b? suites giverny vacance tourisme eure chemin?e s?jour randonn?e gite accueil g?te gites pr?s d?tente proche normande pacysureure convivialit? g?tes agreable normandes agr?able c?tenormande vacancier gitesdefrance chambresdh?tes charmance proximit? vacanciers 2chambres vall?edeure g?tesdefrance vacancesennormandie 6personnes jardinbois?
license: 0
latitude: 48.964892
longitude: 1.426506
accuracy: 11
views: 18
interestingness: 93 out of 298

photo: 6435444329 01270fb168 7024
owner: 65797661@N03
title: Vinay Unique Residency, 1BHK 2BHK Apartments Vinay Unique Residency Virar, Mumbai Property
originalsecret: null
originalformat: null
o_height: null
o_width: null
datetaken: 2011-12-01 01:23:29
dateupload: 1322731409
tags: mumbaiproperties vinayuniqueresidency vinayuniqueresidencyvirar vinayuniqueresidencymumbai vinayuniqueresidencyvirarmumbai flatsinvirar 1bhkflatsinvirar 2bhkflatsinvirar 1bhkvinayuniqueresidency 2bhkvinayuniqueresidency projectsinvirar
license: 0
latitude: 19.434219
longitude: 72.877979
accuracy: 11
views: 4
interestingness: 94 out of 298

photo: 6435379509 9d760eac3d 7164
owner: 64207340@N08
title: 6193 - G?tes de France - Location de vacances - La Huguenoterie - Jumelles dans l'Eure en Normandie
originalsecret: e110c9a024
originalformat: jpg
o_height: 640
o_width: 1200
datetaken: 2010-06-25 12:48:22
dateupload: 1322729845
tags: trip travel family vacation house paris france tourism vacances weekend internet cottage jardin location c?te mus?e cath?drale histoire normandie 27 maison campagne normandy ferme espace vacance calme tourisme eure chemin?e s?jour plaine randonn?e gite accueil evreux g?te gites pr?s d?tente proche normande g?tes agreable normandes agr?able c?tenormande vacancier gitesdefrance chambresdh?tes charmance proximit? vacanciers g?tesdefrance vacancesennormandie 12personnes 3?pis 5chambres aucoeurdeleure
license: 0
latitude: 48.914659
longitude: 1.222229
accuracy: 16
views: 8
interestingness: 95 out of 298

photo: 6435328379 05c0e85ce0 7023
owner: 12494104@N00
title: Darlington Civic 6231
originalsecret: null
originalformat: null
o_height: null
o_width: null
datetaken: 2011-11-24 10:35:49
dateupload: 1322728568
tags: uk england cinema architecture teatro kino theater theatre cleveland olympus palace cine darlington civic e3 teesside edwardian grade2 listed hippodrome countydurham parkgate boroughroad newhippodrome owenward gordonhoskins
license: 0
latitude: 54.524659
longitude: -1.54859
accuracy: 16
views: 24
interestingness: 96 out of 298

photo: 6435325523 b17da009af 7162
owner: 64207340@N08
title: 6192 - G?tes de France - Location de vacances - La Ferme du Gonthier - Epegard dans l'Eure en Normandie
originalsecret: 57122ac540
originalformat: jpg
o_height: 800
o_width: 1200
datetaken: 2011-05-05 11:17:32
dateupload: 1322728494
tags: trip travel family vacation house paris france tourism golf vacances weekend cottage location c?te normandie 27 maison normandy ch?teau march? for?t vacance calme harcourt tourisme eure s?jour gite accueil g?te ?quitation gites pr?s d?tente proche normande g?tes agreable normandes agr?able c?tenormande champdebataille leneubourg vacancier gitesdefrance chambresdh?tes charmance proximit? vacanciers coincuisine g?tesdefrance vacancesennormandie prixl?gers aucoeurdeleure 4chambres 9personnes
license: 0
latitude: 49.182601
longitude: 0.876846
accuracy: 10
views: 9
interestingness: 97 out of 298

photo: 6435307579 befcde87a2 7009
owner: 65797661@N03
title: G.N.Residency, G.N.Residency Mira Road Mumbai 1BHK, 2BHK Apartments - Ready Possession
originalsecret: null
originalformat: null
o_height: null
o_width: null
datetaken: 2011-12-01 00:27:17
dateupload: 1322728037
tags: mumbaiproperties flatsinmiraroad 2bhkflatsinmiraroad projectsinmiraroad gnresidency gnresidencymiraroad gnresidencymumbai gnresidencymiraroadmumbai 1bhkflatsinmiraroad 1bhkgnresidency 2bhkgnresidency
license: 0
latitude: 19.278577
longitude: 72.862486
accuracy: 13
views: 4
interestingness: 98 out of 298

photo: 6435272041 24982e76cd 7159
owner: 53108627@N07
title: Acclamation Day...
originalsecret: null
originalformat: null
o_height: null
o_width: null
datetaken: 2011-12-01 08:14:05
dateupload: 1322727245
tags: portugal europa europe lisboa lisbon europeanunion thirtyyearswar internationalmonetaryfund 2011 europeancentralbank 1640 europeanpeoplesparty acclamationday diadarestaura??o acclamationwar
license: 0
latitude: 38.719804
longitude: -9.151611
accuracy: 7
views: 24
interestingness: 99 out of 298

photo: 6435188147 8f1242975a 7034
owner: 12422456@N07
title: Bern 2011 / House of Parliament Light show
originalsecret: 753c489319
originalformat: jpg
o_height: 2136
o_width: 3216
datetaken: 2011-11-12 21:39:38
dateupload: 1322725263
tags: show blue light house night dark switzerland amazing nice parliament bern 2011
license: 0
latitude: 46.947281
longitude: 7.443848
accuracy: 16
views: 7
interestingness: 100 out of 298

photo: 6435188145 5ae33a512d 7006
owner: 12422456@N07
title: Bern 2011 / House of Parliament Light show
originalsecret: ef77f8ece8
originalformat: jpg
o_height: 2136
o_width: 3216
datetaken: 2011-11-12 21:36:31
dateupload: 1322725263
tags: show blue light house night dark switzerland swiss flag border parliament bern 2011
license: 0
latitude: 46.947281
longitude: 7.443848
accuracy: 16
views: 8
interestingness: 101 out of 298

photo: 6435113883 6e7b8381a7 7142
owner: 44901507@N00
title: I Need To Get Out More Often
originalsecret: 7a3cec25a4
originalformat: jpg
o_height: 2040
o_width: 1381
datetaken: 2011-11-30 21:08:44
dateupload: 1322723630
tags: orange crazy hillbilly countrymusic dixie houseofblues hob obnoxious wednesdaynight chicagoil hellbilly hankiii hankwilliamsiii cuntry marchingpowder sheltonwilliams
license: 0
latitude: 41.88824
longitude: -87.629508
accuracy: 16
views: 44
interestingness: 102 out of 298

photo: 6435099515 6e3e2aa0ea 7009
owner: 21738253@N03
title: 
originalsecret: 9891aa4d21
originalformat: jpg
o_height: 2400
o_width: 3600
datetaken: 2011-04-10 14:00:15
dateupload: 1322723318
tags: bridge people urban holland netherlands dutch amsterdam canal architechture rowhouses oudezijdsvoorburgwal 2011 renaissancearchitecture dutchgoldenage sintnicolaakerk
license: 1
latitude: 52.373981
longitude: 4.898421
accuracy: 16
views: 7
interestingness: 103 out of 298

photo: 6435096081 49937774a2 7012
owner: 21738253@N03
title: Row Buildings
originalsecret: 2d8c2dc2e5
originalformat: jpg
o_height: 2400
o_width: 3600
datetaken: 2011-04-10 14:00:16
dateupload: 1322723238
tags: urban holland brick netherlands dutch amsterdam architechture rowhouses oudezijdsvoorburgwal 2011 renaissancearchitecture dutchgoldenage rowbuildings
license: 1
latitude: 52.375107
longitude: 4.899398
accuracy: 16
views: 1
interestingness: 104 out of 298

photo: 6435015163 7975556071 7014
owner: 69041036@N06
title: Beach House
originalsecret: beec182d26
originalformat: jpg
o_height: 1200
o_width: 1600
datetaken: 2010-06-26 16:18:03
dateupload: 1322721450
tags: camping dan sarah dave tents katy sam jane fi glastonburyfestival bri gibbs stewie vickie stonecircle pyramidstage sheptonmallet otherstage worthyfarm glastonbury2008 rolus glastonbury2010
license: 0
latitude: 51.189692
longitude: -2.545169
accuracy: 15
views: 0
interestingness: 105 out of 298

photo: 6434942941 4f7233ece1 7034
owner: 21738253@N03
title: Reminds of the 1950s
originalsecret: 6b4954af3d
originalformat: jpg
o_height: 3600
o_width: 2400
datetaken: 2011-04-10 14:00:03
dateupload: 1322719959
tags: urban holland netherlands dutch amsterdam blackwhite architechture oudezijdsvoorburgwal 2011 renaissancearchitecture dutchgoldenage brickrowhouse
license: 1
latitude: 52.375064
longitude: 4.899985
accuracy: 15
views: 1
interestingness: 106 out of 298

photo: 6434939439 4e50d72b82 7009
owner: 21738253@N03
title: 11 Oudezijds Voorburgwal
originalsecret: f9a5205d9d
originalformat: jpg
o_height: 3888
o_width: 2592
datetaken: 2011-04-10 14:00:04
dateupload: 1322719886
tags: urban holland brick netherlands dutch amsterdam architechture rowhouse oudezijdsvoorburgwal 2011 renaissancearchitecture dutchgoldenage
license: 1
latitude: 52.375064
longitude: 4.899985
accuracy: 15
views: 0
interestingness: 107 out of 298

photo: 6434931403 b17c9a1f7c 7149
owner: 21738253@N03
title: Lovely Row of Houses
originalsecret: c652f5ddb5
originalformat: jpg
o_height: 2592
o_width: 3888
datetaken: 2011-04-10 14:00:02
dateupload: 1322719730
tags: urban holland netherlands dutch amsterdam architechture oudezijdsvoorburgwal 2011 renaissancearchitecture dutchgoldenage brickrowhouse
license: 1
latitude: 52.375107
longitude: 4.899398
accuracy: 16
views: 0
interestingness: 108 out of 298

photo: 6434828879 7a6e09ec0c 7004
owner: 36524915@N05
title: Waiting for a Bus
originalsecret: null
originalformat: null
o_height: null
o_width: null
datetaken: 2010-11-08 18:45:19
dateupload: 1322717726
tags: poverty africa road street pink woman house town waiting funny village african poor busstop motorcycle uganda kampala funnyafrica
license: 0
latitude: 0.524589
longitude: 31.401672
accuracy: 9
views: 15
interestingness: 109 out of 298

photo: 6434284413 96ff75330a 7145
owner: 78235800@N00
title: You can't foreclose the view
originalsecret: 2491f286ba
originalformat: jpg
o_height: 3456
o_width: 5184
datetaken: 2011-11-25 18:49:56
dateupload: 1322709232
tags: ocean california house abandoned beach pacific pacificocean bodegabay dillonbeach foreclosed
license: 1
latitude: 38.260617
longitude: -122.968082
accuracy: 15
views: 8
interestingness: 110 out of 298

photo: 6434235559 5e017f9e0e 7034
owner: 12705984@N02
title: Girl Rocker
originalsecret: null
originalformat: null
o_height: null
o_width: null
datetaken: 2011-09-19 23:46:20
dateupload: 1322708506
tags: girl nikon kentucky livemusic newport sg gibson concertphotography southgatehouse guitarplayer d300s katmcgivern
license: 0
latitude: 39.094147
longitude: -84.494755
accuracy: 15
views: 21
interestingness: 111 out of 298

photo: 6434037833 fc7d29c19b 7156
owner: 32470925@N02
title: Housing construction in Brno - Zabovresky district
originalsecret: null
originalformat: null
o_height: null
o_width: null
datetaken: 2011-11-10 07:36:06
dateupload: 1322705570
tags: city architecture europe outdoor hometown brno czechrepublic neighbours vicinity southernmoravia brnozabovresky
license: 0
latitude: 49.211254
longitude: 16.583202
accuracy: 15
views: 10
interestingness: 112 out of 298

photo: 6434037401 9265cfa692 7015
owner: 32470925@N02
title: Housing construction in Brno - Zabovresky district
originalsecret: null
originalformat: null
o_height: null
o_width: null
datetaken: 2011-11-10 07:35:17
dateupload: 1322705565
tags: city architecture europe outdoor hometown brno czechrepublic neighbours vicinity southernmoravia brnozabovresky
license: 0
latitude: 49.211254
longitude: 16.583202
accuracy: 15
views: 6
interestingness: 113 out of 298

photo: 6434037017 5b8b8870b3 7030
owner: 32470925@N02
title: Housing construction in Brno - Zabovresky district
originalsecret: null
originalformat: null
o_height: null
o_width: null
datetaken: 2011-11-10 07:33:56
dateupload: 1322705559
tags: city architecture europe outdoor hometown brno czechrepublic neighbours vicinity southernmoravia brnozabovresky
license: 0
latitude: 49.211254
longitude: 16.583202
accuracy: 15
views: 10
interestingness: 114 out of 298

photo: 6433990643 078c62f665 7142
owner: 21203533@N00
title: DSC27471, Hearst Castle, San Simeon, California, USA
originalsecret: 303b011e4c
originalformat: jpg
o_height: 3648
o_width: 2736
datetaken: 2009-04-13 10:27:20
dateupload: 1322704905
tags: castle sansimeon williamrandolphhearst hearstcastle juliamorgan morgan hearst simeon casagrande williamhearst georgehearst
license: 4
latitude: 35.68557
longitude: -121.167799
accuracy: 16
views: 13
interestingness: 115 out of 298

photo: 6433990325 9bb6305e85 7146
owner: 21203533@N00
title: DSC27455, Hearst Castle, San Simeon, California, USA
originalsecret: 9ae2f6a16b
originalformat: jpg
o_height: 2736
o_width: 3648
datetaken: 2009-04-13 10:20:07
dateupload: 1322704900
tags: castle sansimeon williamrandolphhearst hearstcastle juliamorgan morgan hearst simeon casagrande williamhearst georgehearst
license: 4
latitude: 35.68557
longitude: -121.167799
accuracy: 16
views: 12
interestingness: 116 out of 298

photo: 6433990083 dddc889e4f 7013
owner: 21203533@N00
title: DSC27413, Hearst Castle, San Simeon, California, USA
originalsecret: e22e5a090c
originalformat: jpg
o_height: 2736
o_width: 3648
datetaken: 2009-04-13 10:00:09
dateupload: 1322704896
tags: castle sansimeon williamrandolphhearst hearstcastle juliamorgan morgan hearst simeon casagrande williamhearst georgehearst
license: 4
latitude: 35.68557
longitude: -121.167799
accuracy: 16
views: 13
interestingness: 117 out of 298

photo: 6433989837 24877af020 7174
owner: 21203533@N00
title: DSC27394, Hearst Castle, San Simeon, California, USA
originalsecret: c740976057
originalformat: jpg
o_height: 2736
o_width: 3648
datetaken: 2009-04-13 09:52:17
dateupload: 1322704892
tags: castle sansimeon williamrandolphhearst hearstcastle juliamorgan morgan hearst simeon casagrande williamhearst georgehearst
license: 4
latitude: 35.68557
longitude: -121.167799
accuracy: 16
views: 12
interestingness: 118 out of 298

photo: 6433842747 b6c38faf6d 7023
owner: 54790761@N04
title: Peroni
originalsecret: f46b22c77a
originalformat: jpg
o_height: 5184
o_width: 3456
datetaken: 2011-11-25 00:32:20
dateupload: 1322702718
tags: macro beer outside peroni waterfront beerglass harbourhouse
license: 0
latitude: -33.906753
longitude: 18.42051
accuracy: 13
views: 9
interestingness: 119 out of 298

photo: 6433831079 df891df799 7004
owner: 12842205@N08
title: Tuba players - House of Prayer Marching Band - 2011 Belk Carolinas' Carrousel Parade
originalsecret: 58ce1b6fe3
originalformat: jpg
o_height: 3264
o_width: 4928
datetaken: 2011-11-24 12:24:51
dateupload: 1322702545
tags: charlotte band parade tuba houseofprayer thanksgivingparade churchband tubaplayers bellf cheriejphotographyhouseofprayerbandcharlotte ncparadepurpletubabandmarchingmarchingband houseofprayermarchingband
license: 2
latitude: 35.222764
longitude: -80.849046
accuracy: 13
views: 9
interestingness: 120 out of 298

photo: 6433678201 76ba1cc624 7171
owner: 32598130@N04
title: Main house
originalsecret: dc8ca95d21
originalformat: jpg
o_height: 335
o_width: 500
datetaken: 2007-01-19 12:39:05
dateupload: 1322700269
tags: sanfrancisco california travel usa northerncalifornia youth hostel budget lodging marin norcal accommodation backpacker marinheadlands californiacoast hostellinginternational
license: 0
latitude: 37.825514
longitude: -122.506656
accuracy: 11
views: 0
interestingness: 121 out of 298

photo: 6433660841 3bd71e5557 7171
owner: 18972693@N06
title: Our Lady of Sorrows Basilica
originalsecret: 48d12009bb
originalformat: jpg
o_height: 1152
o_width: 1728
datetaken: 2011-10-15 12:32:59
dateupload: 1322700020
tags: chicago church lowlight basilica stainedglass existinglight f28 stainedglasswindows efs1755mmf28isusm ourladyofsorrowsbasilica canoneos60d ohc2011 openhousechicago
license: 0
latitude: 41.876958
longitude: -87.704243
accuracy: 15
views: 4
interestingness: 122 out of 298

photo: 6433660493 8074f36643 7014
owner: 18972693@N06
title: Our Lady of Sorrows Basilica
originalsecret: 6c05caf3e9
originalformat: jpg
o_height: 1657
o_width: 1105
datetaken: 2011-10-15 12:45:50
dateupload: 1322700015
tags: chicago building church architecture basilica f8 efs1755mmf28isusm ourladyofsorrowsbasilica canoneos60d ohc2011 openhousechicago
license: 0
latitude: 41.876958
longitude: -87.704243
accuracy: 15
views: 5
interestingness: 123 out of 298

photo: 6433660227 e35a817d0f 7155
owner: 18972693@N06
title: Side altar at Our Lady of Sorrows Basilica
originalsecret: af2bd578b9
originalformat: jpg
o_height: 1710
o_width: 1140
datetaken: 2011-10-15 12:40:04
dateupload: 1322700011
tags: chicago church statue basilica altar f28 religiousart efs1755mmf28isusm ourladyofsorrowsbasilica canoneos60d ohc2011 openhousechicago
license: 0
latitude: 41.876958
longitude: -87.704243
accuracy: 15
views: 6
interestingness: 124 out of 298

photo: 6433659931 a4f1d8cbd2 7014
owner: 18972693@N06
title: Station of the Cross
originalsecret: 74dee83092
originalformat: jpg
o_height: 1099
o_width: 1649
datetaken: 2011-10-15 12:27:19
dateupload: 1322700007
tags: chicago church lowlight basilica existinglight f28 religiousart stationofthecross efs1755mmf28isusm ourladyofsorrowsbasilica canoneos60d ohc2011 openhousechicago
license: 0
latitude: 41.876958
longitude: -87.704243
accuracy: 15
views: 5
interestingness: 125 out of 298

photo: 6433646217 d106b9de9e 7019
owner: 53921762@N00
title: Two twig solution
originalsecret: 8d60ac6cb8
originalformat: jpg
o_height: 1756
o_width: 1376
datetaken: 2011-11-26 16:48:07
dateupload: 1322699791
tags: geotagged gate twig recycling tottenham haringey improvise londonn17 chesnutroad urbanenvironmentdepartment protheroehouse pedestrianisedroad departmentofspacetimeentropy geo:lat=5159089393130383 geo:lon=00686777401240306 ligneouslatchingdevice
license: 5
latitude: 51.590893
longitude: -0.068677
accuracy: 16
views: 11
interestingness: 126 out of 298

photo: 6433635829 c830c3dce6 7158
owner: 33988281@N00
title: White Victorian & White Picket Fence
originalsecret: null
originalformat: null
o_height: null
o_width: null
datetaken: 2011-06-29 08:29:54
dateupload: 1322699635
tags: house island michigan victorian mackinacisland smalltown mackinawisland towerhouse mackinaccounty mackinawcounty
license: 0
latitude: 45.846607
longitude: -84.619998
accuracy: 16
views: 17
interestingness: 127 out of 298

photo: 6433604703 99274a2e73 7158
owner: 29936458@N05
title: Smith College 2011 Fall Mum Show
originalsecret: 52b22d62ae
originalformat: jpg
o_height: 1600
o_width: 1071
datetaken: 2011-11-19 00:00:12
dateupload: 1322699178
tags: flower color ma northampton massachusetts botanicgarden chrysanthemum smithcollege 2011 charleskellogg charlesgkellogg charliekellogg fallmumshow copyright2011
license: 1
latitude: 42.319113
longitude: -72.640056
accuracy: 14
views: 2
interestingness: 128 out of 298

photo: 6433603737 7726b97c38 7034
owner: 29936458@N05
title: Smith College 2011 Fall Mum Show
originalsecret: 617f58f973
originalformat: jpg
o_height: 1071
o_width: 1600
datetaken: 2011-11-19 00:00:10
dateupload: 1322699163
tags: flower color ma northampton massachusetts botanicgarden chrysanthemum smithcollege 2011 charleskellogg charlesgkellogg charliekellogg fallmumshow copyright2011
license: 1
latitude: 42.319113
longitude: -72.640056
accuracy: 14
views: 3
interestingness: 129 out of 298

photo: 6433603203 f7a5141bfb 7168
owner: 29936458@N05
title: Smith College 2011 Fall Mum Show
originalsecret: f3a42e7588
originalformat: jpg
o_height: 1143
o_width: 1600
datetaken: 2011-11-19 00:00:09
dateupload: 1322699154
tags: flower color ma northampton massachusetts botanicgarden chrysanthemum smithcollege 2011 charleskellogg charlesgkellogg charliekellogg fallmumshow copyright2011
license: 1
latitude: 42.319113
longitude: -72.640056
accuracy: 14
views: 3
interestingness: 130 out of 298

photo: 6433602099 4b27b71db7 7031
owner: 29936458@N05
title: Smith College 2011 Fall Mum Show
originalsecret: 051e1c1048
originalformat: jpg
o_height: 1071
o_width: 1600
datetaken: 2011-11-19 00:00:07
dateupload: 1322699138
tags: flower color ma northampton massachusetts botanicgarden chrysanthemum smithcollege 2011 charleskellogg charlesgkellogg charliekellogg fallmumshow copyright2011
license: 1
latitude: 42.319113
longitude: -72.640056
accuracy: 14
views: 3
interestingness: 131 out of 298

photo: 6433601527 59981b32bd 7012
owner: 29936458@N05
title: Smith College 2011 Fall Mum Show
originalsecret: ec06e9d9ac
originalformat: jpg
o_height: 1600
o_width: 1071
datetaken: 2011-11-19 00:00:06
dateupload: 1322699129
tags: flower color ma northampton massachusetts botanicgarden chrysanthemum smithcollege 2011 charleskellogg charlesgkellogg charliekellogg fallmumshow copyright2011
license: 1
latitude: 42.319113
longitude: -72.640056
accuracy: 14
views: 2
interestingness: 132 out of 298

photo: 6433600867 cc81a20cbe 7165
owner: 29936458@N05
title: Smith College 2011 Fall Mum Show
originalsecret: 826f7a1929
originalformat: jpg
o_height: 1558
o_width: 1500
datetaken: 2011-11-19 00:00:05
dateupload: 1322699120
tags: flower color ma northampton massachusetts botanicgarden chrysanthemum smithcollege 2011 charleskellogg charlesgkellogg charliekellogg fallmumshow copyright2011
license: 1
latitude: 42.319113
longitude: -72.640056
accuracy: 14
views: 2
interestingness: 133 out of 298

photo: 6433600319 45b48477db 7168
owner: 29936458@N05
title: Smith College 2011 Fall Mum Show
originalsecret: a4e37bbaf4
originalformat: jpg
o_height: 1071
o_width: 1600
datetaken: 2011-11-19 00:00:04
dateupload: 1322699112
tags: flower color ma northampton massachusetts botanicgarden chrysanthemum smithcollege 2011 charleskellogg charlesgkellogg charliekellogg fallmumshow copyright2011
license: 1
latitude: 42.319113
longitude: -72.640056
accuracy: 14
views: 0
interestingness: 134 out of 298

photo: 6433599697 4d25b25b28 7151
owner: 29936458@N05
title: Smith College 2011 Fall Mum Show
originalsecret: 6192f552a7
originalformat: jpg
o_height: 1600
o_width: 1071
datetaken: 2011-11-19 00:00:03
dateupload: 1322699102
tags: flower color ma northampton massachusetts botanicgarden chrysanthemum smithcollege 2011 charleskellogg charlesgkellogg charliekellogg fallmumshow copyright2011
license: 1
latitude: 42.319113
longitude: -72.640056
accuracy: 14
views: 0
interestingness: 135 out of 298

photo: 6433599057 e03b8b394a 7158
owner: 29936458@N05
title: Smith College 2011 Fall Mum Show
originalsecret: 4352d2872a
originalformat: jpg
o_height: 1600
o_width: 1071
datetaken: 2011-11-19 00:00:02
dateupload: 1322699093
tags: flower color ma northampton massachusetts botanicgarden chrysanthemum smithcollege 2011 charleskellogg charlesgkellogg charliekellogg fallmumshow copyright2011
license: 1
latitude: 42.319113
longitude: -72.640056
accuracy: 14
views: 0
interestingness: 136 out of 298

photo: 6433598409 1e76978cba 7032
owner: 29936458@N05
title: Smith College 2011 Fall Mum Show
originalsecret: 7c59b5c096
originalformat: jpg
o_height: 1071
o_width: 1600
datetaken: 2011-11-19 00:00:01
dateupload: 1322699083
tags: flower color ma northampton massachusetts botanicgarden chrysanthemum smithcollege 2011 charleskellogg charlesgkellogg charliekellogg fallmumshow copyright2011
license: 1
latitude: 42.319113
longitude: -72.640056
accuracy: 14
views: 0
interestingness: 137 out of 298

photo: 6433551569 3ce97ae0a1 7147
owner: 70127529@N00
title: The East Harlem School at Exodus House, Manhattan, New York City
originalsecret: null
originalformat: null
o_height: null
o_width: null
datetaken: 2011-11-28 15:32:56
dateupload: 1322698355
tags: city nyc school house ny newyork building architecture modern harlem manhattan east spanish independent middle eastharlem elbarrio spanishharlem ehs exodus 2avenue 103street
license: 0
latitude: 40.788522
longitude: -73.943535
accuracy: 16
views: 19
interestingness: 138 out of 298

photo: 6435011519 6c157c899e 7160
owner: 21738253@N03
title: Oudezijds Achterburgwal
originalsecret: fa42252b6c
originalformat: jpg
o_height: 2400
o_width: 3600
datetaken: 2011-04-10 14:00:10
dateupload: 1322721367
tags: urban holland netherlands dutch amsterdam canal rowhouses 2011 oudezijdsachterburgwal
license: 1
latitude: 52.374557
longitude: 4.900074
accuracy: 16
views: 1
interestingness: 139 out of 298

photo: 6434992615 930dc54fb3 7031
owner: 34911734@N07
title: Milland House View
originalsecret: 6fe9fb2da9
originalformat: jpg
o_height: 2736
o_width: 3648
datetaken: 2011-09-04 12:19:13
dateupload: 1322720942
tags: westsussex hampshire september rake liphook sussexborderpath
license: 0
latitude: 51.049488
longitude: -0.817236
accuracy: 15
views: 7
interestingness: 140 out of 298

photo: 6434226539 dd2cdbc0bc 7013
owner: 12956285@N00
title: 
originalsecret: null
originalformat: null
o_height: null
o_width: null
datetaken: 2011-11-30 18:59:21
dateupload: 1322708361
tags: 
license: 0
latitude: 43.648218
longitude: -70.272486
accuracy: 16
views: 6
interestingness: 141 out of 298

photo: 6433563901 9fea450470 7157
owner: 32598130@N04
title: Ranch house
originalsecret: 4ddf9e6448
originalformat: jpg
o_height: 335
o_width: 500
datetaken: 2007-02-23 12:11:54
dateupload: 1322698568
tags: california ca usa northerncalifornia hostel ptreyes californiacoast hostellinginternational nationalseashore
license: 0
latitude: 38.041602
longitude: -122.868518
accuracy: 11
views: 0
interestingness: 142 out of 298

photo: 6434963837 f4e5e3f243 7026
owner: 68069655@N02
title: Braies
originalsecret: null
originalformat: null
o_height: null
o_width: null
datetaken: 2009-01-29 11:53:46
dateupload: 1322720361
tags: winter house mountain snow tree cottage hut braies
license: 0
latitude: 46.706086
longitude: 12.089338
accuracy: 13
views: 10
interestingness: 143 out of 298

photo: 6434869819 4764868d1b 7004
owner: 17185003@N03
title: Jefferson House
originalsecret: f4f4500f04
originalformat: jpg
o_height: 1839
o_width: 2758
datetaken: 2011-11-28 13:47:20
dateupload: 1322718509
tags: california vineyard winery napavalley napa winecountry monticellovineyards november2011
license: 0
latitude: 38.361457
longitude: -122.305759
accuracy: 16
views: 2
interestingness: 144 out of 298

photo: 6434111921 e610e1cf1c 7001
owner: 22241479@N05
title: Kraus House Through the Trees
originalsecret: null
originalformat: null
o_height: null
o_width: null
datetaken: 2011-11-26 14:55:00
dateupload: 1322706639
tags: usa art architecture stlouis franklloydwright missouri usonian kraushouse
license: 0
latitude: 38.580177
longitude: -90.438852
accuracy: 13
views: 11
interestingness: 145 out of 298

photo: 6434088741 47b8543cea 7030
owner: 22241479@N05
title: Kraus House Front Door
originalsecret: null
originalformat: null
o_height: null
o_width: null
datetaken: 2011-11-26 12:58:15
dateupload: 1322706316
tags: usa art architecture stlouis franklloydwright missouri usonian kraushouse
license: 0
latitude: 38.580144
longitude: -90.440526
accuracy: 13
views: 10
interestingness: 146 out of 298

photo: 6434088541 c6442066a2 7150
owner: 43081622@N02
title: Court House
originalsecret: 4300d8c99e
originalformat: jpg
o_height: 1024
o_width: 1544
datetaken: 2011-11-30 20:25:14
dateupload: 1322706314
tags: austin texas minoltax700 fuji400 minolta70210mm
license: 0
latitude: 30.273281
longitude: -97.744889
accuracy: 16
views: 9
interestingness: 147 out of 298

photo: 6434065095 efbb2d6dee 7149
owner: 22241479@N05
title: Kraus House
originalsecret: null
originalformat: null
o_height: null
o_width: null
datetaken: 2011-11-26 12:54:54
dateupload: 1322705979
tags: usa art architecture stlouis franklloydwright missouri usonian kraushouse
license: 0
latitude: 38.580311
longitude: -90.440869
accuracy: 13
views: 6
interestingness: 148 out of 298

photo: 6435404395 eacc3023c8 7152
owner: 56619626@N05
title: Jacqueline Kennedy Onassis Reservoir, Central Park
originalsecret: 01f898423d
originalformat: jpg
o_height: 1063
o_width: 1600
datetaken: 2011-10-31 10:29:42
dateupload: 1322730437
tags: newyork photographer centralpark manhattan 2011 jacquelinekennedyonassisreservoir theeldorado
license: 5
latitude: 40.784404
longitude: -73.959188
accuracy: 15
views: 17
interestingness: 149 out of 298

photo: 6434678263 d5a0775ca7 7162
owner: 19348052@N00
title: Packed house at @TechCocktail's SF mixer. #TechCocktailSF
originalsecret: 00a18ec473
originalformat: jpg
o_height: 612
o_width: 612
datetaken: 2011-11-30 23:50:32
dateupload: 1322715032
tags: square toaster squareformat iphoneography instagramapp uploaded:by=instagram foursquare:venue=4497e143f964a5208f341fe3
license: 3
latitude: 37.785707
longitude: -122.3994
accuracy: 16
views: 8
interestingness: 150 out of 298

photo: 6434284111 6fa1e1f1e4 7019
owner: 24414018@N05
title: the hut out back
originalsecret: 167bbc16a1
originalformat: jpg
o_height: 1728
o_width: 2304
datetaken: 2011-07-17 23:35:02
dateupload: 1322709229
tags: belize homestays stanncreekdistrict mayacentre
license: 0
latitude: 16.868619
longitude: -88.378143
accuracy: 10
views: 3
interestingness: 151 out of 298

photo: 6433655561 4802159225 7019
owner: 77725780@N00
title: Full house!  #awesome
originalsecret: 766c92b000
originalformat: jpg
o_height: 720
o_width: 540
datetaken: 2011-11-30 19:38:58
dateupload: 1322699938
tags: uploaded:by=flicksquare foursquare:venue=4d232f2f9822a090189effaf geo:lon=739834785461426 geo:lat=407436154627516
license: 4
latitude: 40.743615
longitude: -73.983478
accuracy: 16
views: 105
interestingness: 152 out of 298

photo: 6435480503 5f7fd34aa8 7165
owner: 8970099@N04
title: Ickle wabbit
originalsecret: 2f221fa4dd
originalformat: jpg
o_height: 2048
o_width: 1536
datetaken: 2000-00-00 00:00:00
dateupload: 1322732303
tags: house national trust sue sorrel packwood
license: 3
latitude: 52.348029
longitude: -1.745967
accuracy: 13
views: 3
interestingness: 153 out of 298

photo: 6435054425 21ba7dbfa5 7171
owner: 69298795@N04
title: Maynard McMannis
originalsecret: null
originalformat: null
o_height: null
o_width: null
datetaken: 2011-11-26 15:14:35
dateupload: 1322722327
tags: ghost williamsburg colonialwilliamsburg
license: 0
latitude: 37.2756
longitude: -76.709716
accuracy: 11
views: 39
interestingness: 154 out of 298

photo: 6434666417 a51209002c 7021
owner: 27106292@N04
title: MaisonBlanche
originalsecret: null
originalformat: null
o_height: null
o_width: null
datetaken: 2011-11-30 22:23:35
dateupload: 1322714852
tags: old usa white house washington whitehouse
license: 0
latitude: 38.895107
longitude: -77.036347
accuracy: 14
views: 40
interestingness: 155 out of 298

photo: 6434634223 da5e6a03a1 7020
owner: 95071949@N00
title: On the House
originalsecret: 043f7d6e5a
originalformat: jpg
o_height: 600
o_width: 800
datetaken: 2011-11-26 19:52:07
dateupload: 1322714349
tags: peru lima gourmet appetizer ceviche astridygast?n
license: 1
latitude: -12.08347
longitude: -77.042484
accuracy: 12
views: 2
interestingness: 156 out of 298

photo: 6434594271 e4c0de3925 7158
owner: 67120613@N03
title: The Morton House at Morton Hill
originalsecret: null
originalformat: null
o_height: null
o_width: null
datetaken: 2011-11-30 14:40:49
dateupload: 1322713763
tags: bentonharbor historicalplaces 1849 mortonhouse swmichigan puremichigan
license: 0
latitude: 42.118789
longitude: -86.446781
accuracy: 13
views: 1
interestingness: 157 out of 298

photo: 6434431415 1b33f1c6b2 7020
owner: 60538800@N00
title: House on a Hill
originalsecret: e02a65fb3e
originalformat: jpg
o_height: 2736
o_width: 3648
datetaken: 2011-11-23 14:49:12
dateupload: 1322711376
tags: winter snow newyork fall dark adirondacks
license: 3
latitude: 43.825177
longitude: -73.470125
accuracy: 13
views: 1
interestingness: 158 out of 298

photo: 6434427291 b6601bb5a5 7011
owner: 60538800@N00
title: House on a Hill
originalsecret: 486a868452
originalformat: jpg
o_height: 2736
o_width: 3648
datetaken: 2011-11-23 14:48:46
dateupload: 1322711315
tags: winter snow newyork fall dark adirondacks
license: 3
latitude: 43.825177
longitude: -73.470125
accuracy: 13
views: 0
interestingness: 159 out of 298

photo: 6439773441 7ce63db53a 7022
owner: 69650337@N02
title: Charles under the couch
originalsecret: null
originalformat: null
o_height: null
o_width: null
datetaken: 2011-11-17 22:31:18
dateupload: 1322711960
tags: blackandwhite animal animals cat housecat
license: 0
latitude: 43.542107
longitude: -80.244988
accuracy: 16
views: 0
interestingness: 160 out of 298

photo: 6435480369 4c516d3d43 7150
owner: 8970099@N04
title: Five more laps and I've done
originalsecret: 20ac243d11
originalformat: jpg
o_height: 2048
o_width: 1536
datetaken: 2000-00-00 00:00:00
dateupload: 1322732299
tags: house national trust sorrel packwood
license: 3
latitude: 52.348029
longitude: -1.745967
accuracy: 13
views: 2
interestingness: 161 out of 298

photo: 6435480129 e2cb65d914 7027
owner: 8970099@N04
title: Which way now?
originalsecret: 7cf6d470ce
originalformat: jpg
o_height: 1869
o_width: 1402
datetaken: 2000-00-00 00:00:00
dateupload: 1322732292
tags: house national trust sorrel packwood
license: 3
latitude: 52.348029
longitude: -1.745967
accuracy: 13
views: 1
interestingness: 162 out of 298

photo: 6435263439 81ed309c56 7165
owner: 56619626@N05
title: Pupin Hall, Columbia University
originalsecret: f8c0c4265e
originalformat: jpg
o_height: 1063
o_width: 1600
datetaken: 2011-10-31 09:28:30
dateupload: 1322727056
tags: newyork manhattan columbiauniversity manhattanproject 2011
license: 5
latitude: 40.807688
longitude: -73.962535
accuracy: 13
views: 5
interestingness: 163 out of 298

photo: 6435144385 6d5933cfd1 7143
owner: 62487176@N04
title: Central Brussels, at night
originalsecret: null
originalformat: null
o_height: null
o_width: null
datetaken: 2011-11-29 22:46:42
dateupload: 1322724289
tags: street houses brussels architecture night
license: 4
latitude: 50.848381
longitude: 4.349679
accuracy: 16
views: 17
interestingness: 164 out of 298

photo: 6435056283 c32b82fa50 7002
owner: 68761759@N05
title: Oligotoma nigra (Black Webspinner)
originalsecret: null
originalformat: null
o_height: null
o_width: null
datetaken: 2000-01-21 04:23:16
dateupload: 1322722367
tags: taxonomy:binomial=oligotomanigra hightechhighinsectsofsandiegofieldguide geo:lat=329383203 geo:lon=117120315
license: 2
latitude: 32.715679
longitude: -117.16172
accuracy: 11
views: 2
interestingness: 165 out of 298

photo: 6434801183 26f4402027 7154
owner: 29056926@N02
title: Kafe Berlin and Historic Place plaque
originalsecret: 509a08b628
originalformat: jpg
o_height: 800
o_width: 1600
datetaken: 2011-11-06 10:39:04
dateupload: 1322719233
tags: german goldrush firsthill assayoffice kafeberlin
license: 1
latitude: 47.605765
longitude: -122.325156
accuracy: 15
views: 24
interestingness: 166 out of 298

photo: 6434741859 ecec0661fd 7157
owner: 33899809@N05
title: Belford Terrace
originalsecret: 6e4f856d35
originalformat: jpg
o_height: 682
o_width: 1029
datetaken: 2011-11-30 22:30:00
dateupload: 1322712532
tags: edinburgh belfordterrace
license: 2
latitude: 55.950371
longitude: -3.223904
accuracy: 16
views: 16
interestingness: 167 out of 298

photo: 6434730311 87e841dfc6 7146
owner: 28458776@N04
title: school-zone crossing
originalsecret: null
originalformat: null
o_height: null
o_width: null
datetaken: 2011-06-20 22:22:18
dateupload: 1322715913
tags: scotland edinburgh canongate publicschool etonhouse
license: 0
latitude: 55.951903
longitude: -3.177741
accuracy: 16
views: 0
interestingness: 168 out of 298

photo: 6434395391 d956d59945 7157
owner: 10219945@N04
title: Court-house at Columbus Circle, Syracuse downtown
originalsecret: null
originalformat: null
o_height: null
o_width: null
datetaken: 2011-11-26 14:00:20
dateupload: 1322710869
tags: building downtown syracuse courthouse columbuscircle
license: 0
latitude: 43.048945
longitude: -76.14315
accuracy: 11
views: 18
interestingness: 169 out of 298

photo: 6434226795 fe47450994 7029
owner: 68630375@N08
title: court house
originalsecret: null
originalformat: null
o_height: null
o_width: null
datetaken: 2011-11-30 13:29:45
dateupload: 1322708365
tags: ohio house court downtown youngstown
license: 0
latitude: 41.098272
longitude: -80.650892
accuracy: 14
views: 1
interestingness: 170 out of 298

photo: 6433956707 5821d1f73b 7167
owner: 57835821@N00
title: Rosemary Beach
originalsecret: 74ea28bb38
originalformat: jpg
o_height: 3456
o_width: 4608
datetaken: 2011-11-26 10:30:42
dateupload: 1322704414
tags: florida fl newurbanism rosemarybeach traditionalneighborhood
license: 0
latitude: 30.281208
longitude: -86.016667
accuracy: 16
views: 8
interestingness: 171 out of 298

photo: 6433772995 6f97dacf0a 7166
owner: 71208464@N08
title: house on the rock
originalsecret: null
originalformat: null
o_height: null
o_width: null
datetaken: 2011-09-06 02:08:47
dateupload: 1322701688
tags: sunset mountains forest boulder houseontherock
license: 0
latitude: 43.106497
longitude: -90.120838
accuracy: 15
views: 0
interestingness: 172 out of 298

photo: 6468984591 74ccb6c409 7031
owner: 21855730@N05
title: ~ China ~
originalsecret: 3aae403ef2
originalformat: jpg
o_height: 750
o_width: 1000
datetaken: 2011-10-31 00:18:03
dateupload: 1322701670
tags: stevepage itail thatchedroofs stephenpage
license: 0
latitude: 18.424407
longitude: 109.392242
accuracy: 11
views: 0
interestingness: 173 out of 298

photo: 6448281141 46c5a21a90 7027
owner: 27119975@N00
title: Food Dance-3
originalsecret: 19ae7e8e88
originalformat: jpg
o_height: 3024
o_width: 4032
datetaken: 2011-11-30 20:34:09
dateupload: 1322703249
tags: kalamazoo finedining fooddance robbhammond
license: 5
latitude: 42.293275
longitude: -85.578864
accuracy: 16
views: 4
interestingness: 174 out of 298

photo: 6435494107 1f84af2296 7167
owner: 47327093@N02
title: 
originalsecret: null
originalformat: null
o_height: null
o_width: null
datetaken: 2011-08-08 01:38:27
dateupload: 1322732628
tags: portrait edinburgh cockburnstreet cutiehouse
license: 0
latitude: 55.950695
longitude: -3.191152
accuracy: 16
views: 4
interestingness: 175 out of 298

photo: 6435480681 f4845bb58e 7172
owner: 8970099@N04
title: Lake view
originalsecret: ae627b284f
originalformat: jpg
o_height: 1536
o_width: 2048
datetaken: 2000-00-00 00:00:00
dateupload: 1322732307
tags: house national trust packwood
license: 3
latitude: 52.348029
longitude: -1.745967
accuracy: 13
views: 1
interestingness: 176 out of 298

photo: 6435404947 8d0b0161b6 7142
owner: 45786095@N03
title: Caf? Tomaselli
originalsecret: null
originalformat: null
o_height: null
o_width: null
datetaken: 2011-08-02 18:08:04
dateupload: 1322730449
tags: salzburg caf? austria tomaselli
license: 0
latitude: 47.799319
longitude: 13.04458
accuracy: 16
views: 16
interestingness: 177 out of 298

photo: 6435228887 89f36a2266 7155
owner: 45475783@N07
title: Apsley House, Old Amersham
originalsecret: 52990bc329
originalformat: jpg
o_height: 1600
o_width: 1205
datetaken: 2011-12-01 07:20:56
dateupload: 1322726263
tags: architecture buckinghamshire apsleyhouse oldamersham
license: 1
latitude: 51.667178
longitude: -0.62004
accuracy: 14
views: 0
interestingness: 178 out of 298

photo: 6435056709 ef812f0b90 7002
owner: 68761759@N05
title: Oligotoma nigra (Black Webspinner)
originalsecret: null
originalformat: null
o_height: null
o_width: null
datetaken: 2000-01-21 04:28:34
dateupload: 1322722376
tags: taxonomy:binomial=oligotomanigra hightechhighinsectsofsandiegofieldguide geo:lat=329383203 geo:lon=117120315
license: 2
latitude: 32.715679
longitude: -117.16172
accuracy: 11
views: 3
interestingness: 179 out of 298

photo: 6435055389 31b9d620dc 7010
owner: 68761759@N05
title: Nomophila nearctica (Lucerne Moth)
originalsecret: null
originalformat: null
o_height: null
o_width: null
datetaken: 2011-11-29 14:33:20
dateupload: 1322722347
tags: taxonomy:binomial=nomophilanearctica hightechhighinsectsofsandiegofieldguide geo:lat=329383203 geo:lon=117120315
license: 2
latitude: 32.715679
longitude: -117.16172
accuracy: 11
views: 2
interestingness: 180 out of 298

photo: 6435054511 863fb317f6 7172
owner: 68761759@N05
title: Nomophila nearctica (Lucerne Moth)
originalsecret: null
originalformat: null
o_height: null
o_width: null
datetaken: 2011-11-29 14:36:01
dateupload: 1322722328
tags: taxonomy:binomial=nomophilanearctica hightechhighinsectsofsandiegofieldguide geo:lat=329383203 geo:lon=117120315
license: 2
latitude: 32.715679
longitude: -117.16172
accuracy: 11
views: 2
interestingness: 181 out of 298

photo: 6434939597 2d05005107 7164
owner: 21596674@N00
title: IMG_0723
originalsecret: null
originalformat: null
o_height: null
o_width: null
datetaken: 2011-11-21 16:56:01
dateupload: 1322719889
tags: holiday honeymoon vietnam hanoi
license: 0
latitude: 21.01513
longitude: 105.852456
accuracy: 14
views: 2
interestingness: 182 out of 298

photo: 6434568497 74013d3f7a 7144
owner: 62109617@N08
title: flyin' south
originalsecret: null
originalformat: null
o_height: null
o_width: null
datetaken: 2011-11-30 05:06:14
dateupload: 1322713389
tags: trees house birds goose
license: 0
latitude: 41.405012
longitude: -80.387306
accuracy: 11
views: 9
interestingness: 183 out of 298

photo: 6434281953 3784ee3021 7174
owner: 24414018@N05
title: Pop's house from the road
originalsecret: 8014468e92
originalformat: jpg
o_height: 2304
o_width: 3072
datetaken: 2011-07-17 20:37:20
dateupload: 1322709197
tags: belize homestays stanncreekdistrict mayacentre
license: 0
latitude: 16.868619
longitude: -88.378143
accuracy: 10
views: 3
interestingness: 184 out of 298

photo: 6434210373 86eeb6ac35 7160
owner: 41115370@N04
title: Bridgehead !!!!
originalsecret: null
originalformat: null
o_height: null
o_width: null
datetaken: 2011-11-21 18:57:44
dateupload: 1322708086
tags: ottawa coffeehouse bridgehead carletonuniversity
license: 0
latitude: 45.421501
longitude: -75.691886
accuracy: 11
views: 0
interestingness: 185 out of 298

photo: 6434071271 274959b053 7023
owner: 18850355@N05
title: Admiralty House
originalsecret: null
originalformat: null
o_height: null
o_width: null
datetaken: 2011-11-30 18:21:10
dateupload: 1322706070
tags: panorama london admiraltyhouse householdcavalrymuseum
license: 0
latitude: 51.504725
longitude: -0.127916
accuracy: 16
views: 0
interestingness: 186 out of 298

photo: 6434039701 2f1f575da9 7160
owner: 51023157@N08
title: Spring House
originalsecret: 05783081f8
originalformat: jpg
o_height: 1897
o_width: 3349
datetaken: 2011-11-25 14:04:52
dateupload: 1322705598
tags: pittsford springhouse nationalregister tamronspaf1750mmf28xrdiiivcldasphericalifb005
license: 0
latitude: 43.108999
longitude: -77.546
accuracy: 16
views: 1
interestingness: 187 out of 298

photo: 6433796629 9a2a0dd261 7173
owner: 33170436@N03
title: Governor Generals Residence - Main Gate - Royal Coat of Arms
originalsecret: 2074341e52
originalformat: jpg
o_height: 4000
o_width: 3000
datetaken: 2011-11-21 14:42:38
dateupload: 1322702036
tags: canberra governmenthouse yarralumla archivesact
license: 2
latitude: -35.303901
longitude: 149.079
accuracy: 16
views: 1
interestingness: 188 out of 298

photo: 6433796617 007a1198a8 7013
owner: 33170436@N03
title: Governor Generals Residence - Main Gate - Governor General's Crest
originalsecret: fd3f05fe13
originalformat: jpg
o_height: 4000
o_width: 3000
datetaken: 2011-11-21 14:42:23
dateupload: 1322702035
tags: canberra governmenthouse yarralumla archivesact
license: 2
latitude: -35.303901
longitude: 149.079
accuracy: 16
views: 0
interestingness: 189 out of 298

photo: 6433796605 b0e2bb5971 7012
owner: 33170436@N03
title: Governor Generals Residence - Main Gate (exit) - Commonwealth Coat of Arms
originalsecret: 584ba1de68
originalformat: jpg
o_height: 4000
o_width: 3000
datetaken: 2011-11-21 14:42:55
dateupload: 1322702035
tags: canberra governmenthouse yarralumla archivesact
license: 2
latitude: -35.303901
longitude: 149.079
accuracy: 16
views: 0
interestingness: 190 out of 298

photo: 6433796591 9bd08259c9 7164
owner: 33170436@N03
title: Governor Generals Residence - Main Gate (entrance) - Commonwealth Coat of Arms
originalsecret: 9f422f3104
originalformat: jpg
o_height: 4000
o_width: 3000
datetaken: 2011-11-21 14:41:13
dateupload: 1322702035
tags: canberra governmenthouse yarralumla archivesact
license: 2
latitude: -35.303901
longitude: 149.079
accuracy: 16
views: 0
interestingness: 191 out of 298

photo: 6433659693 fb34109df9 7018
owner: 18972693@N06
title: 
originalsecret: 4745f4ff4f
originalformat: jpg
o_height: 1136
o_width: 1382
datetaken: 2011-10-15 12:07:46
dateupload: 1322700003
tags: chicago canoneos60d ohc2011 openhousechicago
license: 0
latitude: 41.882773
longitude: -87.715981
accuracy: 15
views: 4
interestingness: 192 out of 298

photo: 6433659413 1137b7d319 7159
owner: 18972693@N06
title: 
originalsecret: 1352d54500
originalformat: jpg
o_height: 1085
o_width: 1628
datetaken: 2011-10-15 12:17:55
dateupload: 1322699999
tags: chicago canoneos60d ohc2011 openhousechicago
license: 0
latitude: 41.882773
longitude: -87.715981
accuracy: 15
views: 1
interestingness: 193 out of 298

photo: 6433659131 3303f1f41d 7167
owner: 18972693@N06
title: 
originalsecret: 5ecc348371
originalformat: jpg
o_height: 1152
o_width: 1728
datetaken: 2011-10-15 12:09:52
dateupload: 1322699994
tags: chicago canoneos60d ohc2011 openhousechicago
license: 0
latitude: 41.882773
longitude: -87.715981
accuracy: 15
views: 10
interestingness: 194 out of 298

photo: 6433566635 2ff17fd999 7148
owner: 14702116@N06
title: Sunset from a Seattle houseboat.
originalsecret: null
originalformat: null
o_height: null
o_width: null
datetaken: 2011-11-30 16:12:48
dateupload: 1322698608
tags: uploaded:by=flicksquare geo:lat=476400729698977 geo:lon=122336207844188 foursquare:venue=4df50a3345dd4e269345ffa1
license: 0
latitude: 47.640072
longitude: -122.336207
accuracy: 16
views: 7
interestingness: 195 out of 298

photo: 6433537587 184a65faef 7150
owner: 41457997@N04
title: ???
originalsecret: 86577543bd
originalformat: jpg
o_height: 4953
o_width: 3988
datetaken: 2011-11-30 16:08:42
dateupload: 1322698122
tags: school back gm days
license: 0
latitude: 34.731008
longitude: 135.343914
accuracy: 16
views: 8
interestingness: 196 out of 298

photo: 6434687821 022fd55f6f 7153
owner: 8299601@N04
title: She ain't the only sleepy one in the house.
originalsecret: null
originalformat: null
o_height: null
o_width: null
datetaken: 2011-11-30 20:53:10
dateupload: 1322715190
tags: chloe picplz therapyanimalsoakland
license: 0
latitude: 37.800506
longitude: -122.250133
accuracy: 16
views: 0
interestingness: 197 out of 298

photo: 6434558041 2fdc97c637 7027
owner: 48900665@N07
title: A Night At The Opera
originalsecret: null
originalformat: null
o_height: null
o_width: null
datetaken: 2011-11-26 22:50:56
dateupload: 1322713235
tags: newyorkcity travel ilovenewyork
license: 0
latitude: 40.773391
longitude: -73.983049
accuracy: 14
views: 2
interestingness: 198 out of 298

photo: 6434155079 a164411e07 7025
owner: 32693718@N07
title: 20111121 14 Snout Houses, Cudahy, Wisconsin
originalsecret: 6e869200ab
originalformat: jpg
o_height: 1200
o_width: 1600
datetaken: 2011-11-21 00:00:07
dateupload: 1322707258
tags: wisconsin cudahy snouthouses
license: 4
latitude: 42.947501
longitude: -87.855166
accuracy: 15
views: 11
interestingness: 199 out of 298

photo: 6434054875 cc95e3d6b0 7026
owner: 58779598@N00
title: 11-30-11
originalsecret: null
originalformat: null
o_height: null
o_width: null
datetaken: 2011-11-30 18:43:10
dateupload: 1322705823
tags: house demo fire
license: 0
latitude: 35.164108
longitude: -101.907562
accuracy: 16
views: 0
interestingness: 200 out of 298

photo: 6434050905 efdc9e52ab 7143
owner: 58779598@N00
title: 11-30-11
originalsecret: null
originalformat: null
o_height: null
o_width: null
datetaken: 2011-11-30 18:43:08
dateupload: 1322705762
tags: house demo fire
license: 0
latitude: 35.164108
longitude: -101.907562
accuracy: 16
views: 0
interestingness: 201 out of 298

photo: 6434047117 231270a692 7017
owner: 58779598@N00
title: 11-30-11
originalsecret: null
originalformat: null
o_height: null
o_width: null
datetaken: 2011-11-30 18:43:06
dateupload: 1322705705
tags: house demo fire
license: 0
latitude: 35.164108
longitude: -101.907562
accuracy: 16
views: 0
interestingness: 202 out of 298

photo: 6434042851 c366a3562d 7011
owner: 58779598@N00
title: 11-30-11
originalsecret: null
originalformat: null
o_height: null
o_width: null
datetaken: 2011-11-30 18:42:52
dateupload: 1322705643
tags: house demo fire
license: 0
latitude: 35.164108
longitude: -101.907562
accuracy: 16
views: 0
interestingness: 203 out of 298

photo: 6434039451 432cdcabf1 7006
owner: 58779598@N00
title: 11-30-11
originalsecret: null
originalformat: null
o_height: null
o_width: null
datetaken: 2011-11-30 18:42:50
dateupload: 1322705594
tags: house demo fire
license: 0
latitude: 35.164108
longitude: -101.907562
accuracy: 16
views: 1
interestingness: 204 out of 298

photo: 6434035997 46a4c6e066 7025
owner: 58779598@N00
title: 11-30-11
originalsecret: null
originalformat: null
o_height: null
o_width: null
datetaken: 2011-11-30 18:42:46
dateupload: 1322705546
tags: house demo fire
license: 0
latitude: 35.164108
longitude: -101.907562
accuracy: 16
views: 3
interestingness: 205 out of 298

photo: 6434031813 ebe97edc54 7021
owner: 58779598@N00
title: 11-30-11
originalsecret: null
originalformat: null
o_height: null
o_width: null
datetaken: 2011-11-30 18:41:49
dateupload: 1322705491
tags: house demo fire
license: 0
latitude: 35.164108
longitude: -101.907562
accuracy: 16
views: 1
interestingness: 206 out of 298

photo: 6434026819 70c5fa3d88 7024
owner: 58779598@N00
title: 11-30-11
originalsecret: null
originalformat: null
o_height: null
o_width: null
datetaken: 2011-11-30 18:41:47
dateupload: 1322705422
tags: house demo fire
license: 0
latitude: 35.164108
longitude: -101.907562
accuracy: 16
views: 1
interestingness: 207 out of 298

photo: 6434022815 c1688e34f3 7164
owner: 58779598@N00
title: 11-30-11
originalsecret: null
originalformat: null
o_height: null
o_width: null
datetaken: 2011-11-30 18:41:45
dateupload: 1322705363
tags: house demo fire
license: 0
latitude: 35.164108
longitude: -101.907562
accuracy: 16
views: 1
interestingness: 208 out of 298

photo: 6434018413 e511375b77 7010
owner: 58779598@N00
title: 11-30-11
originalsecret: null
originalformat: null
o_height: null
o_width: null
datetaken: 2011-11-30 18:41:43
dateupload: 1322705300
tags: house demo fire
license: 0
latitude: 35.164108
longitude: -101.907562
accuracy: 16
views: 1
interestingness: 209 out of 298

photo: 6434014065 2391fdd7e1 7031
owner: 58779598@N00
title: 11-30-11
originalsecret: null
originalformat: null
o_height: null
o_width: null
datetaken: 2011-11-30 18:41:41
dateupload: 1322705242
tags: house demo fire
license: 0
latitude: 35.164108
longitude: -101.907562
accuracy: 16
views: 1
interestingness: 210 out of 298

photo: 6434010297 3a5a8573c1 7024
owner: 58779598@N00
title: 11-30-11
originalsecret: null
originalformat: null
o_height: null
o_width: null
datetaken: 2011-11-30 18:41:39
dateupload: 1322705189
tags: house demo fire
license: 0
latitude: 35.164108
longitude: -101.907562
accuracy: 16
views: 1
interestingness: 211 out of 298

photo: 6434006387 6cbd14c3cc 7162
owner: 58779598@N00
title: 11-30-11
originalsecret: null
originalformat: null
o_height: null
o_width: null
datetaken: 2011-11-30 18:41:37
dateupload: 1322705135
tags: house demo fire
license: 0
latitude: 35.164108
longitude: -101.907562
accuracy: 16
views: 1
interestingness: 212 out of 298

photo: 6434002311 96a08bbd8c 7023
owner: 58779598@N00
title: 11-30-11
originalsecret: null
originalformat: null
o_height: null
o_width: null
datetaken: 2011-11-30 18:41:33
dateupload: 1322705079
tags: house demo fire
license: 0
latitude: 35.164108
longitude: -101.907562
accuracy: 16
views: 2
interestingness: 213 out of 298

photo: 6433997881 9b3ee91628 7154
owner: 58779598@N00
title: 11-30-11
originalsecret: null
originalformat: null
o_height: null
o_width: null
datetaken: 2011-11-30 18:41:32
dateupload: 1322705016
tags: house demo fire
license: 0
latitude: 35.164108
longitude: -101.907562
accuracy: 16
views: 2
interestingness: 214 out of 298

photo: 6433993887 3ea5236ddd 7015
owner: 58779598@N00
title: 11-30-11
originalsecret: null
originalformat: null
o_height: null
o_width: null
datetaken: 2011-11-30 18:41:17
dateupload: 1322704956
tags: house demo fire
license: 0
latitude: 35.164108
longitude: -101.907562
accuracy: 16
views: 2
interestingness: 215 out of 298

photo: 6433990719 4f42f7c332 7034
owner: 58779598@N00
title: 11-30-11
originalsecret: null
originalformat: null
o_height: null
o_width: null
datetaken: 2011-11-30 18:41:13
dateupload: 1322704906
tags: house demo fire
license: 0
latitude: 35.164108
longitude: -101.907562
accuracy: 16
views: 1
interestingness: 216 out of 298

photo: 6433987545 688b829a32 7006
owner: 58779598@N00
title: 11-30-11
originalsecret: null
originalformat: null
o_height: null
o_width: null
datetaken: 2011-11-30 18:41:10
dateupload: 1322704856
tags: house demo fire
license: 0
latitude: 35.164108
longitude: -101.907562
accuracy: 16
views: 2
interestingness: 217 out of 298

photo: 6433983469 330ed49dcf 7034
owner: 58779598@N00
title: 11-30-11
originalsecret: null
originalformat: null
o_height: null
o_width: null
datetaken: 2011-11-30 18:41:08
dateupload: 1322704797
tags: house demo fire
license: 0
latitude: 35.164108
longitude: -101.907562
accuracy: 16
views: 2
interestingness: 218 out of 298

photo: 6433978743 ae4d7e566b 7145
owner: 58779598@N00
title: 11-30-11
originalsecret: null
originalformat: null
o_height: null
o_width: null
datetaken: 2011-11-30 18:41:05
dateupload: 1322704731
tags: house demo fire
license: 0
latitude: 35.164108
longitude: -101.907562
accuracy: 16
views: 0
interestingness: 219 out of 298

photo: 6433974863 4b59cc009b 7015
owner: 58779598@N00
title: 11-30-11
originalsecret: null
originalformat: null
o_height: null
o_width: null
datetaken: 2011-11-30 18:40:47
dateupload: 1322704679
tags: house demo fire
license: 0
latitude: 35.164108
longitude: -101.907562
accuracy: 16
views: 0
interestingness: 220 out of 298

photo: 6433970803 e2dce40635 7011
owner: 58779598@N00
title: 11-30-11
originalsecret: null
originalformat: null
o_height: null
o_width: null
datetaken: 2011-11-30 18:40:45
dateupload: 1322704620
tags: house demo fire
license: 0
latitude: 35.164108
longitude: -101.907562
accuracy: 16
views: 0
interestingness: 221 out of 298

photo: 6433963817 8a88596022 7032
owner: 58779598@N00
title: 11-30-11
originalsecret: null
originalformat: null
o_height: null
o_width: null
datetaken: 2011-11-30 18:38:26
dateupload: 1322704518
tags: house demo fire
license: 0
latitude: 35.164108
longitude: -101.907562
accuracy: 16
views: 0
interestingness: 222 out of 298

photo: 6433959993 87fe9e9d3a 7022
owner: 58779598@N00
title: 11-30-11
originalsecret: null
originalformat: null
o_height: null
o_width: null
datetaken: 2011-11-30 18:38:23
dateupload: 1322704461
tags: house demo fire
license: 0
latitude: 35.164108
longitude: -101.907562
accuracy: 16
views: 0
interestingness: 223 out of 298

photo: 6433955745 e809b3e723 7012
owner: 58779598@N00
title: 11-30-11
originalsecret: null
originalformat: null
o_height: null
o_width: null
datetaken: 2011-11-30 18:38:21
dateupload: 1322704400
tags: house demo fire
license: 0
latitude: 35.164108
longitude: -101.907562
accuracy: 16
views: 0
interestingness: 224 out of 298

photo: 6433951211 f8c75a67e3 7142
owner: 58779598@N00
title: 11-30-11
originalsecret: null
originalformat: null
o_height: null
o_width: null
datetaken: 2011-11-30 18:38:18
dateupload: 1322704335
tags: house demo fire
license: 0
latitude: 35.164108
longitude: -101.907562
accuracy: 16
views: 0
interestingness: 225 out of 298

photo: 6433946475 cd00c1ac24 7150
owner: 58779598@N00
title: 11-30-11
originalsecret: null
originalformat: null
o_height: null
o_width: null
datetaken: 2011-11-30 18:38:11
dateupload: 1322704271
tags: house demo fire
license: 0
latitude: 35.164108
longitude: -101.907562
accuracy: 16
views: 0
interestingness: 226 out of 298

photo: 6433942557 106f4a849e 7146
owner: 58779598@N00
title: 11-30-11
originalsecret: null
originalformat: null
o_height: null
o_width: null
datetaken: 2011-11-30 18:37:56
dateupload: 1322704216
tags: house demo fire
license: 0
latitude: 35.164108
longitude: -101.907562
accuracy: 16
views: 0
interestingness: 227 out of 298

photo: 6433938441 d76a06c28f 7019
owner: 58779598@N00
title: 11-30-11
originalsecret: null
originalformat: null
o_height: null
o_width: null
datetaken: 2011-11-30 18:37:50
dateupload: 1322704157
tags: house demo fire
license: 0
latitude: 35.164108
longitude: -101.907562
accuracy: 16
views: 0
