
mintime: 1322697600 maxtime: 1322749786.64
numimgs: 242
total pages: 1
visiting only 1 pages ( up to 250 images)
photo: 6433881325 28bcb446fe 7165
owner: 13547802@N05
title: Green Stream - Aurora near Reykjav?k Iceland
originalsecret: 0c62bd0748
originalformat: jpg
o_height: 650
o_width: 950
datetaken: 2011-11-30 22:23:41
dateupload: 1322703280
tags: winter sky mountain lake snow storm reflection green ice weather river photography solar iceland astro arctic aurora magnetic northernlights 2011 arcticphoto
license: 0
latitude: 64.209514
longitude: -21.608905
accuracy: 11
views: 1367
interestingness: 1 out of 242

photo: 6426386739 cf6085119a 6093
owner: 16787443@N00
title: La fameuse hospitalit? Parisienne !
originalsecret: null
originalformat: null
o_height: null
o_width: null
datetaken: 2011-11-26 17:45:50
dateupload: 1322725621
tags: paris france fuji fuck doigt finepix fujifilm artforsale fujinon con streetmarket parisien x100 insultes 23mm doigtdhonneur nomsdoiseaux
license: 0
latitude: 48.857324
longitude: 2.338446
accuracy: 16
views: 868
interestingness: 2 out of 242

photo: 6425408059 4cbdda9e5a 7031
owner: 85335231@N00
title: Sodade
originalsecret: null
originalformat: null
o_height: null
o_width: null
datetaken: 2011-11-29 18:23:46
dateupload: 1322740980
tags: mer portugal noiretblanc porto dor plage evora nostalgie lota tristese m?lancolie sodade magun d?racinement smoussimou
license: 0
latitude: 41.066685
longitude: -8.657155
accuracy: 14
views: 368
interestingness: 3 out of 242

photo: 6435635747 1eda89c017 7029
owner: 28628934@N02
title: Gangway Harbour Delfzijl
originalsecret: null
originalformat: null
o_height: null
o_width: null
datetaken: 2011-11-30 10:50:57
dateupload: 1322736149
tags: blackandwhite bw holland clouds nikon zwartwit bram nederland thenetherlands wolken delfzijl groningen loopbrug zw gangway farmsum reinders bramreinders nikond7000 wwwbramreindersnl havendelfzijl nieuwsgierigheidisdebronvanallekennis curiosityisthesourceofallknowledge harbourdelfzijl ?bramreindersfarmsum tokinasd1224f4ifdxatxpro gangwayharbourdelfzijl
license: 0
latitude: 53.33297
longitude: 6.93506
accuracy: 16
views: 216
interestingness: 4 out of 242

photo: 6435086461 12e4f1fe44 7030
owner: 52316539@N07
title: Bee on the thornless blackberry blossoms in the late afternoon sun. Canberra, Australia.
originalsecret: null
originalformat: null
o_height: null
o_width: null
datetaken: 2011-12-01 15:50:25
dateupload: 1322723018
tags: blackberry blossoms australia bee canberra afternoonsun blackberryblossoms thornlessblackberry tomcrossanphotography chesterrubusulmifolius
license: 0
latitude: -35.373514
longitude: 149.034118
accuracy: 11
views: 174
interestingness: 5 out of 242

photo: 6435388517 8955d962ec 7148
owner: 64881935@N06
title: The red fence
originalsecret: 0de033879f
originalformat: jpg
o_height: 667
o_width: 1000
datetaken: 2011-10-14 11:15:54
dateupload: 1322730075
tags: red metal canon fence reading dof bokeh depthoffield berkshire hff canon5dmkii 5dmkii fencefriday
license: 0
latitude: 51.456805
longitude: -0.967368
accuracy: 16
views: 322
interestingness: 6 out of 242

photo: 6434715501 48f903d03e 7009
owner: 9413478@N08
title: Columbia River.
originalsecret: null
originalformat: null
o_height: null
o_width: null
datetaken: 2011-08-25 03:53:40
dateupload: 1322715654
tags: blue sunset sky max clouds oregon river washington deep columbia i84 maranza maranzamax flickrstruereflection1 flickrstruereflection2
license: 0
latitude: 45.542577
longitude: -122.275428
accuracy: 14
views: 303
interestingness: 7 out of 242

photo: 6436320987 82f775c698 7032
owner: 57945291@N00
title: Tungurahua Still Active
originalsecret: 8e5d684760
originalformat: jpg
o_height: 800
o_width: 531
datetaken: 2011-12-01 07:02:11
dateupload: 1322749076
tags: cloud nature clouds landscape volcano scenery eruption volcan tungurahua erupcion
license: 0
latitude: -1.390149
longitude: -78.430366
accuracy: 11
views: 157
interestingness: 8 out of 242

photo: 6435467201 8f1a6ebe04 7155
owner: 47145915@N02
title: Thorpe Marsh ~ Explore
originalsecret: null
originalformat: null
o_height: null
o_width: null
datetaken: 2011-11-23 10:39:35
dateupload: 1322731961
tags: 
license: 0
latitude: 53.57625
longitude: -1.087989
accuracy: 16
views: 699
interestingness: 9 out of 242

photo: 6431667047 6246d2b117 6221
owner: 50628097@N05
title: .
originalsecret: null
originalformat: null
o_height: null
o_width: null
datetaken: 2011-07-05 14:57:21
dateupload: 1322722394
tags: street bw canon blackwhite russia moscow candid streetphotography nocrop moskva eos50d makrygiannakis
license: 0
latitude: 55.730541
longitude: 37.604956
accuracy: 13
views: 295
interestingness: 10 out of 242

photo: 5866133328 3daa928663 3078
owner: 51189687@N04
title: This is the Xmas card, ahem.....
originalsecret: null
originalformat: null
o_height: null
o_width: null
datetaken: 2011-06-17 21:46:38
dateupload: 1322733900
tags: ireland patch bestofcats aislingwalsh christmascard2011 mayocatrescue
license: 0
latitude: 53.831859
longitude: -9.183469
accuracy: 11
views: 348
interestingness: 11 out of 242

photo: 6435873249 20ff69752d 7162
owner: 22643488@N06
title: Trascendeza -bis-
originalsecret: null
originalformat: null
o_height: null
o_width: null
datetaken: 2011-10-10 23:49:45
dateupload: 1322741084
tags: travel blue italy vatican rome roma church nikon italia blu vaticano chiesa viaggio lazio colonne colonna pellegrini seduto d40
license: 0
latitude: 41.901398
longitude: 12.45738
accuracy: 14
views: 161
interestingness: 12 out of 242

photo: 6436004321 7d9e7857e9 7023
owner: 33703183@N03
title: Awakening
originalsecret: null
originalformat: null
o_height: null
o_width: null
datetaken: 2011-11-08 06:11:00
dateupload: 1322743665
tags: sanfrancisco california usa landscape cityscape awakening bayarea sausalito marinheadlands goldenhour sanfranciscocityscape pichayaviwatrujirapong
license: 0
latitude: 37.831399
longitude: -122.47698
accuracy: 16
views: 188
interestingness: 13 out of 242

photo: 6435043665 2d5c5a9969 7013
owner: 59994095@N05
title: this cat is done with being photographed
originalsecret: null
originalformat: null
o_height: null
o_width: null
datetaken: 2011-11-27 16:26:58
dateupload: 1322722073
tags: green girl cat square eyes
license: 0
latitude: 40.730771
longitude: -73.856792
accuracy: 13
views: 104
interestingness: 14 out of 242

photo: 6435448795 69672065e4 7143
owner: 41520324@N06
title: Cloud rising
originalsecret: null
originalformat: null
o_height: null
o_width: null
datetaken: 2010-05-24 17:08:30
dateupload: 1322731517
tags: trees sunset cloud mountain nature branch afternoon gangtok incredibleindia mygearandme
license: 0
latitude: 27.325262
longitude: 88.608169
accuracy: 11
views: 248
interestingness: 15 out of 242

photo: 6435282789 41f5ca130c 7171
owner: 21506908@N07
title: Peacock Door Chandra Mahal...Jaipur
originalsecret: null
originalformat: null
o_height: null
o_width: null
datetaken: 2006-04-13 07:03:04
dateupload: 1322727480
tags: door india jaipur rajasthan explorewinnersoftheworld peacockdoor
license: 0
latitude: 26.898415
longitude: 75.808158
accuracy: 9
views: 214
interestingness: 16 out of 242

photo: 6434527933 ed272afaef 7171
owner: 66655990@N05
title: papermill.lightstudy/sunset_0831 [explored]
originalsecret: null
originalformat: null
o_height: null
o_width: null
datetaken: 2011-11-30 17:11:33
dateupload: 1322712781
tags: sunset reflection industry water cool nikon tacoma d200 shipping papermill portoftacoma cool2 cool5 cool3 cool6 cool4 cool7 iceboxcool unanicool simpsonkraft theevilcloudfactoryisback
license: 0
latitude: 47.259689
longitude: -122.419066
accuracy: 13
views: 263
interestingness: 17 out of 242

photo: 6422078481 94f6bfcf4a 7009
owner: 22490717@N02
title: DGJ_4881B - Sunrise at Bras D'Or
originalsecret: 8e0ed06287
originalformat: jpg
o_height: 2886
o_width: 4313
datetaken: 2011-09-18 06:40:48
dateupload: 1322738460
tags: canada island boat nikon novascotia free capebreton dennis jarvis d300 brasdor 18200vr freepicture 70300mmvr dennisjarvis archer10 dennisgjarvis
license: 5
latitude: 46.251243
longitude: -60.289846
accuracy: 16
views: 373
interestingness: 18 out of 242

photo: 6434595183 573b9d6493 7155
owner: 52068801@N08
title: Facing A Phenomena
originalsecret: null
originalformat: null
o_height: null
o_width: null
datetaken: 2011-10-24 21:33:54
dateupload: 1322713775
tags: silhouette northernlights auroraborealis cme phenomena
license: 0
latitude: 40.281621
longitude: -83.38417
accuracy: 10
views: 176
interestingness: 19 out of 242

photo: 6432277373 08db815564 7172
owner: 58328306@N03
title: Malham Sunrise
originalsecret: null
originalformat: null
o_height: null
o_width: null
datetaken: 2011-10-19 07:11:15
dateupload: 1322731786
tags: morning pink blue lake green water sunrise canon reflections landscape sigma olly tarn 1020 malham plumstead 450d
license: 0
latitude: 54.10049
longitude: -2.16069
accuracy: 11
views: 106
interestingness: 20 out of 242

photo: 6433679729 e3dd1250d4 7030
owner: 47715880@N04
title: Retreating Vapour
originalsecret: null
originalformat: null
o_height: null
o_width: null
datetaken: 2011-11-30 17:01:01
dateupload: 1322700291
tags: sunset lake 3 snow toronto ontario golden long exposure day post image first adobe hour processing beaches 1750 scarborough 28 bluffs non hdr vapour vapor lightroom 500d retreating
license: 0
latitude: 43.705034
longitude: -79.235308
accuracy: 14
views: 344
interestingness: 21 out of 242

photo: 6435397373 1dc2dfb0f5 7035
owner: 53427116@N00
title: Crown of Fire
originalsecret: null
originalformat: null
o_height: null
o_width: null
datetaken: 2010-03-31 19:30:21
dateupload: 1322730277
tags: usa wa troutlake sleepingbeauty sleepingbeautysunset5156201003312
license: 0
latitude: 46.00973
longitude: -121.558899
accuracy: 13
views: 105
interestingness: 22 out of 242

photo: 6434259843 3dd7ee6061 7034
owner: 44124372679@N01
title: Silent Night Christmas card
originalsecret: null
originalformat: null
o_height: null
o_width: null
datetaken: 2010-01-03 14:07:57
dateupload: 1322708865
tags: christmas decorations church architecture missionsangabriel
license: 0
latitude: 34.097927
longitude: -118.107451
accuracy: 14
views: 97
interestingness: 23 out of 242

photo: 6436239153 dd88d1f5c9 7163
owner: 53726327@N03
title: Dont be sad...
originalsecret: null
originalformat: null
o_height: null
o_width: null
datetaken: 2011-12-01 00:21:57
dateupload: 1322747800
tags: whimsicalsadfacesornamentsgoldenexpressionsbokehornamentscreativetreechristmas
license: 0
latitude: 32.296516
longitude: -81.221769
accuracy: 11
views: 101
interestingness: 24 out of 242

photo: 6435729281 c3eeecb6b4 7035
owner: 33244024@N06
title: Stranger #82: Lady from the Philippines
originalsecret: 772c5dfc24
originalformat: png
o_height: 819
o_width: 1024
datetaken: 2011-08-31 14:14:45
dateupload: 1322738085
tags: nikon 85mm streetportrait d90 asianlady 100strangers
license: 0
latitude: 51.512001
longitude: -0.1228
accuracy: 13
views: 120
interestingness: 25 out of 242

photo: 6435503851 4946c0cb21 7032
owner: 30982194@N05
title: View ? Vista de Albarrac?n, Teruel (Arag?n, Spain), HDR 4
originalsecret: b84413d2ff
originalformat: jpg
o_height: 660
o_width: 1000
datetaken: 2010-06-04 13:01:23
dateupload: 1322732868
tags: red espa?a rot tower church wall photoshop spain rojo nikon torre dorf village view bell map pueblo iglesia kirche vista aragon handheld aussicht nikkor 1735mmf28d defensive muralla tone teruel hdr spanien campanario stadtmauer albarracin glockenturm photomatix tonemapped tonemapping tonemap guadalaviar rodeno aragonien d700 gettyimagesiberiaq3
license: 0
latitude: 40.40839
longitude: -1.439239
accuracy: 11
views: 106
interestingness: 26 out of 242

photo: 6435302861 37b727be44 7008
owner: 35159253@N04
title: Upwards, Sidewards
originalsecret: null
originalformat: null
o_height: null
o_width: null
datetaken: 2011-11-29 19:58:21
dateupload: 1322727926
tags: light sunset lines sand shadows roots curious mangroves itsgoodtoknow putingbagwis
license: 0
latitude: -36.902479
longitude: 174.876508
accuracy: 13
views: 122
interestingness: 27 out of 242

photo: 6433415187 2dcd20b18e 7171
owner: 66162175@N07
title: Dead Lake
originalsecret: null
originalformat: null
o_height: null
o_width: null
datetaken: 2011-11-30 08:19:25
dateupload: 1322728628
tags: mist lake tree misty fog grey branch moody cloudy foggy ghostly essex deserted atmospheric witham braxted
license: 0
latitude: 51.811002
longitude: 0.670051
accuracy: 16
views: 76
interestingness: 28 out of 242

photo: 6435972537 396455d765 7157
owner: 30658940@N08
title: Panorama 1.4
originalsecret: null
originalformat: null
o_height: null
o_width: null
datetaken: 2011-09-21 17:27:34
dateupload: 1322743076
tags: life sky panorama stilllife cloud canon landscape evening day lifestyle dhaka bangladesh 2011 450d dhakacity 1585mm gettyimagesbangladeshq2
license: 0
latitude: 23.7098
longitude: 90.407112
accuracy: 11
views: 356
interestingness: 29 out of 242

photo: 6435736675 3d1e362071 7001
owner: 87453322@N00
title: Outsider. Ultra surveying the Inner City, Cascade Complex, Groningen, The Netherlands
originalsecret: null
originalformat: null
o_height: null
o_width: null
datetaken: 2011-11-30 10:50:41
dateupload: 1322738248
tags: 1001nights philippestarck coophimmelblau silviab alessandromendini groningenthenetherlands abebonnema abigfave ubboemmius flickraward blinkagain waddenzeethenetherlands groningermuseumgroningenthenetherlands albertsandvanhuut leeuwardenthenetherlands deregentesgroningenthenetherlands cascadecomplexgroningenthenetherlands ultraderegentesgroningenthgenetherlands
license: 0
latitude: 53.212323
longitude: 6.56138
accuracy: 16
views: 127
interestingness: 30 out of 242

photo: 6433833749 1438211bd4 7150
owner: 34050930@N08
title: Eagle on the Shore
originalsecret: null
originalformat: null
o_height: null
o_width: null
datetaken: 2011-11-30 14:15:59
dateupload: 1322702585
tags: nikon baldeagle maryland tc14eii d90 300mm28afs easternnecknwr
license: 0
latitude: 39.054209
longitude: -76.221653
accuracy: 15
views: 94
interestingness: 31 out of 242

photo: 6435613251 021104bdff 7173
owner: 26917027@N04
title: frampton marsh
originalsecret: null
originalformat: null
o_height: null
o_width: null
datetaken: 2011-12-01 09:19:53
dateupload: 1322735639
tags: explore
license: 0
latitude: 52.922254
longitude: 0.020084
accuracy: 11
views: 203
interestingness: 32 out of 242

photo: 6435360845 819dbe81c1 7166
owner: 43956756@N08
title: Wolverhampton City Centre Me I was spotted  Douglas Morris Henry Harris Bust, known locally as the 'sailor' statue 271111
originalsecret: 20c8864d2b
originalformat: jpg
o_height: 2976
o_width: 3968
datetaken: 2011-11-27 14:50:15
dateupload: 1322729413
tags: city statue centre bust henry harris wolverhampton stpetersgardens douglasmorris
license: 0
latitude: 52.58678
longitude: -2.12639
accuracy: 16
views: 121
interestingness: 33 out of 242

photo: 6434145003 da1e1bc827 7148
owner: 53642062@N02
title: 365/303 - Rejection [IFV - V]
originalsecret: null
originalformat: null
o_height: null
o_width: null
datetaken: 2011-11-30 16:23:19
dateupload: 1322707109
tags: roses boyfriend photography girlfriend couples dating 365 rejection rachelmariesmith
license: 0
latitude: 40.255668
longitude: -74.961387
accuracy: 11
views: 186
interestingness: 34 out of 242

photo: 6433934045 a3ba864e55 7163
owner: 54191867@N02
title: Yala into the blue
originalsecret: 6d71fa5985
originalformat: jpg
o_height: 667
o_width: 1000
datetaken: 2011-11-28 12:21:15
dateupload: 1322704088
tags: sunset boat safari sri lanka yala
license: 0
latitude: 6.245521
longitude: 81.366577
accuracy: 9
views: 49
interestingness: 35 out of 242

photo: 6427885301 df6392a2c5 7035
owner: 36592495@N02
title: Shine on Me
originalsecret: null
originalformat: null
o_height: null
o_width: null
datetaken: 2011-11-29 08:23:58
dateupload: 1322701680
tags: morning chris light sun color sunshine clouds sailboat marina sunrise boat washington dock nikon glare uv explore filter flare wa 28 bremerton nikkor grip f28 hdr highdynamicrange picnik finnegan relfections brownsville hoya sunflare illahee 77mm landscapephotography d90 tonemapping nd4 mbd80 nikond90 chrisfinnegan 1116mm tokinawideangle tokinaatxprosd1116mmf28ifdx ifedafs ixfe photomatixpro40 chrisfinneganphotography polarizer77mmfilter neutraldensitynd4filter combinationofthreeexposuresev202 wwwchrisfinneganphotographycom tokinaf28atx
license: 0
latitude: 47.652459
longitude: -122.615822
accuracy: 16
views: 90
interestingness: 36 out of 242

photo: 6435848015 7f0d04febb 7019
owner: 38237485@N07
title: ??? ???
originalsecret: 79eba29ca1
originalformat: jpg
o_height: 1280
o_width: 1280
datetaken: 2011-11-27 09:35:57
dateupload: 1322740566
tags: autumn japan kyoto sigma ?? ? foveon sd1 ??? ?????
license: 0
latitude: 34.938226
longitude: 135.645189
accuracy: 12
views: 96
interestingness: 37 out of 242

photo: 6436150803 e9b21db2ae 7144
owner: 64829840@N00
title: Man loves company even if it is only that of a small burning candle.  ~Georg Christoph Lichtenberg [Explore]
originalsecret: dd31e96565
originalformat: jpg
o_height: 1929
o_width: 2772
datetaken: 2011-11-17 00:02:17
dateupload: 1322746264
tags: abstract man digital photography solitude shadows ladybird walls minimalism canonpowershot coccinella
license: 3
latitude: 45.44823
longitude: 10.07686
accuracy: 11
views: 65
interestingness: 38 out of 242

photo: 6435971081 27560b3ed8 7151
owner: 27531711@N08
title: Grand Prismatic Pool
originalsecret: null
originalformat: null
o_height: null
o_width: null
datetaken: 2011-09-24 13:59:40
dateupload: 1322743048
tags: usa sunny yellowstonenationalpark wyoming largest grandprismaticspring midwaygeyserbasin johncothron cothronphotography thermalactivityhotspringssteammineraldepositsvolcanic
license: 0
latitude: 44.522986
longitude: -110.83925
accuracy: 16
views: 102
interestingness: 39 out of 242

photo: 6436217877 a8ddbea18d 7030
owner: 36602614@N07
title: Welcome @ Noxx Antwerp
originalsecret: null
originalformat: null
o_height: null
o_width: null
datetaken: 2011-11-23 21:45:48
dateupload: 1322747432
tags: california red italy black cali club canon rouge disco photography spider italian noir 360 automotive ps ferrari 7d gto antwerp usm unveiling pk modena discotheque rood zwart schwarz philippe antwerpen anvers f430 combo 24105 bhp 599 458 fiorano discotheek 24105mm onthulling collinet noxx canoneos7d lserie canonef24105lf4isusm wwwphilippecollinetbe ferrari458spider unveilingferrari458spider
license: 0
latitude: 51.223765
longitude: 4.400196
accuracy: 11
views: 116
interestingness: 40 out of 242

photo: 6435248537 cfd3885b41 7008
owner: 67413027@N08
title: catch me if you can
originalsecret: null
originalformat: null
o_height: null
o_width: null
datetaken: 2011-11-26 14:53:08
dateupload: 1322726719
tags: christmas street old city family autumn light boy portrait people urban blackandwhite bw woman cute love smile sepia kids youth children square licht town kid essen women child little market candid fast run christmastree stadt laugh nostalgic mischief oldnew
license: 0
latitude: 51.448658
longitude: 6.97134
accuracy: 11
views: 118
interestingness: 41 out of 242

photo: 6435217593 2fecfac7fa 7032
owner: 41520324@N06
title: Afternoon
originalsecret: null
originalformat: null
o_height: null
o_width: null
datetaken: 2010-05-26 17:52:49
dateupload: 1322725993
tags: trees sunset sky cloud nature silhouette gangtok incredibleindia
license: 0
latitude: 27.317789
longitude: 88.597869
accuracy: 11
views: 102
interestingness: 42 out of 242

photo: 6436208505 c05b524ecb 7154
owner: 60310033@N02
title: Inside the River.
originalsecret: null
originalformat: null
o_height: null
o_width: null
datetaken: 2011-12-01 13:20:55
dateupload: 1322747277
tags: trees houses winter reflection river inside rotate
license: 0
latitude: 55.165411
longitude: -1.689823
accuracy: 16
views: 38
interestingness: 43 out of 242

photo: 6435603675 2748fb8335 7012
owner: 8773698@N03
title: Arthur Henry "Artie" Beetson, OAM (22 Jan 1945 ? 1 Dec 2011)
originalsecret: null
originalformat: null
o_height: null
o_width: null
datetaken: 2011-10-18 13:34:40
dateupload: 1322737458
tags: sydney australia martinplace indigenouspeople lplater canon5dmkii sigma2470mmf28ifexdghsm photoshopcs5 bigartie carersday arthurartiebeetson queenslandrugbyleaguelegend
license: 0
latitude: -33.867618
longitude: 151.209114
accuracy: 15
views: 79
interestingness: 44 out of 242

photo: 6435634047 31d7092bf9 7164
owner: 33714988@N04
title: Forte Sangallo, Nettuno.
originalsecret: null
originalformat: null
o_height: null
o_width: null
datetaken: 2011-11-26 16:07:31
dateupload: 1322736108
tags: roma italia borgo spiaggia medioevo borgia nettuno fortezza anzio danielepolidori fortezzasulmare
license: 0
latitude: 41.456425
longitude: 12.655541
accuracy: 16
views: 32
interestingness: 45 out of 242

photo: 6435151367 46d1a2b841 7006
owner: 39460523@N02
title: ?"Let me light my lamp", says the star, "And never debate if it will help to remove the darkness? ~Rabindranath Tagore
originalsecret: 5427929d38
originalformat: jpg
o_height: 2592
o_width: 3888
datetaken: 2011-11-05 00:35:01
dateupload: 1322724434
tags: flickraward
license: 0
latitude: 31.102223
longitude: 77.17153
accuracy: 13
views: 48
interestingness: 46 out of 242

photo: 6434360561 9bb2ca0e84 7035
owner: 12471248@N08
title: Stranger 036/100
originalsecret: null
originalformat: null
o_height: null
o_width: null
datetaken: 2011-11-28 10:24:11
dateupload: 1322710348
tags: sanfrancisco portrait people unionsquare tailor brooksbrothers 100strangers
license: 0
latitude: 37.787911
longitude: -122.410663
accuracy: 13
views: 102
interestingness: 47 out of 242

photo: 6430141939 065b0aec06 7007
owner: 8773698@N03
title: Catedral-Bas?lica de Nuestra Se?ora del Pilar (Basilica-Cathedral of Our Lady of the Pillar)
originalsecret: null
originalformat: null
o_height: null
o_width: null
datetaken: 2011-07-31 13:39:52
dateupload: 1322719848
tags: espa?a spain zaragoza canon60d lplater basilicacathedralofourladyofthepillar catedralbas?licadenuestrase?oradelpilar sigma2470mmf28ifexdghsm photoshopcs5
license: 0
latitude: 41.65143
longitude: -0.873219
accuracy: 14
views: 40
interestingness: 48 out of 242

photo: 6435353197 1ef765a243 7171
owner: 23604354@N02
title: Peace and Quiet
originalsecret: 84a396d64f
originalformat: jpg
o_height: 1536
o_width: 2048
datetaken: 2008-08-03 05:59:38
dateupload: 1322729226
tags: england cornwall artist american pastels stives penwith supershot dmctz3
license: 0
latitude: 50.215346
longitude: -5.476357
accuracy: 16
views: 69
interestingness: 49 out of 242

photo: 6434795577 d1587d48ee 7026
owner: 24101060@N00
title: Golden Sunset Glow Over The Sea
originalsecret: f630ac2e8c
originalformat: jpg
o_height: 1000
o_width: 1500
datetaken: 2011-11-30 19:26:02
dateupload: 1322717079
tags: ocean blue sunset sea newzealand sky seascape green nature beautiful canon landscape outside outdoors scenery sundown outdoor nik canon7d sbfaves sxbaird landscapelovers stewartbaird
license: 3
latitude: -41.094036
longitude: 174.854536
accuracy: 13
views: 83
interestingness: 50 out of 242

photo: 6434754823 66d66280c0 7173
owner: 49625194@N02
title: Red-Tailed Hawk in NYC [Explore]
originalsecret: null
originalformat: null
o_height: null
o_width: null
datetaken: 2011-11-30 10:29:32
dateupload: 1322716363
tags: nyc newyorkcity bird flying high wings feathers soaring redtailedhawk tamron75300mm mickcanon
license: 0
latitude: 40.731887
longitude: -73.810615
accuracy: 13
views: 74
interestingness: 51 out of 242

photo: 6433805921 f10c9e442d 7027
owner: 48671689@N02
title: Black Capped Chickadee
originalsecret: null
originalformat: null
o_height: null
o_width: null
datetaken: 2011-11-30 11:26:12
dateupload: 1322702173
tags: black bird canon pod sweet birding alabama chickadee 7d limestone capped birdwatching sweetgum 600mm jlphotography digiartpics
license: 0
latitude: 34.595116
longitude: -86.891491
accuracy: 14
views: 48
interestingness: 52 out of 242

photo: 6433611675 dc060d051d 7162
owner: 37150128@N02
title: As The Winter Comes...
originalsecret: null
originalformat: null
o_height: null
o_width: null
datetaken: 2009-11-22 13:30:37
dateupload: 1322699283
tags: pink winter portrait cold girl leaves oregon portland model nikon defirenze
license: 0
latitude: 45.450617
longitude: -122.643814
accuracy: 11
views: 69
interestingness: 53 out of 242

photo: 6435978903 89a33757d4 7145
owner: 30517065@N00
title: The Larch and Me
originalsecret: bc55f0997d
originalformat: jpg
o_height: 672
o_width: 576
datetaken: 2011-11-25 20:28:19
dateupload: 1322743195
tags: autumn tree fall wisconsin scarf tv fallcolor cd jacket gloves milwaukee larch greenfieldpark laurette laurettevictoria
license: 0
latitude: 43.006969
longitude: -88.06014
accuracy: 13
views: 126
interestingness: 54 out of 242

photo: 6436337313 2129efe611 7160
owner: 52566021@N05
title: LORD BLESS THIS FOOD
originalsecret: fc398d1034
originalformat: jpg
o_height: 2736
o_width: 3648
datetaken: 2011-11-30 07:39:11
dateupload: 1322749316
tags: food dog pet puppies babies canine doberman supper
license: 0
latitude: 35.285704
longitude: -85.073404
accuracy: 15
views: 103
interestingness: 55 out of 242

photo: 6435604161 da4da84f9f 7004
owner: 11516254@N00
title: Nicole (#13/100)
originalsecret: null
originalformat: null
o_height: null
o_width: null
datetaken: 2011-11-30 11:29:02
dateupload: 1322735430
tags: nicole stranger slough berkshire kevday no13 100strangers
license: 0
latitude: 51.511176
longitude: -0.592231
accuracy: 16
views: 126
interestingness: 56 out of 242

photo: 6435241161 e75442ca2d 7152
owner: 29814274@N04
title: It's Coming
originalsecret: null
originalformat: null
o_height: null
o_width: null
datetaken: 2011-11-29 19:32:58
dateupload: 1322726541
tags: christmas xmas decorations lights focus bokeh yorkshire illuminations dales illuminate skipton
license: 0
latitude: 53.961766
longitude: -2.016377
accuracy: 14
views: 42
interestingness: 57 out of 242

photo: 6434982875 565ee88365 7009
owner: 76672675@N00
title: photographers' daughters
originalsecret: null
originalformat: null
o_height: null
o_width: null
datetaken: 2011-07-05 12:23:42
dateupload: 1322720736
tags: girls friends summer archives flickrmeetup instantphoto
license: 0
latitude: 39.968618
longitude: -75.184657
accuracy: 14
views: 121
interestingness: 58 out of 242

photo: 6435749133 48849dbd0d 7148
owner: 43385244@N07
title: fire!
originalsecret: 13b51431be
originalformat: jpg
o_height: 2848
o_width: 4288
datetaken: 2011-11-19 08:08:59
dateupload: 1322738506
tags: fire incoming ringoffire etcetc steelwool spinningfire lightmyfire firedownbelow anyonerememberbeevisandbutthead
license: 0
latitude: 34.479957
longitude: -114.402179
accuracy: 13
views: 70
interestingness: 59 out of 242

photo: 6435485027 e798f2e13b 7162
owner: 94941181@N00
title: Zorki 2-S
originalsecret: f57171e20e
originalformat: jpg
o_height: 542
o_width: 800
datetaken: 2011-11-27 16:05:37
dateupload: 1322732594
tags: zorki2s
license: 0
latitude: 39.932923
longitude: 32.834658
accuracy: 15
views: 121
interestingness: 60 out of 242

photo: 6434670437 3fdd24367c 7147
owner: 93254204@N00
title: I'm Too...
originalsecret: null
originalformat: null
o_height: null
o_width: null
datetaken: 2011-11-30 10:58:52
dateupload: 1322714908
tags: autumn holland fall netherlands amsterdam europe wicked nophotoshop lifeisgood android app carpediem htc 2011 mobilephonecam amstersam reflectah amstersm amsterdamthebestcityintheworld reflectionsofamsterdam checkoutmywebsitewwwamstersamcom wickedreflections thewickedreflectah amstersmthewickedreflectah htcdesire camera360 htcdesiremobilephonecam
license: 0
latitude: 52.372887
longitude: 4.892821
accuracy: 14
views: 179
interestingness: 61 out of 242

photo: 6433815313 c819c9774b 7005
owner: 24161817@N07
title: DSC_10497
originalsecret: null
originalformat: null
o_height: null
o_width: null
datetaken: 2011-11-30 12:40:17
dateupload: 1322702307
tags: macro fall closeup nikon dof bokeh pampasgrass fantasticnature d3100 devilducmike
license: 0
latitude: 43.705639
longitude: -87.764775
accuracy: 15
views: 73
interestingness: 62 out of 242

photo: 6435058539 a5540414e7 7157
owner: 66019512@N03
title: AER NEYEC CHELMSFORD ART TRAIL...2011...
originalsecret: fcd47d203a
originalformat: jpg
o_height: 1917
o_width: 2850
datetaken: 2011-09-11 09:08:21
dateupload: 1322722414
tags: london graffiti halloffame graff essex hof chelmsford neyec chelmsfordarttrail
license: 0
latitude: 51.73539
longitude: 0.467755
accuracy: 16
views: 109
interestingness: 63 out of 242

photo: 6435608223 b5c25fbe47 7024
owner: 59950710@N05
title: Fallen
originalsecret: null
originalformat: null
o_height: null
o_width: null
datetaken: 2011-12-01 17:05:07
dateupload: 1322735526
tags: flower macro nature photography bokeh flickraward mygearandme
license: 0
latitude: -6.231661
longitude: 106.920098
accuracy: 16
views: 53
interestingness: 64 out of 242

photo: 6433706843 5f815d8bb0 7175
owner: 65146752@N04
title: Chacott V Pointe Shoes
originalsecret: 8466a8848e
originalformat: jpg
o_height: 2832
o_width: 1993
datetaken: 2011-11-30 17:28:04
dateupload: 1322700677
tags: camera ballet dead shoes toe with pointe duchess
license: 0
latitude: 41.884151
longitude: -87.632408
accuracy: 11
views: 102
interestingness: 65 out of 242

photo: 6433519621 e7eb8060db 7148
owner: 12570393@N08
title: Stranger #64: Emma
originalsecret: 94d75fa846
originalformat: jpg
o_height: 2692
o_width: 3972
datetaken: 2011-11-30 14:56:14
dateupload: 1322697831
tags: 100 100strangers strangersportrait
license: 3
latitude: 51.526855
longitude: -0.121031
accuracy: 16
views: 117
interestingness: 66 out of 242

photo: 6430970731 4673776dd6 7025
owner: 47770928@N08
title: Del otro lado...
originalsecret: null
originalformat: null
o_height: null
o_width: null
datetaken: 2011-11-27 19:00:35
dateupload: 1322708398
tags: new light summer sky orange naturaleza sun color macro reflection verde green art love primavera luz nature argentina colors yellow photography luces photo google nikon flickr day foto dof photos bokeh top live colores nov30 explore amarillo reflejo contraste perspectiva jpg 365 proyect geo d?a naranja nueva day30 fot?grafo franco brillo week48 fotograf?a c?mara pring encuadre day332 day333 2011 enfoque nitidez explored nitido rostan i365 proyect365 proyecto365 d3100 nikond3100 francorostan load333
license: 0
latitude: -38.084175
longitude: -63.430938
accuracy: 11
views: 106
interestingness: 67 out of 242

photo: 6433684743 d2ac71548b 7022
owner: 49777584@N03
title: Front View of Supreme Court of Bangladesh
originalsecret: 4f8a0abc8e
originalformat: jpg
o_height: 829
o_width: 1200
datetaken: 2011-11-06 18:32:18
dateupload: 1322700361
tags: architecture facade asia bangladesh supremecourt
license: 0
latitude: 23.7098
longitude: 90.407112
accuracy: 11
views: 54
interestingness: 68 out of 242

photo: 6433571345 680fe923fa 7006
owner: 31358190@N05
title: Mistaya River Afternoon
originalsecret: a535cb269d
originalformat: jpg
o_height: 753
o_width: 1000
datetaken: 2011-08-11 12:33:57
dateupload: 1322698686
tags: river rockies canadian falls alberta mistaya keithgrajala
license: 0
latitude: 51.951512
longitude: -116.714286
accuracy: 16
views: 20
interestingness: 69 out of 242

photo: 6434013235 74f30945c4 7028
owner: 47432611@N07
title: Hotwired
originalsecret: 1f3d879f63
originalformat: jpg
o_height: 1067
o_width: 800
datetaken: 2011-11-30 11:38:37
dateupload: 1322705230
tags: hot fence outdoors wire electricfence insulators atsh fencedfriday 111in2011
license: 0
latitude: 46.888248
longitude: -122.379568
accuracy: 16
views: 45
interestingness: 70 out of 242

photo: 6434977065 1c4032a3ac 7025
owner: 26625410@N04
title: It'd Be A Whole Lot Cooler If There Wasn't A Prison Right Next To Us
originalsecret: 41b120808b
originalformat: jpg
o_height: 1536
o_width: 2048
datetaken: 2011-11-30 22:23:28
dateupload: 1322720608
tags: california 2 college me skyline for google parkinglot san boulevard magic parking touch gingerbread lot samsung s prison galaxy ii hour sprint pacifica epic bruno android magichour 4g s2 sanbruno skylineboulevard retrocamera sanbrunocalifornia pacificacalifornia skylinecollege galaxys samsunggalaxy samsunggalaxys galaxys2 samsunggalaxys2 samsunggalaxysii galaxysii pixlromatic magichourforme epic4gtouch
license: 0
latitude: 37.628087
longitude: -122.468118
accuracy: 16
views: 101
interestingness: 71 out of 242

photo: 6434953005 9722022912 7034
owner: 54399684@N04
title: 206.365 Lego-ing
originalsecret: null
originalformat: null
o_height: null
o_width: null
datetaken: 2011-11-05 18:05:24
dateupload: 1322720149
tags: me project back day you 206 follow enjoy come if after 365 script ever month bi ib on the stalling a 206365 relnofollowtwittera relnofollowtumblra legoing continueing hrefhttpregnigar94tumblrcom hrefhttpstwittercomarahazlan
license: 0
latitude: 5.150785
longitude: 100.486793
accuracy: 11
views: 16
interestingness: 72 out of 242

photo: 6434210523 86640dbbde 7172
owner: 86877667@N00
title: 1 1/2 Waterfalls
originalsecret: null
originalformat: null
o_height: null
o_width: null
datetaken: 2011-11-28 02:15:00
dateupload: 1322708088
tags: waterfall letchworthsp fullflow lowerandupperwaterlinefalls
license: 0
latitude: 42.716624
longitude: -77.918357
accuracy: 11
views: 65
interestingness: 73 out of 242

photo: 6434669903 b49a3d0128 7168
owner: 93254204@N00
title: ...Sexy For...
originalsecret: null
originalformat: null
o_height: null
o_width: null
datetaken: 2011-10-06 12:13:44
dateupload: 1322714900
tags: autumn holland fall netherlands amsterdam europe wicked nophotoshop lifeisgood carpediem unedited htc 2011 mobilephonecam amstersam reflectah amstersm amsterdamthebestcityintheworld reflectionsofamsterdam checkoutmywebsitewwwamstersamcom wickedreflections thewickedreflectah amstersmthewickedreflectah htcdesire htcdesiremobilephonecam
license: 0
latitude: 52.372887
longitude: 4.892821
accuracy: 14
views: 116
interestingness: 74 out of 242

photo: 6433881879 243a8996c4 7024
owner: 34578976@N00
title: Loon Lake B-23 Isometric
originalsecret: 9f09128d99
originalformat: jpg
o_height: 2934
o_width: 3168
datetaken: 2011-11-30 19:11:18
dateupload: 1322703287
tags: lake 3d model bomber pap loon b23 meshlab hypr3d
license: 0
latitude: 45.15877
longitude: -115.841238
accuracy: 14
views: 95
interestingness: 75 out of 242

photo: 6436186539 f10aaf8c51 7026
owner: 55426164@N00
title: Wedding Canyon, Colorado National Monument
originalsecret: 3ce2fbf8b6
originalformat: jpg
o_height: 829
o_width: 1229
datetaken: 2011-09-06 09:25:41
dateupload: 1322746888
tags: colorado parks canyons professionalphotographer nationalmonuments coloradonationalmonument westernlandscapes photoworkshops phototours phototourguide jmwnaturesimagescom audiovisualphotopresentations
license: 0
latitude: 39.102877
longitude: -108.727043
accuracy: 16
views: 46
interestingness: 76 out of 242

photo: 6435985839 4f9b0eb483 7019
owner: 43024648@N06
title: Mercy's Color
originalsecret: 35d0b0f472
originalformat: jpg
o_height: 2423
o_width: 2472
datetaken: 2011-11-30 12:21:05
dateupload: 1322743330
tags: mercy mercyme poodlepuppy standardpoodlepuppy spoopuppy mercybuckets brindledphantompoodlepuppy
license: 0
latitude: 43.541486
longitude: -71.459155
accuracy: 14
views: 25
interestingness: 77 out of 242

photo: 6434957541 9f91530330 7031
owner: 60087371@N00
title: 'Bands' of Brothers
originalsecret: null
originalformat: null
o_height: null
o_width: null
datetaken: 2011-10-30 14:49:43
dateupload: 1322720239
tags: horse asian asia southeastasia traditional malaysia borneo sabah aasia asean tamu nationalgeographic bajau kotabelud tamubesar tamubesarkotabelud afsvrzoomnikkor70300mmf4556gifed earthasia discoveryphotos ?flickraward? ?flickrtravelaward?
license: 0
latitude: 6.350125
longitude: 116.42611
accuracy: 14
views: 27
interestingness: 78 out of 242

photo: 6436312631 a6a0286568 7167
owner: 80832649@N00
title: Gravestone in St Mary's churchyard, Tamerton Foliot, Plymouth, Devon, UK
originalsecret: a445484fc1
originalformat: jpg
o_height: 1201
o_width: 840
datetaken: 2009-12-25 14:17:04
dateupload: 1322748956
tags: uk winter england mist west church window monument grass memorial south plymouth devon gravestone churchyard stmary foliot tamerton tamertonfoliot
license: 0
latitude: 50.427257
longitude: -4.153586
accuracy: 16
views: 47
interestingness: 79 out of 242

photo: 6434206967 a90a12a45c 7172
owner: 22969438@N02
title: Luminescent cup "Produced in Dunhuang"...
originalsecret: 148dafe7c9
originalformat: jpg
o_height: 1980
o_width: 2640
datetaken: 2011-10-16 10:16:14
dateupload: 1322708030
tags: china g12 bbcatour
license: 0
latitude: 39.334297
longitude: 101.030273
accuracy: 4
views: 37
interestingness: 80 out of 242

photo: 6434431291 32b00f447b 7005
owner: 24084206@N08
title: Doin' things the J way
originalsecret: f86e0d7209
originalformat: jpg
o_height: 1804
o_width: 2400
datetaken: 2007-01-01 12:52:08
dateupload: 1322711374
tags: hill crest eje 673 sd382
license: 0
latitude: 41.563882
longitude: -88.102304
accuracy: 16
views: 49
interestingness: 81 out of 242

photo: 6436166071 9d42b82fce 7149
owner: 65627999@N07
title: just a boy
originalsecret: null
originalformat: null
o_height: null
o_width: null
datetaken: 2011-11-08 15:39:23
dateupload: 1322746536
tags: boy portrait eyes colours maya selling sweetcorn
license: 0
latitude: -30.297017
longitude: 27.949218
accuracy: 2
views: 39
interestingness: 82 out of 242

photo: 6435226189 698df22a61 7015
owner: 53636170@N02
title: "I'd be unstoppable if i could just get going!"
originalsecret: null
originalformat: null
o_height: null
o_width: null
datetaken: 2011-12-01 07:56:39
dateupload: 1322726199
tags: donnanook lincolnshirewildlifetrusts
license: 0
latitude: 53.475787
longitude: 0.144538
accuracy: 11
views: 50
interestingness: 83 out of 242

photo: 6435016705 0cd2749e5e 7145
owner: 13385037@N00
title: Project365 : 335/365
originalsecret: 24848bbecf
originalformat: jpg
o_height: 3485
o_width: 5227
datetaken: 2011-12-01 13:10:43
dateupload: 1322721482
tags: old shop project quality butcher 365 clunes project365
license: 0
latitude: -37.295171
longitude: 143.786273
accuracy: 14
views: 55
interestingness: 84 out of 242

photo: 6433779665 3eee55db8f 7141
owner: 69797303@N04
title: The best years of our lives, the hope of it survives.
originalsecret: null
originalformat: null
o_height: null
o_width: null
datetaken: 2011-11-29 23:55:30
dateupload: 1322701790
tags: 
license: 0
latitude: 85.754219
longitude: 124.804687
accuracy: 1
views: 71
interestingness: 85 out of 242

photo: 6435785249 078a12159b 7002
owner: 49777584@N03
title: Serenity
originalsecret: 597fcc11c8
originalformat: jpg
o_height: 1200
o_width: 954
datetaken: 2011-11-08 20:47:46
dateupload: 1322739275
tags: festival asia buddhist prayer pray buddhism serenity kathina artinbw
license: 0
latitude: 23.7098
longitude: 90.407112
accuracy: 11
views: 30
interestingness: 86 out of 242

photo: 6433668319 288af64848 7170
owner: 65512718@N08
title: The Road Less Traveled By......
originalsecret: null
originalformat: null
o_height: null
o_width: null
datetaken: 2011-11-16 10:51:53
dateupload: 1322700126
tags: singapore botanicalgarden
license: 0
latitude: 1.365579
longitude: 103.827713
accuracy: 2
views: 11
interestingness: 87 out of 242

photo: 6435566159 b4b375e121 7021
owner: 76713680@N00
title: Dance stance
originalsecret: null
originalformat: null
o_height: null
o_width: null
datetaken: 2011-04-21 19:02:36
dateupload: 1322734451
tags: girl rehearsal streetphotography dancer hampshire southampton candids thesouthamptonpassion diskcleanupfiles harddrivehouseworkfinds
license: 0
latitude: 50.90787
longitude: -1.405177
accuracy: 16
views: 55
interestingness: 88 out of 242

photo: 6435565605 1805b8c755 7166
owner: 76713680@N00
title: Passing Angel
originalsecret: null
originalformat: null
o_height: null
o_width: null
datetaken: 2011-06-26 13:19:48
dateupload: 1322734437
tags: angel streetphotography hampshire unusual southampton candids oddity passingby thecommon springintosummer diskcleanupfiles harddrivehouseworkfinds
license: 0
latitude: 50.925977
longitude: -1.40891
accuracy: 14
views: 65
interestingness: 89 out of 242

photo: 6433968113 2a488eeccd 7028
owner: 44848889@N04
title: Crab Cove
originalsecret: a07eb35cb1
originalformat: jpg
o_height: 3496
o_width: 4165
datetaken: 2011-11-30 18:03:51
dateupload: 1322704582
tags: longexposure water canon alameda xsi crabcove
license: 0
latitude: 37.767814
longitude: -122.279334
accuracy: 14
views: 27
interestingness: 90 out of 242

photo: 6435892767 0c8b37d328 7015
owner: 46819140@N02
title: Little fighter.
originalsecret: null
originalformat: null
o_height: null
o_width: null
datetaken: 2011-12-01 04:11:30
dateupload: 1322741490
tags: 
license: 0
latitude: 46.581428
longitude: 25.05541
accuracy: 11
views: 21
interestingness: 91 out of 242

photo: 6435091545 b76cf38c3c 7153
owner: 46745754@N03
title: Time out...
originalsecret: 71fe71f273
originalformat: jpg
o_height: 3168
o_width: 3960
datetaken: 2011-11-27 15:30:47
dateupload: 1322723133
tags: december 365gratefulproject
license: 0
latitude: 51.594241
longitude: -0.383834
accuracy: 11
views: 32
interestingness: 92 out of 242

photo: 6434452559 be20b4f8f0 7174
owner: 14643312@N02
title: Rt. Hon. Paul J. Martin
originalsecret: e9c825c6fd
originalformat: jpg
o_height: 3368
o_width: 5052
datetaken: 2011-10-31 21:37:43
dateupload: 1322711679
tags: bridge boat handheld suspensionbridge laker freighter straitsofmackinac nikonf5 selfunloading kodakektar100 vacation2011upperlakes
license: 0
latitude: 45.816028
longitude: -84.725275
accuracy: 16
views: 39
interestingness: 93 out of 242

photo: 6435612697 c70c1c0b68 7153
owner: 69505063@N05
title: Louise Stephanie I : The Best of Brussels Luxury Apartments
originalsecret: null
originalformat: null
o_height: null
o_width: null
datetaken: 2011-12-01 04:33:47
dateupload: 1322735627
tags: apartments belgium rentals brusselsluxuryapartments brusselsapartmentrentals apartmentsforrentinbrusselsapartmentsrentalstobelgium
license: 0
latitude: 50.848381
longitude: 4.349679
accuracy: 11
views: 123
interestingness: 94 out of 242

photo: 6434431933 f076a4046b 7152
owner: 31864297@N02
title: 334/365 - detour
originalsecret: null
originalformat: null
o_height: null
o_width: null
datetaken: 2011-11-30 16:15:54
dateupload: 1322711382
tags: bridge sunset river wednesday wa 365 wordy snohomish snohomishriver
license: 0
latitude: 47.90892
longitude: -122.09321
accuracy: 13
views: 11
interestingness: 95 out of 242

photo: 6433979325 d9f085e79a 7005
owner: 57639431@N00
title: Along Old Almonte Road #1
originalsecret: f78398c3e8
originalformat: jpg
o_height: 1600
o_width: 2400
datetaken: 2011-11-25 13:14:20
dateupload: 1322704739
tags: topazadjust oldalmonteroad
license: 3
latitude: 45.273195
longitude: -76.033716
accuracy: 16
views: 20
interestingness: 96 out of 242

photo: 6435512915 a1024ede36 7155
owner: 22517893@N00
title: Laughing Kookaburras
originalsecret: 7e2c453b13
originalformat: jpg
o_height: 1280
o_width: 1280
datetaken: 2011-11-27 15:56:11
dateupload: 1322733112
tags: sydney australia nsw kookaburra royalnationalpark australianbirds dacelonovaeguineae laughingkookaburra dacelo 2011
license: 0
latitude: -34.082039
longitude: 151.054936
accuracy: 16
views: 18
interestingness: 97 out of 242

photo: 6435192907 0885eec8f2 7020
owner: 51896547@N07
title: Garage
originalsecret: null
originalformat: null
o_height: null
o_width: null
datetaken: 2011-11-30 10:16:20
dateupload: 1322725375
tags: light white black building fence ed denmark nikon doors zoom g garage pole telephoto if tele desaturated nikkor 70300mm danmark odense afs d90 f4556 vrii
license: 0
latitude: 55.380756
longitude: 10.414159
accuracy: 15
views: 33
interestingness: 98 out of 242

photo: 6432270265 c26c07fb49 7171
owner: 16400953@N02
title: December Calendar - Groby Pool
originalsecret: 5494f3a39d
originalformat: jpg
o_height: 901
o_width: 827
datetaken: 2011-11-30 19:28:07
dateupload: 1322724487
tags: pool paintshop december calendar leicestershire hdr photomatix groby prox2
license: 0
latitude: 52.666389
longitude: -1.229782
accuracy: 10
views: 26
interestingness: 99 out of 242

photo: 6433938405 5cb203bb0e 7150
owner: 62855149@N00
title: Made in Camden
originalsecret: e404d0c63e
originalformat: jpg
o_height: 3605
o_width: 2431
datetaken: 2011-11-26 15:37:26
dateupload: 1322704157
tags: portrait london canon hair camden streetphotography depthoffield vignette mohican camdenhighstreet 40d 1755mmf28is
license: 0
latitude: 51.539689
longitude: -0.143219
accuracy: 16
views: 32
interestingness: 100 out of 242

photo: 6433646417 5e936f03e7 7021
owner: 55691305@N08
title: flickr under 200 club!
originalsecret: 1ed134a70a
originalformat: jpg
o_height: 1503
o_width: 2406
datetaken: 2010-04-13 09:33:47
dateupload: 1322699795
tags: flowers bird flickr 200 pro account
license: 1
latitude: 27.346802
longitude: -82.548351
accuracy: 13
views: 32
interestingness: 101 out of 242

photo: 6436269333 5e580464cb 7161
owner: 21462258@N06
title: Happy Family..! :)
originalsecret: 0861697033
originalformat: jpg
o_height: 2000
o_width: 3726
datetaken: 2011-11-20 00:00:59
dateupload: 1322748303
tags: 
license: 4
latitude: 16.307279
longitude: 80.386291
accuracy: 11
views: 52
interestingness: 102 out of 242

photo: 6433963545 9942a45099 7171
owner: 44848889@N04
title: Crab Cove
originalsecret: 6f568a325e
originalformat: jpg
o_height: 2844
o_width: 4272
datetaken: 2011-11-30 18:07:05
dateupload: 1322704513
tags: longexposure blackandwhite water canon xsi
license: 0
latitude: 37.76834
longitude: -122.281115
accuracy: 15
views: 17
interestingness: 103 out of 242

photo: 6433733689 d76c0d4bab 7148
owner: 10455329@N08
title: Ladyface Mountain
originalsecret: null
originalformat: null
o_height: null
o_width: null
datetaken: 2011-11-29 17:28:55
dateupload: 1322701102
tags: reflection landscape peak cornell southerncalifornia santamonicamountains sunsetlight chumash agourahills ladyface
license: 0
latitude: 34.12511
longitude: -118.749804
accuracy: 14
views: 14
interestingness: 104 out of 242

photo: 6399444467 c9b180aab0 6217
owner: 31112982@N03
title: Leafless
originalsecret: 9a46a80be1
originalformat: jpg
o_height: 2304
o_width: 3456
datetaken: 2011-11-20 12:15:27
dateupload: 1322749261
tags: uk england tree canon cornwall unitedkingdom britain sigma falmouth canoneos350d cornish kernow pendennispoint sigmacanon ianlewisphotography
license: 0
latitude: 50.144
longitude: -5.0685
accuracy: 16
views: 27
interestingness: 105 out of 242

photo: 6435107173 d55a2eb3ae 7171
owner: 61620604@N03
title: Oh oh, I'm tellin' you, they can run the pants off a kangaroo!
originalsecret: 7655839b63
originalformat: jpg
o_height: 800
o_width: 1600
datetaken: 2011-11-30 18:18:17
dateupload: 1322723482
tags: fence nt wildlife tanamiroad wildemus
license: 0
latitude: -23.421353
longitude: 133.216094
accuracy: 11
views: 12
interestingness: 106 out of 242

photo: 6434901245 9a1b0327e2 7005
owner: 19387539@N00
title: _MG_0956
originalsecret: 7b882c7456
originalformat: jpg
o_height: 3456
o_width: 5184
datetaken: 2011-08-20 21:32:58
dateupload: 1322719131
tags: 
license: 0
latitude: 48.114952
longitude: -122.754138
accuracy: 16
views: 22
interestingness: 107 out of 242

photo: 6434733657 ae3580ca08 7149
owner: 46311820@N03
title: day 0
originalsecret: bff1a9f9a4
originalformat: jpg
o_height: 1600
o_width: 1200
datetaken: 2011-12-01 01:00:37
dateupload: 1322715975
tags: nsid
license: 0
latitude: 37.381411
longitude: -122.076373
accuracy: 14
views: 72
interestingness: 108 out of 242

photo: 6433881785 619a1d8cc5 7018
owner: 34578976@N00
title: Loon Lake B-23 Orthographic
originalsecret: 0dbf97ca1d
originalformat: jpg
o_height: 2748
o_width: 4152
datetaken: 2011-11-30 19:09:01
dateupload: 1322703286
tags: lake 3d model bomber pap loon b23 meshlab hypr3d
license: 0
latitude: 45.158861
longitude: -115.84134
accuracy: 16
views: 56
interestingness: 109 out of 242

photo: 6433541055 c420bf6f12 7008
owner: 69100344@N02
title: Horizon
originalsecret: null
originalformat: null
o_height: null
o_width: null
datetaken: 2011-08-26 20:24:25
dateupload: 1322733600
tags: sunset red sea summer orange sun france clouds tramonto nuvole mare estate granville horizon sole rosso normandy francia normandia arancione orizzonte pintujago
license: 0
latitude: 48.838661
longitude: -1.598479
accuracy: 11
views: 22
interestingness: 110 out of 242

photo: 6435318019 598ce10612 7169
owner: 66586377@N04
title: Morning Exercise
originalsecret: null
originalformat: null
o_height: null
o_width: null
datetaken: 2011-11-29 05:06:29
dateupload: 1322728302
tags: 365
license: 0
latitude: -28.097352
longitude: 153.461322
accuracy: 16
views: 19
interestingness: 111 out of 242

photo: 6435296123 08f6f2a8b6 7034
owner: 25857074@N03
title: UNHCR News Story: 16 Days of Activism: Couples in the Congo stand up to the stigma of rape
originalsecret: null
originalformat: null
o_height: null
o_width: null
datetaken: 2010-11-10 11:37:35
dateupload: 1322727768
tags: africa camp news women hiv rape greatlakes help aid health conflict congo shelter camps information firewood assistance unhcr victims trauma drc flee displacement newsstory idps idp humanitarianaid woma sexualviolence democraticrepublicofthecongo internallydisplacedpeople southkivu genderbasedviolence fdlr forceddisplacement internallydisplaced unrefugeeagency kavumu highcommissionerforrefugees forciblydisplaced violenceagainstwoman theinterahamwe hutumilitia psychosocialandmedicalassistancecentre
license: 0
latitude: -4.03479
longitude: 21.756269
accuracy: 2
views: 106
interestingness: 112 out of 242

photo: 6433961045 d7ce30fce2 7173
owner: 62068331@N00
title: Islaw the Kalabaw
originalsecret: null
originalformat: null
o_height: null
o_width: null
datetaken: 2011-10-29 14:36:57
dateupload: 1322704477
tags: stream puertogalera waterbuffalo carabao santeodoro orientalmindoro
license: 0
latitude: 13.4333
longitude: 121.0167
accuracy: 11
views: 22
interestingness: 113 out of 242

photo: 6435735255 08808d4bb9 7146
owner: 45788501@N02
title: " NO TITLE "
originalsecret: c897d27b07
originalformat: jpg
o_height: 2178
o_width: 3267
datetaken: 2011-11-08 12:51:46
dateupload: 1322738214
tags: 
license: 0
latitude: 5.815147
longitude: 102.576599
accuracy: 10
views: 10
interestingness: 114 out of 242

photo: 6433826847 7eb2e97247 7146
owner: 69827279@N04
title: 1957/8 Eden Park Ohio River Overlook
originalsecret: null
originalformat: null
o_height: null
o_width: null
datetaken: 2011-11-30 20:18:39
dateupload: 1322702477
tags: park ohio river cincinnati eden overlook
license: 0
latitude: 39.117958
longitude: -84.486107
accuracy: 14
views: 17
interestingness: 115 out of 242

photo: 6436048669 d2e01eed03 7146
owner: 68704064@N03
title: 
originalsecret: afd595d636
originalformat: jpg
o_height: 1523
o_width: 2048
datetaken: 2011-12-01 14:01:10
dateupload: 1322744470
tags: camera trip travel autumn vacation italy art nature yellow rock foglie alberi creek geotagged photography photo rocks europe italia fuji view paolo photos natura vision verona cielo finepix fujifilm simply sole incredible autunno montagna arancio hdr banks spectacle veneto fujfilm bassoli s3200
license: 0
latitude: 45.538159
longitude: 11.012034
accuracy: 16
views: 37
interestingness: 116 out of 242

photo: 6393059251 f4fc084be2 7023
owner: 49117585@N05
title: :-(     :-()
originalsecret: null
originalformat: null
o_height: null
o_width: null
datetaken: 2011-08-14 17:06:05
dateupload: 1322730180
tags: nikon belgium joan belgica d90
license: 0
latitude: 51.20848
longitude: 3.224509
accuracy: 11
views: 38
interestingness: 117 out of 242

photo: 6434669291 c00c23aedb 7020
owner: 93254204@N00
title: ...My Job
originalsecret: null
originalformat: null
o_height: null
o_width: null
datetaken: 2011-11-30 14:07:47
dateupload: 1322714892
tags: autumn holland fall netherlands amsterdam europe wicked nophotoshop lifeisgood android app carpediem htc 2011 mobilephonecam amstersam reflectah amstersm amsterdamthebestcityintheworld reflectionsofamsterdam checkoutmywebsitewwwamstersamcom wickedreflections thewickedreflectah amstersmthewickedreflectah htcdesire camera360 htcdesiremobilephonecam
license: 0
latitude: 52.372887
longitude: 4.892821
accuracy: 14
views: 96
interestingness: 118 out of 242

photo: 6435751657 265c3da740 7150
owner: 24318329@N08
title: 335/i365 - The ghost of video past
originalsecret: null
originalformat: null
o_height: null
o_width: null
datetaken: 2011-12-01 09:32:38
dateupload: 1322738554
tags: london video sony minidv dv vx1000 i365 xube
license: 0
latitude: 51.572667
longitude: 0.065333
accuracy: 16
views: 18
interestingness: 119 out of 242

photo: 6433869501 da18a84034 7158
owner: 25728552@N00
title: Gospel Rock
originalsecret: 57d374956c
originalformat: jpg
o_height: 1920
o_width: 2569
datetaken: 2011-11-30 13:08:54
dateupload: 1322703115
tags: beauty scenery gibsons howesound gospelrock
license: 2
latitude: 49.387833
longitude: -123.514666
accuracy: 16
views: 33
interestingness: 120 out of 242

photo: 6433965355 577704aaa9 7006
owner: 44848889@N04
title: Crab Cove, Alameda California
originalsecret: cd24f6aea5
originalformat: jpg
o_height: 3507
o_width: 4035
datetaken: 2011-11-30 18:10:00
dateupload: 1322704541
tags: longexposure water canon filter xsi nd8
license: 0
latitude: 37.768543
longitude: -122.280964
accuracy: 14
views: 21
interestingness: 121 out of 242

photo: 6429918573 eb56d588f6 7149
owner: 56546681@N00
title: Hoop Hoop Hooray
originalsecret: 5d6a2dbcac
originalformat: jpg
o_height: 1821
o_width: 3188
datetaken: 2011-11-20 15:19:05
dateupload: 1322738590
tags: bird spain lanzarote canarias canaries canaryislands upupaepops hoopoe islascanarias bricheno
license: 0
latitude: 29.001853
longitude: -13.482563
accuracy: 15
views: 10
interestingness: 122 out of 242

photo: 6435566013 9fab46db02 7145
owner: 76713680@N00
title: Snooze
originalsecret: null
originalformat: null
o_height: null
o_width: null
datetaken: 2011-06-26 12:21:11
dateupload: 1322734447
tags: festival streetphotography hampshire kip snooze southampton candids roadie diskcleanupfiles harddrivehouseworkfinds
license: 0
latitude: 50.926558
longitude: -1.409425
accuracy: 14
views: 18
interestingness: 123 out of 242

photo: 6434932611 9c959d8329 7032
owner: 66370214@N02
title: - ?milie Livernois-Desroches -
originalsecret: null
originalformat: null
o_height: null
o_width: null
datetaken: 2011-11-30 17:32:16
dateupload: 1322719754
tags: portrait canada montr?al pentax femme sigma qu?bec musique gdl violon musicienne violoniste pentaxk5 lionelducreau graveurdelumi?re
license: 0
latitude: 45.563079
longitude: -73.589655
accuracy: 16
views: 156
interestingness: 124 out of 242

photo: 6434873061 be2c732978 7170
owner: 90686988@N00
title: Occupy Calgary Ice Tents
originalsecret: 8dd39aa664
originalformat: jpg
o_height: 3264
o_width: 4928
datetaken: 2011-11-29 15:22:18
dateupload: 1322718571
tags: november autumn canada calgary fall ice tents alberta ??? 11? 2011 ?? ??? ????? occupy shimotsuki ?????? frostmonth j?ichigatsu ??23?
license: 0
latitude: 51.045825
longitude: -114.058685
accuracy: 16
views: 32
interestingness: 125 out of 242

photo: 6434742487 a15615806b 7156
owner: 75698896@N00
title: Logan Square library bike parking
originalsecret: 101b21bd13
originalformat: jpg
o_height: 2175
o_width: 2900
datetaken: 2011-11-29 15:36:35
dateupload: 1322716144
tags: bicycling entrance bikerack cpl chicagopubliclibrary bikeparking entracen fullertonavenue 50feetrule
license: 1
latitude: 41.924968
longitude: -87.703697
accuracy: 16
views: 44
interestingness: 126 out of 242

photo: 6433969615 79651f2756 7172
owner: 7818331@N02
title: Merlin-Barnegat Light-11/28/2011
originalsecret: 09ac6a8316
originalformat: jpg
o_height: 954
o_width: 843
datetaken: 2011-11-28 16:06:20
dateupload: 1322704602
tags: autumn bird beach birds raptor falcon barnegatlight newjerseybirds lifebird
license: 0
latitude: 39.757673
longitude: -74.096281
accuracy: 15
views: 29
interestingness: 127 out of 242

photo: 6435485721 a4861ee983 7013
owner: 94941181@N00
title: Zorki 2-S
originalsecret: 011a9709be
originalformat: jpg
o_height: 634
o_width: 800
datetaken: 2011-11-27 16:06:37
dateupload: 1322732432
tags: zorki2s
license: 0
latitude: 39.932923
longitude: 32.834658
accuracy: 15
views: 59
interestingness: 128 out of 242

photo: 6434825079 8debf415e5 7152
owner: 53874803@N02
title: Hallway at top of stairs -- Hotel Meade
originalsecret: 4436a79a67
originalformat: jpg
o_height: 1024
o_width: 683
datetaken: 2006-08-27 08:40:22
dateupload: 1322717655
tags: bannackmontana
license: 0
latitude: 45.167379
longitude: -113.008203
accuracy: 14
views: 17
interestingness: 129 out of 242

photo: 6435086869 6b8ba9bdec 7017
owner: 61620604@N03
title: Part of a flock of Red-tail Black Cockatoos in flight
originalsecret: a2c986a219
originalformat: jpg
o_height: 900
o_width: 1200
datetaken: 2011-11-30 18:54:17
dateupload: 1322723028
tags: northernterritory tanamiroad redtailblackcockatoos hamburgercreek
license: 0
latitude: -23.429858
longitude: 133.233261
accuracy: 11
views: 6
interestingness: 130 out of 242

photo: 6434533899 ed6900224c 7032
owner: 27746350@N00
title: Mall
originalsecret: null
originalformat: null
o_height: null
o_width: null
datetaken: 2011-11-27 19:16:16
dateupload: 1322712883
tags: usa signs man nebraska unitedstatesofamerica ne omaha oma oldmarket omahaflickr afsdxzoomnikkor18135mmf3556gifed
license: 0
latitude: 41.254318
longitude: -95.935127
accuracy: 13
views: 13
interestingness: 131 out of 242

photo: 6434399205 1d116cfb35 7005
owner: 10260632@N08
title: deadleaf-0215
originalsecret: null
originalformat: null
o_height: null
o_width: null
datetaken: 2011-11-26 15:16:02
dateupload: 1322710918
tags: detail germantown nature spider woods nikon bokeh maryland nikkor 50mmf18d deadleaf d5000
license: 0
latitude: 39.188227
longitude: -77.295684
accuracy: 11
views: 15
interestingness: 132 out of 242

photo: 6434276531 3a7e59ac3c 7032
owner: 65649214@N06
title: Santo Ant?nio's Chapel - Castro Marim
originalsecret: null
originalformat: null
o_height: null
o_width: null
datetaken: 2011-11-30 23:25:00
dateupload: 1322709114
tags: lighting portugal night nikon chapel castro algarve antonio 8mm santo capela marim samyang d7000
license: 0
latitude: 37.215787
longitude: -7.43931
accuracy: 14
views: 31
interestingness: 133 out of 242

photo: 6433688575 90c2469b84 7016
owner: 25218275@N07
title: 334: Quiz Night
originalsecret: null
originalformat: null
o_height: null
o_width: null
datetaken: 2011-11-30 22:39:19
dateupload: 1322700414
tags: beer glass pint quiz tuborg wetherspoons 3652011
license: 0
latitude: 53.419808
longitude: -3.047192
accuracy: 16
views: 14
interestingness: 134 out of 242

photo: 6435052673 49dfdc885b 7030
owner: 66370214@N02
title: - Julie Plouffe -
originalsecret: null
originalformat: null
o_height: null
o_width: null
datetaken: 2011-11-23 14:32:55
dateupload: 1322722289
tags: portrait canada studio montr?al femme qu?bec gdl troph?e lionelducreau graveurdelumi?re
license: 0
latitude: 45.563053
longitude: -73.589655
accuracy: 16
views: 86
interestingness: 135 out of 242

photo: 6433749683 a5415cf907 7024
owner: 72098626@N00
title: Central Park Dance Skaters, Oct 2011 - 17
originalsecret: 6ca27a978d
originalformat: jpg
o_height: 3957
o_width: 2639
datetaken: 2011-10-23 15:28:04
dateupload: 1322701338
tags: newyork bottle dancers centralpark manhattan skate centralparkdanceskaters danceskaters
license: 1
latitude: 40.773277
longitude: -73.971356
accuracy: 16
views: 27
interestingness: 136 out of 242

photo: 6433632907 fc98559674 7168
owner: 7477245@N05
title: An?ncio Cigarros 116
originalsecret: de649d36d2
originalformat: jpg
o_height: 533
o_width: 407
datetaken: 2011-11-30 22:33:15
dateupload: 1322699595
tags: vintage ads advertising marketing moda modelos lingerie carros backgrounds autom?veis utilidades cigarros colorido an?ncios cal?ados propagandas vendas sele??es advertisings promo??es anunciantes modismo eletrodom?sticos reclames revistaplayboy anos1950 anos1980 anos1960 anos1940 fundosparatwitter anos1970 propagandasderevistas agenciasdepropagandas propagandasdassele??es propagandasdeguerra propagandasderevistasantigas propagandasantigasdeautom?veis propagandasantigasdecigarros
license: 4
latitude: -22.913653
longitude: -43.242874
accuracy: 11
views: 14
interestingness: 137 out of 242

photo: 6435875903 d3696bd217 7148
owner: 30923607@N07
title: Jo Clifford
originalsecret: 0a01489754
originalformat: jpg
o_height: 700
o_width: 700
datetaken: 2011-11-26 18:59:19
dateupload: 1322741141
tags: joclifford thebakehousegatehouseoffleet
license: 0
latitude: 54.882494
longitude: -4.182518
accuracy: 15
views: 4
interestingness: 138 out of 242

photo: 6435086827 b559ffd91f 7018
owner: 14599003@N06
title: 2011  If I may, just a little sniff.
originalsecret: 1ac61a409a
originalformat: jpg
o_height: 1897
o_width: 2529
datetaken: 2011-06-07 11:47:10
dateupload: 1322723027
tags: bear polarbear churchill sparring capechurchill savethepolarbear
license: 0
latitude: 58.714398
longitude: -93.289031
accuracy: 9
views: 24
interestingness: 139 out of 242

photo: 6434962757 b08511d60b 7154
owner: 30446790@N07
title: Ke'e Beach Stroll
originalsecret: null
originalformat: null
o_height: null
o_width: null
datetaken: 2011-11-30 20:16:56
dateupload: 1322720341
tags: ocean beach water grey hawaii coast sand waves gloomy pacific walk north lagoon cliffs shore promenade kauai layers pali stroll napali kee
license: 0
latitude: 22.222186
longitude: -159.582638
accuracy: 16
views: 97
interestingness: 140 out of 242

photo: 6433848537 f167dee2c2 7143
owner: 27746350@N00
title: Photographers
originalsecret: null
originalformat: null
o_height: null
o_width: null
datetaken: 2011-11-27 19:51:41
dateupload: 1322702797
tags: usa corner nebraska unitedstatesofamerica photographers ne omaha intersection oma oldmarket omahaflickr afsdxzoomnikkor18135mmf3556gifed
license: 0
latitude: 41.255597
longitude: -95.930728
accuracy: 14
views: 13
interestingness: 141 out of 242

photo: 6433846475 189dda9b0b 7016
owner: 27746350@N00
title: Walk
originalsecret: null
originalformat: null
o_height: null
o_width: null
datetaken: 2011-11-27 19:29:54
dateupload: 1322702768
tags: usa white signs man nebraska walk unitedstatesofamerica ne omaha oma oldmarket omahaflickr afsdxzoomnikkor18135mmf3556gifed
license: 0
latitude: 41.255597
longitude: -95.930728
accuracy: 14
views: 11
interestingness: 142 out of 242

photo: 6435493867 2dc56ff299 7157
owner: 9497241@N08
title: Dodge_Challenger_SRT
originalsecret: null
originalformat: null
o_height: null
o_width: null
datetaken: 2011-11-28 11:42:20
dateupload: 1322732623
tags: 
license: 0
latitude: 34.053489
longitude: -118.245323
accuracy: 11
views: 23
interestingness: 143 out of 242

photo: 6435485459 45f0d2be27 7022
owner: 94941181@N00
title: Zorki 2-S
originalsecret: 1d1a2aa852
originalformat: jpg
o_height: 664
o_width: 800
datetaken: 2011-11-27 16:06:12
dateupload: 1322732546
tags: zorki2s
license: 0
latitude: 39.932923
longitude: 32.834658
accuracy: 15
views: 60
interestingness: 144 out of 242

photo: 6435460003 37e250bb6e 7147
owner: 9497241@N08
title: Dodge Challenger SRT
originalsecret: null
originalformat: null
o_height: null
o_width: null
datetaken: 2011-11-28 11:43:35
dateupload: 1322731789
tags: 
license: 0
latitude: 34.053489
longitude: -118.245323
accuracy: 11
views: 15
interestingness: 145 out of 242

photo: 6436045161 aed2febc01 7005
owner: 51390268@N04
title: ??? ???? Chiyoda-ku, Tokyo
originalsecret: 0aa377f63c
originalformat: jpg
o_height: 448
o_width: 640
datetaken: 2011-05-11 17:47:13
dateupload: 1322744406
tags: color japan canon tokyo ?? fullframe tamron chiyodaku ???? canoneos5d digitalphotoprofessional 201105blog tamronaf28200mmsuperzoomf3856asphericalxrifmacroa03
license: 0
latitude: 35.695408
longitude: 139.760191
accuracy: 15
views: 2
interestingness: 146 out of 242

photo: 6436045077 29b9596042 7151
owner: 51390268@N04
title: ??? ? Chiyoda-ku, Tokyo
originalsecret: aa07ea9c63
originalformat: jpg
o_height: 448
o_width: 640
datetaken: 2011-05-11 17:44:50
dateupload: 1322744404
tags: color japan canon tokyo ?? fullframe tamron chiyodaku ???? canoneos5d digitalphotoprofessional 201105blog tamronaf28200mmsuperzoomf3856asphericalxrifmacroa03
license: 0
latitude: 35.695408
longitude: 139.760191
accuracy: 15
views: 4
interestingness: 147 out of 242

photo: 6434871397 debd82e9db 7021
owner: 90686988@N00
title: Unlit Tree
originalsecret: a0d2eb6e6e
originalformat: jpg
o_height: 4928
o_width: 3264
datetaken: 2011-11-29 15:20:15
dateupload: 1322718538
tags: november autumn canada tree calgary fall alberta ??? unlit 11? 2011 ?? ??? ????? shimotsuki ?????? frostmonth j?ichigatsu ??23?
license: 0
latitude: 51.0457
longitude: -114.057859
accuracy: 16
views: 27
interestingness: 148 out of 242

photo: 6433851261 a1e20f11bf 7151
owner: 27746350@N00
title: Pedestrian bridge
originalsecret: null
originalformat: null
o_height: null
o_width: null
datetaken: 2011-11-27 20:17:56
dateupload: 1322702838
tags: bridge usa lights nebraska unitedstatesofamerica ne omaha oma oldmarket pedestrianbridge omahaflickr afsdxzoomnikkor18135mmf3556gifed
license: 0
latitude: 41.255597
longitude: -95.930728
accuracy: 14
views: 13
interestingness: 149 out of 242

photo: 6433633369 3d6b5e60fb 7016
owner: 7477245@N05
title: An?ncio Cigarros 118
originalsecret: 4c21edf052
originalformat: jpg
o_height: 533
o_width: 407
datetaken: 2011-11-30 22:33:20
dateupload: 1322699600
tags: vintage ads advertising marketing moda modelos lingerie carros backgrounds autom?veis utilidades cigarros colorido an?ncios cal?ados propagandas vendas sele??es advertisings promo??es anunciantes modismo eletrodom?sticos reclames revistaplayboy anos1950 anos1980 anos1960 anos1940 fundosparatwitter anos1970 propagandasderevistas agenciasdepropagandas propagandasdassele??es propagandasdeguerra propagandasderevistasantigas propagandasantigasdeautom?veis propagandasantigasdecigarros
license: 4
latitude: -22.913653
longitude: -43.242874
accuracy: 11
views: 37
interestingness: 150 out of 242

photo: 6433632679 b7b066a97a 7144
owner: 7477245@N05
title: An?ncio Cigarros 115
originalsecret: d866410a26
originalformat: jpg
o_height: 533
o_width: 407
datetaken: 2011-11-30 22:33:12
dateupload: 1322699592
tags: vintage ads advertising marketing moda modelos lingerie carros backgrounds autom?veis utilidades cigarros colorido an?ncios cal?ados propagandas vendas sele??es advertisings promo??es anunciantes modismo eletrodom?sticos reclames revistaplayboy anos1950 anos1980 anos1960 anos1940 fundosparatwitter anos1970 propagandasderevistas agenciasdepropagandas propagandasdassele??es propagandasdeguerra propagandasderevistasantigas propagandasantigasdeautom?veis propagandasantigasdecigarros
license: 4
latitude: -22.913653
longitude: -43.242874
accuracy: 11
views: 12
interestingness: 151 out of 242

photo: 6436353341 9044ac47cf 7172
owner: 26003429@N00
title: Nahm-Jim
originalsecret: 49bd0380ca
originalformat: jpg
o_height: 531
o_width: 800
datetaken: 2011-11-22 21:03:59
dateupload: 1322749546
tags: uk food cuisine restaurant scotland town rice fife jasmine traditional scottish style jim historic haggis thai standrews spicy omelette nahm nahmjim
license: 0
latitude: 56.340389
longitude: -2.794625
accuracy: 16
views: 13
interestingness: 152 out of 242

photo: 6436259757 0d361a1201 7144
owner: 40936370@N00
title: Kakemono Andr? Malraux et son Mus?e Imaginaire
originalsecret: 793ae3fdc1
originalformat: jpg
o_height: 802
o_width: 1023
datetaken: 2011-12-01 15:02:28
dateupload: 1322748148
tags: portrait sculpture streetart france art mystery museum architecture painting graffiti ruins rawart outsiderart chaos symbol roman contemporaryart flag secret 911 apocalypse taz peinture container novel writer artbrut affichage ddc sanctuary panneau cyberpunk landart alchemy drapeau modernsculpture prophecy 999 vanitas revelation sanctuaire ?crivain dadaisme andr?malraux artprice salamanderspirit organmuseum saintromainaumontdor demeureduchaos thierryehrmann alchimie mus?edartcontemporain artsingulier lespoir kakemono laconditionhumaine proph?tie abodeofchaos facteurcheval palaisideal postapocalyptique maisondartiste artistshouses lemus?eimaginaire sculpturemoderne groupeserveur lespritdelasalamandre lesvoixdusilence servergroup lavoieroyale
license: 4
latitude: 45.837448
longitude: 4.826248
accuracy: 15
views: 86
interestingness: 153 out of 242

photo: 6436148617 381f07042c 7169
owner: 94513428@N00
title: If Only Signs Could Solve The Problem
originalsecret: null
originalformat: null
o_height: null
o_width: null
datetaken: 2011-10-01 18:30:25
dateupload: 1322746225
tags: ocean seascape sign collage garbage indianocean picasa australia litter plastic rubbish fremantle freo westernaustralia innerharbour philscamera fremantleharbour plasticbottle northfremantle marinepollution northmole cleanmarine portoffremantle youcanbefinedforlittering whoissupposedtobeenforcingthis litterhurtswildlife
license: 0
latitude: -32.053817
longitude: 115.724567
accuracy: 16
views: 3
interestingness: 154 out of 242

photo: 6436045023 046161a3a6 7166
owner: 51390268@N04
title: ??? ???? Chiyoda-ku, Tokyo
originalsecret: 5c2854b4bc
originalformat: jpg
o_height: 448
o_width: 640
datetaken: 2011-05-11 17:30:11
dateupload: 1322744403
tags: color japan canon tokyo ?? fullframe tamron chiyodaku ???? canoneos5d digitalphotoprofessional 201105blog tamronaf28200mmsuperzoomf3856asphericalxrifmacroa03 ???? walkandrun
license: 0
latitude: 35.695408
longitude: 139.760191
accuracy: 15
views: 2
interestingness: 155 out of 242

photo: 6436044933 f95f23c480 7025
owner: 51390268@N04
title: ??? ??????????? Chiyoda-ku, Tokyo
originalsecret: e4341e67f9
originalformat: jpg
o_height: 448
o_width: 640
datetaken: 2011-05-11 17:27:39
dateupload: 1322744402
tags: color japan umbrella canon tokyo parasol ?? fullframe tamron chiyodaku ? ???? canoneos5d digitalphotoprofessional 201105blog tamronaf28200mmsuperzoomf3856asphericalxrifmacroa03 ???? walkandrun
license: 0
latitude: 35.695408
longitude: 139.760191
accuracy: 15
views: 6
interestingness: 156 out of 242

photo: 6436044835 c85868b0fd 7015
owner: 51390268@N04
title: ??? ??? Chiyoda-ku, Tokyo
originalsecret: 99f44bf487
originalformat: jpg
o_height: 448
o_width: 640
datetaken: 2011-05-11 17:16:52
dateupload: 1322744400
tags: color bicycle japan canon tokyo ?? fullframe tamron chiyodaku ??? ???? canoneos5d digitalphotoprofessional 201105blog tamronaf28200mmsuperzoomf3856asphericalxrifmacroa03
license: 0
latitude: 35.695408
longitude: 139.760191
accuracy: 15
views: 0
interestingness: 157 out of 242

photo: 6436044699 f25dec08fc 7148
owner: 51390268@N04
title: ??? ??????????? Chiyoda-ku, Tokyo
originalsecret: 04035c575e
originalformat: jpg
o_height: 640
o_width: 448
datetaken: 2011-05-11 17:15:42
dateupload: 1322744398
tags: color japan umbrella canon tokyo parasol ?? fullframe tamron chiyodaku ? ???? canoneos5d digitalphotoprofessional 201105blog tamronaf28200mmsuperzoomf3856asphericalxrifmacroa03 ???? walkandrun
license: 0
latitude: 35.695408
longitude: 139.760191
accuracy: 15
views: 0
interestingness: 158 out of 242

photo: 6436044639 dbf5280ff6 7172
owner: 51390268@N04
title: ??? ???? Chiyoda-ku, Tokyo
originalsecret: 86dffe387a
originalformat: jpg
o_height: 448
o_width: 640
datetaken: 2011-05-11 17:11:02
dateupload: 1322744396
tags: color sign japan canon tokyo ?? fullframe tamron chiyodaku ???? canoneos5d digitalphotoprofessional 201105blog tamronaf28200mmsuperzoomf3856asphericalxrifmacroa03 ??????
license: 0
latitude: 35.695408
longitude: 139.760191
accuracy: 15
views: 2
interestingness: 159 out of 242

photo: 6436044565 b92f55352c 7012
owner: 51390268@N04
title: ??? ??? Chiyoda-ku, Tokyo
originalsecret: d9ac6da372
originalformat: jpg
o_height: 640
o_width: 448
datetaken: 2011-05-11 17:09:54
dateupload: 1322744395
tags: color japan canon tokyo ?? fullframe tamron chiyodaku ???? canoneos5d ?? digitalphotoprofessional 201105blog tamronaf28200mmsuperzoomf3856asphericalxrifmacroa03 garbageandtrash
license: 0
latitude: 35.695408
longitude: 139.760191
accuracy: 15
views: 2
interestingness: 160 out of 242

photo: 6436044481 0a141016e5 7033
owner: 51390268@N04
title: ??? ????? Chiyoda-ku, Tokyo
originalsecret: b84745e109
originalformat: jpg
o_height: 640
o_width: 448
datetaken: 2011-05-11 13:32:46
dateupload: 1322744394
tags: color japan canon tokyo motorcycle ?? fullframe tamron chiyodaku ???? canoneos5d digitalphotoprofessional ???? 201105blog tamronaf28200mmsuperzoomf3856asphericalxrifmacroa03
license: 0
latitude: 35.695408
longitude: 139.760191
accuracy: 15
views: 2
interestingness: 161 out of 242

photo: 6436037215 412c4e0b4a 7012
owner: 68704064@N03
title: Tramono
originalsecret: 8e462a6efd
originalformat: jpg
o_height: 3216
o_width: 4288
datetaken: 2011-11-28 15:56:11
dateupload: 1322744259
tags: camera travel autumn sunset sky italy panorama sun landscape geotagged photography photo europe italia nuvole fuji view paolo photos natura panoramic vision verona cielo finepix fujifilm simply sole incredible autunno rosso arancio prospect paesaggio spectacle veneto legnago fujfilm bassoli s3200
license: 0
latitude: 45.151537
longitude: 11.272745
accuracy: 13
views: 9
interestingness: 162 out of 242

photo: 6436018147 1c18dfac83 7159
owner: 51390268@N04
title: ?? ??? Shinjuku-ku, Tokyo
originalsecret: e839658478
originalformat: jpg
o_height: 448
o_width: 640
datetaken: 2011-05-12 03:19:22
dateupload: 1322743920
tags: color bicycle japan canon tokyo ?? tamron ??? ??? shinjukuku canoneos1n efiniti efinitiuxisuper200 201105blog 35mmformatfilm tamronaf28105mmf456asphericalif179d
license: 0
latitude: 35.689966
longitude: 139.696934
accuracy: 16
views: 0
interestingness: 163 out of 242

photo: 6436017989 6aaccd197b 7023
owner: 51390268@N04
title: ??? ? Fuchu-si, Tokyo
originalsecret: a0b294b297
originalformat: jpg
o_height: 448
o_width: 640
datetaken: 2011-05-12 03:18:41
dateupload: 1322743918
tags: color window japan canon tokyo ?? tamron ? ??? canoneos1n efiniti efinitiuxisuper200 201105blog 35mmformatfilm tamronaf28105mmf456asphericalif179d fuchusi
license: 0
latitude: 35.660809
longitude: 139.456619
accuracy: 16
views: 0
interestingness: 164 out of 242

photo: 6436017869 e033d79512 7174
owner: 51390268@N04
title: ??? ???? Fuchu-si, Tokyo
originalsecret: e4b553ef8d
originalformat: jpg
o_height: 448
o_width: 640
datetaken: 2011-05-12 03:20:19
dateupload: 1322743916
tags: color japan canon tokyo ?? tamron ??? ?? canoneos1n efiniti efinitiuxisuper200 201105blog 35mmformatfilm tamronaf28105mmf456asphericalif179d fuchusi garbageandtrash
license: 0
latitude: 35.660809
longitude: 139.456619
accuracy: 16
views: 1
interestingness: 165 out of 242

photo: 6435984431 15404e9cae 7019
owner: 43024648@N06
title: Phantom/Brindle Markings
originalsecret: 40fee53c41
originalformat: jpg
o_height: 2396
o_width: 2182
datetaken: 2011-11-30 12:23:26
dateupload: 1322743304
tags: mercy mercyme poodlepuppy standardpoodlepuppy spoopuppy mercybuckets brindledphantompoodlepuppy
license: 0
latitude: 43.542622
longitude: -71.459283
accuracy: 14
views: 5
interestingness: 166 out of 242

photo: 6435835113 9478c67def 7033
owner: 69233611@N05
title: SanFran03
originalsecret: null
originalformat: null
o_height: null
o_width: null
datetaken: 2008-11-07 21:13:05
dateupload: 1322740296
tags: sanfrancisco california yellowcab tram westcoast urbanscenes uscities leonreilly columbussanfrancisco leonreillyphotography
license: 0
latitude: 37.804241
longitude: -122.44091
accuracy: 10
views: 13
interestingness: 167 out of 242

photo: 6435526209 57615a6139 7170
owner: 65509306@N03
title: Day 107: "Decline of the West" by Conor Harrington
originalsecret: null
originalformat: null
o_height: null
o_width: null
datetaken: 2011-12-01 09:57:15
dateupload: 1322733435
tags: streetart square mural squareformat brannan e1 manonhorse declineofthewest postgrafitti conorharrington shoreditchart iphoneography instagramapp uploaded:by=instagram fashionstreetgrafitti
license: 0
latitude: 51.518397
longitude: -0.073871
accuracy: 15
views: 36
interestingness: 168 out of 242

photo: 6435482863 f768e927f3 7174
owner: 34525698@N00
title: CHRISTMAS TREE SHOPPING
originalsecret: null
originalformat: null
o_height: null
o_width: null
datetaken: 2011-11-30 12:52:46
dateupload: 1322732361
tags: christmas xmas trees green sign shopping nc farmersmarket northcarolina raleigh boutiques 0370 20111130
license: 0
latitude: 35.762976
longitude: -78.66198
accuracy: 15
views: 15
interestingness: 169 out of 242

photo: 6435272041 24982e76cd 7159
owner: 53108627@N07
title: Acclamation Day...
originalsecret: null
originalformat: null
o_height: null
o_width: null
datetaken: 2011-12-01 08:14:05
dateupload: 1322727245
tags: portugal europa europe lisboa lisbon europeanunion thirtyyearswar internationalmonetaryfund 2011 europeancentralbank 1640 europeanpeoplesparty acclamationday diadarestaura??o acclamationwar
license: 0
latitude: 38.719804
longitude: -9.151611
accuracy: 7
views: 24
interestingness: 170 out of 242

photo: 6435169617 f3f82f7b57 7147
owner: 60162443@N00
title: Montreal Clock Tower
originalsecret: 673c035403
originalformat: jpg
o_height: 5860
o_width: 5742
datetaken: 2011-11-22 12:37:48
dateupload: 1322724833
tags: travel montreal 120film mf rodinal oldport acros filmphotography fujiacros100 fujifilmneopanacros100 standdeveloping quaisduvieuxport browniehawkeyeflashmediumformat
license: 2
latitude: 45.511948
longitude: -73.545806
accuracy: 16
views: 10
interestingness: 171 out of 242

photo: 6435146867 de77030eba 7019
owner: 60162443@N00
title: Montreal Nelson's Column
originalsecret: ceda62896e
originalformat: jpg
o_height: 5771
o_width: 5689
datetaken: 2011-11-15 11:37:17
dateupload: 1322724345
tags: travel montreal 120film mf rodinal oldport acros filmphotography fujiacros100 fujifilmneopanacros100 standdeveloping quaisduvieuxport browniehawkeyeflashmediumformat
license: 2
latitude: 45.508437
longitude: -73.554486
accuracy: 16
views: 2
interestingness: 172 out of 242

photo: 6435093041 c8246f7864 7142
owner: 96142515@N00
title: Selling Onions
originalsecret: null
originalformat: null
o_height: null
o_width: null
datetaken: 2011-04-10 11:30:11
dateupload: 1322723164
tags: africa street commerce poor onions uganda agriculture sellers vendors kisoro kagoma adamcohn wwwadamcohncom
license: 0
latitude: -1.27537
longitude: 29.772841
accuracy: 16
views: 24
interestingness: 173 out of 242

photo: 6435087867 117fb72636 7022
owner: 96142515@N00
title: Onion Sales
originalsecret: null
originalformat: null
o_height: null
o_width: null
datetaken: 2011-04-10 11:29:08
dateupload: 1322723050
tags: africa street commerce poor onions uganda agriculture sellers vendors kisoro kagoma adamcohn wwwadamcohncom
license: 0
latitude: -1.27537
longitude: 29.772841
accuracy: 16
views: 11
interestingness: 174 out of 242

photo: 6434402237 4a8cebe3ac 7035
owner: 10260632@N08
title: moss-0116
originalsecret: null
originalformat: null
o_height: null
o_width: null
datetaken: 2011-11-26 14:22:31
dateupload: 1322710955
tags: germantown nature forest moss nikon maryland lichen nikkor 50mmf18d d5000
license: 0
latitude: 39.188094
longitude: -77.294998
accuracy: 11
views: 12
interestingness: 175 out of 242

photo: 6434271877 88dcff1b00 7173
owner: 27746350@N00
title: Tasty, tasty betta
originalsecret: null
originalformat: null
o_height: null
o_width: null
datetaken: 2011-11-26 20:58:24
dateupload: 1322709044
tags: wedding usa fish water nebraska drink unitedstatesofamerica ne lincoln betta lnk afsdxzoomnikkor18135mmf3556gifed
license: 0
latitude: 40.845465
longitude: -96.67061
accuracy: 16
views: 25
interestingness: 176 out of 242

photo: 6434270413 5ae4be110e 7033
owner: 27746350@N00
title: Nom
originalsecret: null
originalformat: null
o_height: null
o_width: null
datetaken: 2011-11-26 20:22:21
dateupload: 1322709020
tags: wedding usa face cake groom bride nebraska unitedstatesofamerica ne lincoln lnk afsdxzoomnikkor18135mmf3556gifed
license: 0
latitude: 40.845465
longitude: -96.67061
accuracy: 16
views: 28
interestingness: 177 out of 242

photo: 6434269425 9daa0e543b 7002
owner: 27746350@N00
title: Cake
originalsecret: null
originalformat: null
o_height: null
o_width: null
datetaken: 2011-11-26 20:22:10
dateupload: 1322709005
tags: wedding usa cake groom bride nebraska unitedstatesofamerica ne lincoln lnk afsdxzoomnikkor18135mmf3556gifed
license: 0
latitude: 40.845465
longitude: -96.67061
accuracy: 16
views: 15
interestingness: 178 out of 242

photo: 6434266811 ae091f1729 7023
owner: 27746350@N00
title: Bridesmaids
originalsecret: null
originalformat: null
o_height: null
o_width: null
datetaken: 2011-11-26 20:14:04
dateupload: 1322708967
tags: wedding usa nebraska unitedstatesofamerica ne bridesmaids lincoln lnk afsdxzoomnikkor18135mmf3556gifed
license: 0
latitude: 40.845465
longitude: -96.67061
accuracy: 16
views: 13
interestingness: 179 out of 242

photo: 6434265167 e8855f9b6f 7002
owner: 27746350@N00
title: Stylin'
originalsecret: null
originalformat: null
o_height: null
o_width: null
datetaken: 2011-11-26 19:54:04
dateupload: 1322708942
tags: wedding usa groom bride nebraska unitedstatesofamerica ne lincoln lnk afsdxzoomnikkor18135mmf3556gifed
license: 0
latitude: 40.845465
longitude: -96.67061
accuracy: 16
views: 12
interestingness: 180 out of 242

photo: 6434262477 37236b307d 7148
owner: 27746350@N00
title: Food
originalsecret: null
originalformat: null
o_height: null
o_width: null
datetaken: 2011-11-26 19:52:43
dateupload: 1322708903
tags: wedding usa bride nebraska unitedstatesofamerica ne bridesmaids lincoln lnk afsdxzoomnikkor18135mmf3556gifed
license: 0
latitude: 40.845465
longitude: -96.67061
accuracy: 16
views: 12
interestingness: 181 out of 242

photo: 6433849505 b37d81470f 7018
owner: 27746350@N00
title: "Full" moon
originalsecret: null
originalformat: null
o_height: null
o_width: null
datetaken: 2011-11-27 20:10:38
dateupload: 1322702812
tags: bridge usa moon buildings nebraska unitedstatesofamerica ne omaha oma oldmarket omahaworldherald omahaflickr afsdxzoomnikkor18135mmf3556gifed
license: 0
latitude: 41.255597
longitude: -95.930728
accuracy: 14
views: 5
interestingness: 182 out of 242

photo: 6433742125 492e454179 7173
owner: 72098626@N00
title: Central Park Dance Skaters, Oct 2011 - 15
originalsecret: 41a3582004
originalformat: jpg
o_height: 2801
o_width: 4201
datetaken: 2011-10-23 15:26:58
dateupload: 1322701227
tags: newyork dancers mayor centralpark manhattan skate beret centralparkdanceskaters themayor danceskaters
license: 1
latitude: 40.773277
longitude: -73.971356
accuracy: 16
views: 19
interestingness: 183 out of 242

photo: 6433734899 d16df83274 7007
owner: 72098626@N00
title: Central Park Dance Skaters, Oct 2011 - 13
originalsecret: e658419ddd
originalformat: jpg
o_height: 2810
o_width: 4215
datetaken: 2011-10-23 15:24:11
dateupload: 1322701120
tags: newyork sunglasses scarf couple dancers dancing centralpark manhattan skate centralparkdanceskaters danceskaters
license: 1
latitude: 40.773277
longitude: -73.971356
accuracy: 16
views: 43
interestingness: 184 out of 242

photo: 6433724843 40eabba012 7019
owner: 72098626@N00
title: Central Park Dance Skaters, Oct 2011 - 11
originalsecret: 14416ee88c
originalformat: jpg
o_height: 4928
o_width: 3264
datetaken: 2011-10-23 15:19:53
dateupload: 1322700963
tags: newyork sunglasses dancers centralpark manhattan skate yellowshirt centralparkdanceskaters yellowclothes danceskaters
license: 1
latitude: 40.773277
longitude: -73.971356
accuracy: 16
views: 19
interestingness: 185 out of 242

photo: 6436142029 727d2dd2e6 7171
owner: 39125319@N04
title: Autumn colours at Stourhead
originalsecret: f9cc6c2f53
originalformat: jpg
o_height: 3456
o_width: 5184
datetaken: 2011-11-11 13:36:17
dateupload: 1322746104
tags: 
license: 0
latitude: 51.134339
longitude: -2.321548
accuracy: 11
views: 5
interestingness: 186 out of 242

photo: 6435883443 1d91b39592 7173
owner: 37207327@N02
title: Basilique St Denis
originalsecret: 4f3cd30f0d
originalformat: jpg
o_height: 1000
o_width: 667
datetaken: 2011-11-13 16:22:35
dateupload: 1322741304
tags: 
license: 0
latitude: 48.935514
longitude: 2.359523
accuracy: 16
views: 6
interestingness: 187 out of 242

photo: 6435509231 b463e3a696 7008
owner: 55719971@N05
title: Unidenified
originalsecret: null
originalformat: null
o_height: null
o_width: null
datetaken: 2011-11-30 20:34:16
dateupload: 1322733011
tags: road bridge blue shadow red cars night cigarette alcohol
license: 1
latitude: 56.952826
longitude: 23.927793
accuracy: 14
views: 37
interestingness: 188 out of 242

photo: 6435485937 5168199d97 7171
owner: 94941181@N00
title: Zorki 2-S
originalsecret: 8ca07c1cf3
originalformat: jpg
o_height: 433
o_width: 800
datetaken: 2011-11-27 16:07:04
dateupload: 1322732497
tags: zorki2s
license: 0
latitude: 39.932923
longitude: 32.834658
accuracy: 15
views: 59
interestingness: 189 out of 242

photo: 6434274699 9bcab2127b 7027
owner: 27746350@N00
title: Shauna, Twitterless Mike, and Kalyn 2
originalsecret: null
originalformat: null
o_height: null
o_width: null
datetaken: 2011-11-26 21:09:54
dateupload: 1322709087
tags: family wedding usa nebraska unitedstatesofamerica ne lincoln lnk afsdxzoomnikkor18135mmf3556gifed
license: 0
latitude: 40.845465
longitude: -96.67061
accuracy: 16
views: 13
interestingness: 190 out of 242

photo: 6434273071 f1ab46d8c5 7027
owner: 27746350@N00
title: Shauna, Twitterless Mike, and Kalyn 1
originalsecret: null
originalformat: null
o_height: null
o_width: null
datetaken: 2011-11-26 21:09:32
dateupload: 1322709063
tags: family wedding usa nebraska unitedstatesofamerica ne lincoln lnk afsdxzoomnikkor18135mmf3556gifed
license: 0
latitude: 40.845465
longitude: -96.67061
accuracy: 16
views: 14
interestingness: 191 out of 242

photo: 6434014657 666f7c08d1 7004
owner: 44848889@N04
title: The Tree of Light
originalsecret: 6f50ba6815
originalformat: jpg
o_height: 2690
o_width: 3448
datetaken: 2011-11-30 18:08:54
dateupload: 1322705250
tags: light tree canon xsi
license: 0
latitude: 37.767805
longitude: -122.279677
accuracy: 15
views: 21
interestingness: 192 out of 242

photo: 6433633125 1a40a6742a 7156
owner: 7477245@N05
title: An?ncio Cigarros 117
originalsecret: 9b2aea9ef1
originalformat: jpg
o_height: 533
o_width: 407
datetaken: 2011-11-30 22:33:17
dateupload: 1322699597
tags: vintage ads advertising marketing moda modelos lingerie carros backgrounds autom?veis utilidades cigarros colorido an?ncios cal?ados propagandas vendas sele??es advertisings promo??es anunciantes modismo eletrodom?sticos reclames revistaplayboy anos1950 anos1980 anos1960 anos1940 fundosparatwitter anos1970 propagandasderevistas agenciasdepropagandas propagandasdassele??es propagandasdeguerra propagandasderevistasantigas propagandasantigasdeautom?veis propagandasantigasdecigarros
license: 4
latitude: -22.913653
longitude: -43.242874
accuracy: 11
views: 50
interestingness: 193 out of 242

photo: 6436196927 a385a677e9 7034
owner: 29471269@N03
title: I can fit two in one spot
originalsecret: null
originalformat: null
o_height: null
o_width: null
datetaken: 2011-11-20 21:30:31
dateupload: 1322747070
tags: sony cuba alpha varadero 77 kuba a77 matanzas
license: 0
latitude: 23.200247
longitude: -81.135275
accuracy: 16
views: 59
interestingness: 194 out of 242

photo: 6435690193 8e525b8aa0 7167
owner: 34948727@N00
title: Monumental Tourism
originalsecret: 653825e0d9
originalformat: jpg
o_height: 678
o_width: 1024
datetaken: 2011-11-13 14:21:59
dateupload: 1322737299
tags: nikon australia federationsquare melbourne victoria d7000 afsdxvrzoomnikkor18200mmf3556gifedii
license: 4
latitude: -37.817488
longitude: 144.968311
accuracy: 15
views: 46
interestingness: 195 out of 242

photo: 6435079175 96e04db4b9 7148
owner: 11904975@N00
title: Riddle of the day
originalsecret: 2506a80320
originalformat: jpg
o_height: 1936
o_width: 2592
datetaken: 2011-11-25 14:28:33
dateupload: 1322722866
tags: november coffee starbucks latte iphone disappointing 2011 iphone4
license: 0
latitude: 52.358167
longitude: -1.8275
accuracy: 16
views: 19
interestingness: 196 out of 242

photo: 6434893403 12f7abcc22 7035
owner: 22482729@N06
title: WEEK 22
originalsecret: null
originalformat: null
o_height: null
o_width: null
datetaken: 2011-12-01 17:05:11
dateupload: 1322718968
tags: newzealand auckland manukau aucklandcity markryan canon7d nzlensman rahimmryan
license: 0
latitude: -36.953981
longitude: 174.873279
accuracy: 15
views: 21
interestingness: 197 out of 242

photo: 6433739041 5a775e9e9c 7005
owner: 72098626@N00
title: Central Park Dance Skaters, Oct 2011 - 14
originalsecret: 540197190c
originalformat: jpg
o_height: 4431
o_width: 2795
datetaken: 2011-10-23 15:25:40
dateupload: 1322701181
tags: newyork sunglasses dancers centralpark manhattan skate centralparkdanceskaters danceskaters
license: 1
latitude: 40.773277
longitude: -73.971356
accuracy: 16
views: 18
interestingness: 198 out of 242

photo: 6433730873 42f97a7698 7006
owner: 72098626@N00
title: Central Park Dance Skaters, Oct 2011 - 12
originalsecret: 3951b8671f
originalformat: jpg
o_height: 4928
o_width: 3264
datetaken: 2011-10-23 15:22:43
dateupload: 1322701055
tags: newyork dancers centralpark manhattan helmet skate centralparkdanceskaters danceskaters
license: 1
latitude: 40.773277
longitude: -73.971356
accuracy: 16
views: 26
interestingness: 199 out of 242

photo: 6436170109 60b76c3e1e 7170
owner: 30145218@N00
title: An airport is a busy place. Yet there are ever so many spots where you see lonely people. Be it because the place is empty or because they isolate themselves against others. Travellers, if not in groups, are islands.
originalsecret: null
originalformat: null
o_height: null
o_width: null
datetaken: 2011-12-01 14:36:45
dateupload: 1322746605
tags: square squareformat normal iphoneography instagramapp uploaded:by=instagram foursquare:venue=4b93a176f964a520f14a34e3
license: 0
latitude: 48.353425
longitude: 11.78936
accuracy: 16
views: 0
interestingness: 200 out of 242

photo: 6434580705 7667a1f6c9 7010
owner: 10758109@N04
title: "The Acoustic Sessions"
originalsecret: null
originalformat: null
o_height: null
o_width: null
datetaken: 2011-12-01 14:29:39
dateupload: 1322713559
tags: architecture atrium acoustics aucklandmuseum aucklandwarmemorialmuseum musicinmuseums 1december2011
license: 0
latitude: -36.861046
longitude: 174.777642
accuracy: 16
views: 16
interestingness: 201 out of 242

photo: 6434578165 b31d8cae7c 7010
owner: 10758109@N04
title: "The Acoustic Sessions"
originalsecret: null
originalformat: null
o_height: null
o_width: null
datetaken: 2011-12-01 14:29:30
dateupload: 1322713523
tags: architecture atrium acoustics aucklandmuseum aucklandwarmemorialmuseum musicinmuseums 1december2011
license: 0
latitude: -36.861025
longitude: 174.777631
accuracy: 16
views: 3
interestingness: 202 out of 242

photo: 6434576279 0aa82ac173 7149
owner: 10758109@N04
title: "The Acoustic Sessions"
originalsecret: null
originalformat: null
o_height: null
o_width: null
datetaken: 2011-12-01 14:29:16
dateupload: 1322713493
tags: architecture atrium acoustics aucklandmuseum aucklandwarmemorialmuseum musicinmuseums 1december2011
license: 0
latitude: -36.861021
longitude: 174.777642
accuracy: 16
views: 3
interestingness: 203 out of 242

photo: 6434574495 19eac93bce 7142
owner: 10758109@N04
title: "The Acoustic Sessions"
originalsecret: null
originalformat: null
o_height: null
o_width: null
datetaken: 2011-12-01 14:29:02
dateupload: 1322713467
tags: architecture atrium acoustics aucklandmuseum aucklandwarmemorialmuseum musicinmuseums 1december2011
license: 0
latitude: -36.861042
longitude: 174.777674
accuracy: 16
views: 7
interestingness: 204 out of 242

photo: 6434572895 52c3b5b082 7142
owner: 10758109@N04
title: "The Acoustic Sessions"
originalsecret: null
originalformat: null
o_height: null
o_width: null
datetaken: 2011-12-01 14:28:43
dateupload: 1322713443
tags: architecture atrium acoustics aucklandmuseum aucklandwarmemorialmuseum musicinmuseums 1december2011
license: 0
latitude: -36.860978
longitude: 174.777696
accuracy: 16
views: 5
interestingness: 205 out of 242

photo: 6434279383 2047958fdd 7168
owner: 24414018@N05
title: After dinner
originalsecret: 197269936c
originalformat: jpg
o_height: 2304
o_width: 3072
datetaken: 2011-07-17 05:11:35
dateupload: 1322709158
tags: belize homestays stanncreekdistrict mayacentre
license: 0
latitude: 16.868619
longitude: -88.378143
accuracy: 10
views: 3
interestingness: 206 out of 242

photo: 6434271971 6e879d4405 7022
owner: 43541286@N00
title: Creamy Cauliflower Soup with Roasted Potatoes from "The Crepes of Wrath"
originalsecret: 31200bb557
originalformat: jpg
o_height: 1224
o_width: 1632
datetaken: 2011-11-30 19:08:58
dateupload: 1322709045
tags: flickrandroidapp:filter=none
license: 1
latitude: 49.218752
longitude: -123.067464
accuracy: 16
views: 11
interestingness: 207 out of 242

photo: 6433746267 f70c548c7a 7026
owner: 72098626@N00
title: Central Park Dance Skaters, Oct 2011 - 16
originalsecret: 0f6f3df13d
originalformat: jpg
o_height: 2711
o_width: 4067
datetaken: 2011-10-23 15:27:50
dateupload: 1322701287
tags: newyork dancers centralpark manhattan skate centralparkdanceskaters danceskaters
license: 1
latitude: 40.773277
longitude: -73.971356
accuracy: 16
views: 27
interestingness: 208 out of 242

photo: 6433637619 23d635f9ee 7144
owner: 25218275@N07
title: 331: Footy
originalsecret: null
originalformat: null
o_height: null
o_width: null
datetaken: 2011-11-27 17:16:19
dateupload: 1322699659
tags: liverpool football pub projector screen firstnational 3652011
license: 0
latitude: 53.405133
longitude: -2.991292
accuracy: 16
views: 8
interestingness: 209 out of 242

photo: 6436224135 2d1dabdd28 7155
owner: 71081220@N04
title: Accountanting Firm
originalsecret: null
originalformat: null
o_height: null
o_width: null
datetaken: 2008-08-18 11:17:42
dateupload: 1322747541
tags: texas tx taxaccountant smallbusinessaccountant fortworthcpa accountantingfirm
license: 0
latitude: 32.68518
longitude: -97.392463
accuracy: 16
views: 0
interestingness: 210 out of 242

photo: 6436223197 8f01e08bc2 7147
owner: 71081220@N04
title: Fort Worth CPA
originalsecret: null
originalformat: null
o_height: null
o_width: null
datetaken: 2011-12-01 07:52:05
dateupload: 1322747525
tags: texas tx taxaccountant smallbusinessaccountant fortworthcpa accountantingfirm
license: 0
latitude: 32.68518
longitude: -97.392463
accuracy: 16
views: 0
interestingness: 211 out of 242

photo: 6435614909 e499ff4c69 7154
owner: 54984626@N07
title: Seeds of Change
originalsecret: null
originalformat: null
o_height: null
o_width: null
datetaken: 2011-11-30 16:05:05
dateupload: 1322735674
tags: tree grass pine cone hills pinecone
license: 0
latitude: 52.409749
longitude: -2.098731
accuracy: 11
views: 5
interestingness: 212 out of 242

photo: 6435577825 517b5cba0c 7145
owner: 11220235@N02
title: Southport Pier Panorama2
originalsecret: cefde77475
originalformat: jpg
o_height: 2128
o_width: 4190
datetaken: 2011-11-24 16:53:52
dateupload: 1322734759
tags: panorama beach pier sand flag southport
license: 0
latitude: 53.655219
longitude: -3.018321
accuracy: 12
views: 0
interestingness: 213 out of 242

photo: 6434634297 e2ce6e7b3c 7034
owner: 95071949@N00
title: Peking Cuy
originalsecret: b2dbdb54b1
originalformat: jpg
o_height: 800
o_width: 600
datetaken: 2011-11-26 19:52:29
dateupload: 1322714350
tags: peru cuy lima gourmet peking astridygast?n
license: 1
latitude: -12.08347
longitude: -77.042484
accuracy: 12
views: 0
interestingness: 214 out of 242

photo: 6434402885 f102eacfac 7028
owner: 51065677@N05
title: 30NOV11: massing birds
originalsecret: 2c388a6990
originalformat: jpg
o_height: 2120
o_width: 1413
datetaken: 2011-11-30 16:30:49
dateupload: 1322710964
tags: birds silouette buzzards
license: 2
latitude: 33.819646
longitude: -81.88327
accuracy: 16
views: 2
interestingness: 215 out of 242

photo: 6433716281 eb2165fde9 7171
owner: 91489976@N00
title: Lucky Divers
originalsecret: 0430507efc
originalformat: jpg
o_height: 1952
o_width: 3264
datetaken: 2011-11-27 11:19:34
dateupload: 1322700825
tags: 
license: 0
latitude: 29.837574
longitude: -82.663267
accuracy: 16
views: 16
interestingness: 216 out of 242

photo: 6433632463 912a9b6717 7143
owner: 7477245@N05
title: An?ncio Cigarros 114
originalsecret: 586789f002
originalformat: jpg
o_height: 533
o_width: 407
datetaken: 2011-11-30 22:33:09
dateupload: 1322699589
tags: vintage ads advertising marketing moda modelos lingerie carros backgrounds autom?veis utilidades cigarros colorido an?ncios cal?ados propagandas vendas sele??es advertisings promo??es anunciantes modismo eletrodom?sticos reclames revistaplayboy anos1950 anos1980 anos1960 anos1940 fundosparatwitter anos1970 propagandasderevistas agenciasdepropagandas propagandasdassele??es propagandasdeguerra propagandasderevistasantigas propagandasantigasdeautom?veis propagandasantigasdecigarros
license: 4
latitude: -22.913653
longitude: -43.242874
accuracy: 11
views: 28
interestingness: 217 out of 242

photo: 6433632251 00a80d9a5b 7016
owner: 7477245@N05
title: An?ncio Cigarros 113
originalsecret: 2ab766441c
originalformat: jpg
o_height: 533
o_width: 407
datetaken: 2011-11-30 22:33:06
dateupload: 1322699586
tags: vintage ads advertising marketing moda modelos lingerie carros backgrounds autom?veis utilidades cigarros colorido an?ncios cal?ados propagandas vendas sele??es advertisings promo??es anunciantes modismo eletrodom?sticos reclames revistaplayboy anos1950 anos1980 anos1960 anos1940 fundosparatwitter anos1970 propagandasderevistas agenciasdepropagandas propagandasdassele??es propagandasdeguerra propagandasderevistasantigas propagandasantigasdeautom?veis propagandasantigasdecigarros
license: 4
latitude: -22.913653
longitude: -43.242874
accuracy: 11
views: 36
interestingness: 218 out of 242

photo: 6433632061 0a15474eee 7160
owner: 7477245@N05
title: An?ncio Cigarros 112
originalsecret: c9e98d0575
originalformat: jpg
o_height: 533
o_width: 407
datetaken: 2011-11-30 22:33:03
dateupload: 1322699583
tags: vintage ads advertising marketing moda modelos lingerie carros backgrounds autom?veis utilidades cigarros colorido an?ncios cal?ados propagandas vendas sele??es advertisings promo??es anunciantes modismo eletrodom?sticos reclames revistaplayboy anos1950 anos1980 anos1960 anos1940 fundosparatwitter anos1970 propagandasderevistas agenciasdepropagandas propagandasdassele??es propagandasdeguerra propagandasderevistasantigas propagandasantigasdeautom?veis propagandasantigasdecigarros
license: 4
latitude: -22.913653
longitude: -43.242874
accuracy: 11
views: 48
interestingness: 219 out of 242

photo: 6433631853 2f129a2172 7154
owner: 7477245@N05
title: An?ncio Cigarros 111
originalsecret: 8ee24d61d2
originalformat: jpg
o_height: 533
o_width: 407
datetaken: 2011-11-30 22:33:00
dateupload: 1322699580
tags: vintage ads advertising marketing moda modelos lingerie carros backgrounds autom?veis utilidades cigarros colorido an?ncios cal?ados propagandas vendas sele??es advertisings promo??es anunciantes modismo eletrodom?sticos reclames revistaplayboy anos1950 anos1980 anos1960 anos1940 fundosparatwitter anos1970 propagandasderevistas agenciasdepropagandas propagandasdassele??es propagandasdeguerra propagandasderevistasantigas propagandasantigasdeautom?veis propagandasantigasdecigarros
license: 4
latitude: -22.913653
longitude: -43.242874
accuracy: 11
views: 39
