
mintime: 1322697600 maxtime: 1324512427.5
numimgs: 44
total pages: 1
visiting only 1 pages ( up to 250 images)
photo: 6452733181 400187d367 7163
owner: 33062170@N08
title: iPod Shuffle2 - Angels with Dirty Faces
originalsecret: null
originalformat: null
o_height: null
o_width: null
datetaken: 2011-03-05 14:32:29
dateupload: 1323186540
tags: uk england man male face tattoo ink smith piercing tony tattoos full maori tatoo tat facial stud studs tats tash moari hotpix tat2 tonysmith tonysmithhotpix
license: 0
latitude: 53.475046
longitude: -2.250791
accuracy: 14
views: 1143
interestingness: 1 out of 44

photo: 6452817915 137b10ffe9 7013
owner: 33087681@N03
title: From the Window, Chipping, Lancashire
originalsecret: null
originalformat: null
o_height: null
o_width: null
datetaken: 2011-12-04 15:40:07
dateupload: 1323009607
tags: moleskine pen ink lancashire chipping watercolout chairworks
license: 0
latitude: 53.882993
longitude: -2.578353
accuracy: 11
views: 362
interestingness: 2 out of 44

photo: 6458167651 5374559953 7168
owner: 30099537@N02
title: Mount Vesuvius From Naples
originalsecret: 09156ae6d0
originalformat: jpg
o_height: 3744
o_width: 5616
datetaken: 2010-04-05 07:36:14
dateupload: 1323067293
tags: ocean sea italy mountain water boats volcano harbour ships naples vesuvius autofocus touraroundtheworld rainforestink
license: 0
latitude: 40.830193
longitude: 14.249074
accuracy: 14
views: 64
interestingness: 3 out of 44

photo: 6440214421 961e180b43 7021
owner: 53098051@N02
title: Guilt Droid
originalsecret: 67cb048906
originalformat: jpg
o_height: 4966
o_width: 3311
datetaken: 2011-11-24 07:31:36
dateupload: 1322806468
tags: arizona phoenix wall graffiti murals artificial
license: 0
latitude: 33.457506
longitude: -112.072146
accuracy: 16
views: 82
interestingness: 4 out of 44

photo: 6450736979 a94908a5ee 7033
owner: 43360736@N04
title: Immersed in Ink
originalsecret: null
originalformat: null
o_height: null
o_width: null
datetaken: 2011-12-04 00:06:12
dateupload: 1322975402
tags: color tattoo nikon chaos drip drips tatu tatuaje tattooal tattooalgarcia aaroncainmachine sobamachine workhorseironsmachine
license: 0
latitude: 41.508577
longitude: -81.591797
accuracy: 4
views: 133
interestingness: 5 out of 44

photo: 6450258765 8658734291 7159
owner: 47755254@N00
title: Tattoo Paradise, 18th Street, NW in Adams Morgan, Washington, DC
originalsecret: 632b73226d
originalformat: jpg
o_height: 3000
o_width: 4000
datetaken: 2011-12-03 20:07:18
dateupload: 1322968424
tags: ink washingtondc dcist adamsmorgan tats 18thstreetnw tattooparadise
license: 0
latitude: 38.921543
longitude: -77.042344
accuracy: 16
views: 151
interestingness: 6 out of 44

photo: 6460846459 882abf5eff 7015
owner: 39117296@N06
title: Barcelona. Cathedral of Santa Eulalia
originalsecret: 27f1fe2708
originalformat: jpg
o_height: 609
o_width: 443
datetaken: 2011-11-21 11:23:56
dateupload: 1323107061
tags: barcelona cathedral inkwatercolor
license: 0
latitude: 41.387499
longitude: 2.155723
accuracy: 11
views: 81
interestingness: 7 out of 44

photo: 6455755567 28082d3354 7033
owner: 62002440@N06
title: Swasky for JKPP
originalsecret: 1c5a4f54a1
originalformat: jpg
o_height: 1200
o_width: 782
datetaken: 2011-12-04 23:50:22
dateupload: 1323039137
tags: portrait jkpp swasky
license: 0
latitude: 37.38529
longitude: -5.977678
accuracy: 16
views: 88
interestingness: 8 out of 44

photo: 6480796449 9b7f83b5af 7149
owner: 41034115@N00
title: Vuohenjuuri by CE
originalsecret: null
originalformat: null
o_height: null
o_width: null
datetaken: 2011-05-20 13:15:28
dateupload: 1323417320
tags: flower color yellow effect tone leopardsbane colorefexpro vuohenjuuri kristiinahillerstr?m chrisseee kev?tvuohenjuuridoronicumorientale
license: 0
latitude: 60.487949
longitude: 22.17144
accuracy: 13
views: 38
interestingness: 9 out of 44

photo: 6463023217 980d5e65b5 7010
owner: 68957280@N07
title: Color Lust
originalsecret: null
originalformat: null
o_height: null
o_width: null
datetaken: 2011-06-11 03:28:15
dateupload: 1323132686
tags: wild colors fashion colorful dress alt pop tattoos latex lust alternative inked tattooed neckcorset altfashion missmischief josefinaphotography josefinaphoto eastcoastaltmodelqueen
license: 0
latitude: 41.95399
longitude: -70.658897
accuracy: 11
views: 121
interestingness: 10 out of 44

photo: 6477880587 2698234085 7141
owner: 9742303@N02
title: A Postcard from Paris
originalsecret: 56415f084e
originalformat: jpg
o_height: 1500
o_width: 2700
datetaken: 2011-12-08 10:20:17
dateupload: 1323368417
tags: paris collage watercolor triptych postcard eiffeltower balance greeting penink odc1 scavchal
license: 0
latitude: 45.531575
longitude: -122.64774
accuracy: 15
views: 38
interestingness: 11 out of 44

photo: 6468352067 b3f91719b1 7014
owner: 62002440@N06
title: AnAis for JKPP
originalsecret: 49301dc5c1
originalformat: jpg
o_height: 1067
o_width: 1200
datetaken: 2011-12-06 23:32:13
dateupload: 1323210991
tags: anais jkpp
license: 0
latitude: 37.385205
longitude: -5.977656
accuracy: 16
views: 83
interestingness: 12 out of 44

photo: 6454162369 56e1108bce 7147
owner: 29264643@N05
title: Gespensterwald
originalsecret: ec57c22605
originalformat: jpg
o_height: 685
o_width: 952
datetaken: 2011-12-04 19:33:23
dateupload: 1323023603
tags: nienhagen gespensterwald spookyforest wackelwald
license: 0
latitude: 54.163087
longitude: 11.942203
accuracy: 14
views: 49
interestingness: 13 out of 44

photo: 6460185257 996c0b140c 7142
owner: 49028620@N04
title: Old North Church from Copps Hill Burial Ground
originalsecret: 41a584d39e
originalformat: jpg
o_height: 3300
o_width: 2551
datetaken: 2011-12-05 09:38:16
dateupload: 1323099839
tags: autumn cemetery boston pencil ink watercolor oldnorthchurch urbanlandscape whiteacrylicink
license: 0
latitude: 42.367014
longitude: -71.055504
accuracy: 16
views: 84
interestingness: 14 out of 44

photo: 6441007125 25151082ed 7145
owner: 43998359@N05
title: Verge dels Desemparats School, Oliva
originalsecret: null
originalformat: null
o_height: null
o_width: null
datetaken: 2011-12-02 11:18:52
dateupload: 1322824732
tags: urban espa?a valencia architecture pen ink watercolor sketch spain arquitectura drawing aquarelle picture watercolour architektur acuarela dibujo tinta spanien arquitecture croquis urbansketchers
license: 0
latitude: 38.918941
longitude: -0.11793
accuracy: 11
views: 73
interestingness: 15 out of 44

photo: 6436495833 d5a9322bba 7152
owner: 49028620@N04
title: Copley Square from Commonwealth Ave
originalsecret: 20358c1213
originalformat: jpg
o_height: 4920
o_width: 1580
datetaken: 2011-12-01 08:26:28
dateupload: 1322751662
tags: autumn trees boston skyscraper ink watercolor brushpen urbanlandscape copleysquare johnhancocktower commonwealthavenue berkeleybuilding thenewoldsouthchurch
license: 0
latitude: 42.350421
longitude: -71.084304
accuracy: 16
views: 94
interestingness: 16 out of 44

photo: 6447260153 4b2d235d78 7150
owner: 42406987@N06
title: Up the block
originalsecret: c195ebcb59
originalformat: jpg
o_height: 2155
o_width: 1514
datetaken: 2011-12-03 11:21:01
dateupload: 1322929319
tags: street city newyorkcity autumn urban architecture illustration brooklyn pen ink james bay view drawing townhouse details perspective parkslope landmark historic line sidewalk carroll freehand curved vignette brownstone 7thavenue baluster anzalone
license: 0
latitude: 40.673697
longitude: -73.977341
accuracy: 15
views: 125
interestingness: 17 out of 44

photo: 6450605685 2fd2ce7e61 7024
owner: 49028620@N04
title: Boston Harbor from Christopher Columbus Park
originalsecret: 5b1309bddd
originalformat: jpg
o_height: 2551
o_width: 3300
datetaken: 2011-12-03 12:09:50
dateupload: 1322973436
tags: boston pencil ink watercolor boats harbor airport brushpen urbanlandscape whitegouache whiteacrylicink
license: 0
latitude: 42.36116
longitude: -71.050858
accuracy: 14
views: 102
interestingness: 18 out of 44

photo: 6455772165 4da198e1a7 7005
owner: 57447841@N05
title: 21st Internationale Tattoo Convention Berlin
originalsecret: a08face239
originalformat: jpg
o_height: 2304
o_width: 3456
datetaken: 2011-12-04 14:15:02
dateupload: 1323039299
tags: people berlin art tattoo ink deutschland skin contest piercing arena convention bodyart deu schmuck treptow internationale 2011 berlintreptow 21sttattooconventionberlin
license: 0
latitude: 52.496944
longitude: 13.453961
accuracy: 16
views: 256
interestingness: 19 out of 44

photo: 6478300453 e89c9ff667 7158
owner: 27034289@N00
title: Cordoba, panor?mica con Arturo Y Lapin
originalsecret: cd793ea5da
originalformat: jpg
o_height: 516
o_width: 1500
datetaken: 2011-12-08 20:57:38
dateupload: 1323374258
tags: espa?a ink watercolor sketch andaluc?a spain europa europe drawing sketchbook acuarela andalusia dibujo c?rdoba tinta croquis cuaderno alvarocarnicero drawingbookfromspaincom
license: 0
latitude: 37.87487
longitude: -4.777314
accuracy: 15
views: 113
interestingness: 20 out of 44

photo: 6459963655 c8fabd5fc6 7147
owner: 49028620@N04
title: Coast Guard Ship from Battery Wharf
originalsecret: 9bcdc9168e
originalformat: jpg
o_height: 1734
o_width: 2256
datetaken: 2011-12-03 12:28:58
dateupload: 1323097312
tags: moleskine boston ship waterfront wharf urbanlandscape prismacolorpencil whiteacrylicink 5bpencil
license: 0
latitude: 42.367652
longitude: -71.049935
accuracy: 15
views: 84
interestingness: 21 out of 44

photo: 6467943387 1a5fbfd2c8 7172
owner: 37011845@N07
title: *** ZEN ***
originalsecret: 39d3e1bb31
originalformat: jpg
o_height: 960
o_width: 1280
datetaken: 2008-05-04 12:49:03
dateupload: 1323206012
tags: red white black ink indian dunes horizon before zen goes desperation consciousness avant encre d?sespoir thelaststep dechine judithsart laconscience lederni?rpas estaussi s?enva
license: 0
latitude: 39.548829
longitude: 19.849908
accuracy: 11
views: 27
interestingness: 22 out of 44

photo: 6470889403 faf9083547 7004
owner: 43998359@N05
title: Houses in Sagunto
originalsecret: null
originalformat: null
o_height: null
o_width: null
datetaken: 2011-11-06 11:37:43
dateupload: 1323254343
tags: urban espa?a valencia architecture pen ink watercolor sketch spain arquitectura drawing aquarelle picture watercolour architektur acuarela dibujo tinta spanien arquitecture croquis sagunto
license: 0
latitude: 39.679958
longitude: -0.27831
accuracy: 11
views: 38
interestingness: 23 out of 44

photo: 6449531903 90e62dce90 7032
owner: 30099537@N02
title: Ice, Londonderry/Derry
originalsecret: f8116d2909
originalformat: jpg
o_height: 5616
o_width: 3744
datetaken: 2010-12-28 12:13:39
dateupload: 1322957961
tags: ice water river frozen unitedkingdom londonderry northernireland derry rainforestink
license: 0
latitude: 55.018673
longitude: -7.293527
accuracy: 14
views: 33
interestingness: 24 out of 44

photo: 6462733085 6f52152d3e 7003
owner: 62002440@N06
title: Santacenero for JKPP
originalsecret: 8fdb23c3f0
originalformat: jpg
o_height: 1200
o_width: 893
datetaken: 2011-12-06 01:44:42
dateupload: 1323128874
tags: jkpp santacenero
license: 0
latitude: 37.385209
longitude: -5.97756
accuracy: 16
views: 53
interestingness: 25 out of 44

photo: 6455743011 6e059d14c8 7024
owner: 57447841@N05
title: 21st Internationale Tattoo Convention Berlin
originalsecret: 8debc9accd
originalformat: jpg
o_height: 2304
o_width: 3456
datetaken: 2011-12-04 14:05:03
dateupload: 1323039013
tags: people berlin art tattoo ink deutschland skin contest piercing arena convention bodyart deu schmuck treptow internationale 2011 berlintreptow 21sttattooconventionberlin
license: 0
latitude: 52.496944
longitude: 13.453961
accuracy: 16
views: 112
interestingness: 26 out of 44

photo: 6458161607 01839e8196 7175
owner: 30099537@N02
title: Loch Luichart
originalsecret: df18865a2c
originalformat: jpg
o_height: 3744
o_width: 5616
datetaken: 2011-04-22 11:43:58
dateupload: 1323067186
tags: greatbritain lake mountains water landscape scotland unitedkingdom loch rainforestink
license: 0
latitude: 57.627758
longitude: -4.80154
accuracy: 11
views: 34
interestingness: 27 out of 44

photo: 6435594849 06b71c979c 7157
owner: 10881108@N06
title: HERRING HEYDAY
originalsecret: null
originalformat: null
o_height: null
o_width: null
datetaken: 2011-12-01 10:26:39
dateupload: 1322735199
tags: england norfolk greatyarmouth stipple penink rapidograph pointillism southquay originaldrawing silverdarlings herringsale
license: 0
latitude: 52.602812
longitude: 1.726226
accuracy: 13
views: 37
interestingness: 28 out of 44

photo: 6459145451 b2c2ef1731 7170
owner: 70177197@N00
title: CityLights 2011
originalsecret: null
originalformat: null
o_height: null
o_width: null
datetaken: 2011-11-17 21:47:36
dateupload: 1323085761
tags: christmas red water night reflections lights dallas downtown texas christmastree fountains 2011 mainstreetgardens mysticinkphotography mistiboe d5100 nikond5100 citylights2011
license: 0
latitude: 32.781213
longitude: -96.795129
accuracy: 16
views: 43
interestingness: 29 out of 44

photo: 6476275833 7e52ebdcce 7031
owner: 31602258@N07
title: SKETCHBOOK "Les ?pluchures de la pot?e" ?
originalsecret: 1b26742758
originalformat: jpg
o_height: 1468
o_width: 2395
datetaken: 2011-12-08 03:16:10
dateupload: 1323342970
tags: journal sketchbook notebook art book artjournal artbook moleskine drawing draw drawer ink pen illustration bretagne locqu?nol? artist artiste framboisineberry framboisine berry food lunch diary black
license: 0
latitude: 48.624881
longitude: -3.867187
accuracy: 13
views: 51
interestingness: 30 out of 44

photo: 6478862759 4022aa4828 7011
owner: 37011845@N07
title: *** In the sign of ***
originalsecret: e6240b46ea
originalformat: jpg
o_height: 1017
o_width: 1074
datetaken: 2008-12-30 15:19:12
dateupload: 1323381897
tags: red white black paris ink de drawing chinese mona dessin chine symbolism encre symbolisme mill?naire thechange duverseau judithsart ofamillennium souslesigne unchangement
license: 0
latitude: 48.838286
longitude: 2.33225
accuracy: 14
views: 14
interestingness: 31 out of 44

photo: 6440951219 fe536d03fb 7167
owner: 43998359@N05
title: Building orange in Oliva, Valencia
originalsecret: null
originalformat: null
o_height: null
o_width: null
datetaken: 2011-12-02 10:59:13
dateupload: 1322823553
tags: urban espa?a valencia architecture pen ink watercolor sketch spain arquitectura drawing aquarelle picture watercolour architektur acuarela dibujo tinta spanien arquitecture croquis urbansketchers
license: 0
latitude: 38.918941
longitude: -0.11793
accuracy: 11
views: 65
interestingness: 32 out of 44

photo: 6436810003 874e275089 7165
owner: 54778207@N08
title: Gwylan fechan
originalsecret: 164d3b3d10
originalformat: jpg
o_height: 984
o_width: 984
datetaken: 2011-12-01 14:16:03
dateupload: 1322755988
tags: wood art bois celf val?riane littlegull pren gwyngalch leblond chaux limewash mouettepygm?e gwylanfechan
license: 0
latitude: 52.410482
longitude: -4.097557
accuracy: 11
views: 30
interestingness: 33 out of 44

photo: 6472039787 4da60ae037 7154
owner: 53054338@N02
title: Christus_Flickr
originalsecret: null
originalformat: null
o_height: null
o_width: null
datetaken: 2011-12-07 07:46:07
dateupload: 1323273265
tags: statue watercolor utah christ jesus saltlakecity templesquare lds christus penandink thechurchofjesuschristoflatterdaysaints watercolorwash
license: 0
latitude: 40.771064
longitude: -111.892576
accuracy: 16
views: 46
interestingness: 34 out of 44

photo: 6447796725 597d27700f 7033
owner: 54778207@N08
title: Prysurdeb yr ?yl
originalsecret: 2fb6d3d39d
originalformat: jpg
o_height: 3666
o_width: 5952
datetaken: 2011-11-29 11:27:12
dateupload: 1322935697
tags: 
license: 0
latitude: 52.41645
longitude: -4.08348
accuracy: 16
views: 138
interestingness: 35 out of 44

photo: 6434659157 c92a2d0911 7001
owner: 34700899@N06
title: 
originalsecret: null
originalformat: null
o_height: null
o_width: null
datetaken: 2011-11-27 05:22:51
dateupload: 1322714739
tags: new york november winter portrait newyork girl boston closeup shirt tattoo ink hair island long arm capecod massachusetts longisland needle flannel straightedge plaid freeport gypsy permanent inked plaidshirt 2011 armtattoo girlhead girltattoo tattooportrait
license: 0
latitude: 40.658451
longitude: -73.587219
accuracy: 11
views: 59
interestingness: 36 out of 44

photo: 6455894655 acf6dd351f 7148
owner: 57447841@N05
title: 21st Internationale Tattoo Convention Berlin
originalsecret: 8d5a2090f9
originalformat: jpg
o_height: 2304
o_width: 3456
datetaken: 2011-12-04 15:16:21
dateupload: 1323040559
tags: people berlin art tattoo ink deutschland skin contest piercing arena convention bodyart deu schmuck treptow internationale 2011 berlintreptow 21sttattooconventionberlin
license: 0
latitude: 52.496944
longitude: 13.453961
accuracy: 16
views: 84
interestingness: 37 out of 44

photo: 6455825555 c0e8032d83 7007
owner: 57447841@N05
title: 21st Internationale Tattoo Convention Berlin
originalsecret: 2df6b2ac9e
originalformat: jpg
o_height: 2304
o_width: 3456
datetaken: 2011-12-04 14:50:38
dateupload: 1323039850
tags: people berlin art tattoo ink deutschland skin contest 21st piercing arena convention bodyart deu schmuck treptow 011 internationale berlintreptow
license: 0
latitude: 52.496944
longitude: 13.453961
accuracy: 16
views: 53
interestingness: 38 out of 44

photo: 6437660461 227c16ccc0 7146
owner: 11190727@N04
title: sketch-metro0868
originalsecret: 4659157172
originalformat: jpg
o_height: 1024
o_width: 784
datetaken: 2011-12-01 10:31:17
dateupload: 1322767440
tags: urban watercolor washingtondc sketch women metro drawing sketchbook penandink
license: 0
latitude: 38.966616
longitude: -77.012357
accuracy: 13
views: 42
interestingness: 39 out of 44

photo: 6481041173 6c1b9e1213 7026
owner: 43998359@N05
title: Old house in Valencia V
originalsecret: null
originalformat: null
o_height: null
o_width: null
datetaken: 2011-12-09 09:36:28
dateupload: 1323423388
tags: urban espa?a tree nature valencia architecture pen ink watercolor landscape sketch spain arquitectura drawing aquarelle picture ?rbol watercolour architektur acuarela dibujo baum tinta spanien arquitecture croquis
license: 0
latitude: 39.469188
longitude: -0.376819
accuracy: 11
views: 12
interestingness: 40 out of 44

photo: 4970679884 19ec48ea01 4092
owner: 38837659@N06
title: A Spy Like You
originalsecret: 608cf6a129
originalformat: jpg
o_height: 4217
o_width: 3441
datetaken: 2010-08-30 11:15:21
dateupload: 1322735670
tags: china city original light portrait people blackandwhite bw italy baby white black hot cute sexy art love girl beautiful beauty fashion pen pencil ink comics painting hair paper fun toy james sketch war europe paint gun artist comic italia peace dress symbol artistic drawing iraq babe east jacket strip short pistol painter spy bond draw brunette lovely middle iraqi hotty
license: 3
latitude: 43.771361
longitude: 11.25428
accuracy: 16
views: 128
interestingness: 41 out of 44

photo: 6479268351 abe6442604 7012
owner: 21733989@N02
title: Galgo
originalsecret: null
originalformat: null
o_height: null
o_width: null
datetaken: 2009-01-11 19:34:43
dateupload: 1323388282
tags: dog ink perro draw dibujo tinta galgo colombiantrash inuwaters
license: 0
latitude: 4.586199
longitude: -74.135355
accuracy: 16
views: 11
interestingness: 42 out of 44

photo: 6455701841 43e1369818 7030
owner: 57447841@N05
title: 21st Internationale Tattoo Convention Berlin
originalsecret: 176da92dca
originalformat: jpg
o_height: 2304
o_width: 3456
datetaken: 2011-12-04 13:50:12
dateupload: 1323038615
tags: people berlin art tattoo ink deutschland skin contest piercing arena convention bodyart deu schmuck treptow internationale 2011 berlintreptow 21sttattooconventionberlin
license: 0
latitude: 52.496944
longitude: 13.453961
accuracy: 16
views: 59
interestingness: 43 out of 44

photo: 6455819819 9a88f0fbcc 7146
owner: 57447841@N05
title: 21st Internationale Tattoo Convention Berlin
originalsecret: 849ac5b3be
originalformat: jpg
o_height: 2304
o_width: 3456
datetaken: 2011-12-04 14:43:30
dateupload: 1323039787
tags: people berlin art tattoo ink deutschland skin contest piercing arena convention bodyart deu schmuck treptow internationale 2011 berlintreptow 21sttattooconventionberlin
license: 0
latitude: 52.496944
longitude: 13.453961
accuracy: 16
views: 73
interestingness: 44 out of 44

photo: 6448825563 1071bff540 7005
owner: 58428061@N02
title: Shopping on Main Street-Stevens Point
originalsecret: null
originalformat: null
o_height: null
o_width: null
datetaken: 2011-12-03 10:25:51
dateupload: 1322948631
tags: 
license: 0
latitude: 44.523468
longitude: -89.58349
accuracy: 16
views: 41
interestingness: 45 out of 44

photo: 6461105869 64a0d7e55a 7167
owner: 32942895@N05
title: Bad_Bevensen_Dame_2011
originalsecret: fe6e322e15
originalformat: jpg
o_height: 756
o_width: 591
datetaken: 2011-12-05 19:32:33
dateupload: 1323110027
tags: urban bad bremen sketchers bevensen
license: 0
latitude: 53.080392
longitude: 10.578546
accuracy: 12
views: 54
interestingness: 46 out of 44

photo: 6455838275 b0054d2df3 7149
owner: 57447841@N05
title: 21st Internationale Tattoo Convention Berlin
originalsecret: eea01dca37
originalformat: jpg
o_height: 2304
o_width: 3456
datetaken: 2011-12-04 14:58:16
dateupload: 1323039981
tags: people berlin art tattoo ink deutschland skin contest piercing arena convention bodyart deu schmuck treptow internationale 2011 berlintreptow 21sttattooconventionberlin
license: 0
latitude: 52.496944
longitude: 13.453961
accuracy: 16
views: 75
interestingness: 47 out of 44

photo: 6440935053 f4cafdbbff 7173
owner: 43998359@N05
title: Buildings in Oliva, Valencia
originalsecret: null
originalformat: null
o_height: null
o_width: null
datetaken: 2011-12-02 10:53:12
dateupload: 1322823192
tags: urban espa?a valencia architecture pen ink watercolor sketch spain arquitectura drawing aquarelle picture watercolour architektur acuarela dibujo tinta spanien arquitecture croquis urbansketchers
license: 0
latitude: 38.918941
longitude: -0.11793
accuracy: 11
views: 61
interestingness: 48 out of 44

photo: 6455946911 a5294e3b51 7141
owner: 57447841@N05
title: 21st Internationale Tattoo Convention Berlin
originalsecret: 0b6093cf83
originalformat: jpg
o_height: 2304
o_width: 3456
datetaken: 2011-12-04 15:21:23
dateupload: 1323041088
tags: people berlin art tattoo ink deutschland skin contest piercing arena convention bodyart deu schmuck treptow internationale 2011 berlintreptow 21sttattooconventionberlin
license: 0
latitude: 52.496944
longitude: 13.453961
accuracy: 16
views: 50
interestingness: 49 out of 44

photo: 6455237471 56e286b2e8 7002
owner: 27034289@N00
title: Drawing in Bodegas Campos, Cordoba
originalsecret: b63a0c8a94
originalformat: jpg
o_height: 1500
o_width: 1125
datetaken: 2011-12-04 15:32:18
dateupload: 1323034109
tags: espa?a ink watercolor sketch andaluc?a spain europa europe drawing sketchbook acuarela andalusia dibujo c?rdoba tinta croquis cuaderno alvarocarnicero drawingbookfromspaincom
license: 0
latitude: 37.881509
longitude: -4.773463
accuracy: 16
views: 48
interestingness: 50 out of 44

photo: 6467190507 27d0794404 7146
owner: 16481922@N02
title: No, I haven't written a book yet
originalsecret: null
originalformat: null
o_height: null
o_width: null
datetaken: 2011-11-30 15:12:26
dateupload: 1323196864
tags: trees plants black green illustration book mixed background bio banana cover type eco futura pennyjey
license: 0
latitude: 48.696229
longitude: 44.476089
accuracy: 12
views: 20
interestingness: 51 out of 44

photo: 6436616091 7c504eec0c 7167
owner: 71177643@N07
title: hawaii ink_sm
originalsecret: null
originalformat: null
o_height: null
o_width: null
datetaken: 2010-07-12 12:02:13
dateupload: 1322753401
tags: sea summer holiday black colour tree beach ink hearts hawaii sand surf turtle spirals patterns feathers shapes curls palm hibiscus stitching swirls doodles kalona zentangles
license: 0
latitude: 21.28338
longitude: -157.834152
accuracy: 13
views: 19
interestingness: 52 out of 44

photo: 6455886013 38ca09af45 7004
owner: 57447841@N05
title: 21st Internationale Tattoo Convention Berlin
originalsecret: bf969baf42
originalformat: jpg
o_height: 2304
o_width: 3456
datetaken: 2011-12-04 15:15:01
dateupload: 1323040473
tags: people berlin art tattoo ink deutschland skin contest piercing arena convention bodyart deu schmuck treptow internationale 2011 berlintreptow 21sttattooconventionberlin
license: 0
latitude: 52.496944
longitude: 13.453961
accuracy: 16
views: 63
interestingness: 53 out of 44

photo: 6478294867 97941d3281 7004
owner: 27034289@N00
title: Mezquita-Catedral interior
originalsecret: 636c89a942
originalformat: jpg
o_height: 1050
o_width: 1500
datetaken: 2011-12-08 20:56:25
dateupload: 1323374185
tags: espa?a ink watercolor sketch andaluc?a spain europa europe drawing sketchbook acuarela andalusia dibujo c?rdoba tinta croquis cuaderno alvarocarnicero drawingbookfromspaincom
license: 0
latitude: 37.87885
longitude: -4.779299
accuracy: 16
views: 48
interestingness: 54 out of 44

photo: 6459044135 007277c6ee 7158
owner: 19923161@N04
title: Octagonal Schoolhouse
originalsecret: null
originalformat: null
o_height: null
o_width: null
datetaken: 2011-11-27 10:56:24
dateupload: 1323083953
tags: school pennsylvania buckscounty historicareas jwfuquaphotography
license: 0
latitude: 40.255424
longitude: -75.006762
accuracy: 16
views: 14
interestingness: 55 out of 44

photo: 6466348743 65864f986a 7011
owner: 50867291@N00
title: The aging brain
originalsecret: 9d48582d54
originalformat: jpg
o_height: 1745
o_width: 1700
datetaken: 2011-12-01 15:38:11
dateupload: 1323186611
tags: brain aging axons neuronneurology agingbraonbrainagingneurons
license: 0
latitude: 38.904693
longitude: -77.034553
accuracy: 16
views: 96
interestingness: 56 out of 44

photo: 6455733491 ba92ab97b5 7148
owner: 57447841@N05
title: 21st Internationale Tattoo Convention Berlin
originalsecret: afcdf277a0
originalformat: jpg
o_height: 2304
o_width: 3456
datetaken: 2011-12-04 14:04:33
dateupload: 1323038918
tags: people berlin art tattoo ink deutschland skin contest piercing arena convention bodyart deu schmuck treptow internationale 2011 berlintreptow 21sttattooconventionberlin
license: 0
latitude: 52.496944
longitude: 13.453961
accuracy: 16
views: 75
interestingness: 57 out of 44

photo: 6472479913 4e2231de2a 7014
owner: 16481922@N02
title: ???? ? ???????
originalsecret: null
originalformat: null
o_height: null
o_width: null
datetaken: 2011-11-30 15:14:00
dateupload: 1323278769
tags: bear blue trees winter snow black illustration ink paper russia drawing kitsch snowing amateur pennyjey
license: 0
latitude: 48.696229
longitude: 44.476089
accuracy: 12
views: 21
interestingness: 58 out of 44

photo: 6437660581 66a3a2fa50 7175
owner: 11190727@N04
title: sketch-metro0864
originalsecret: 42e20d3e19
originalformat: jpg
o_height: 1024
o_width: 718
datetaken: 2011-12-01 10:16:37
dateupload: 1322767442
tags: urban washingtondc sketch women metro drawing sketchbook penandink
license: 0
latitude: 38.9281
longitude: -77.032592
accuracy: 15
views: 28
interestingness: 59 out of 44

photo: 6437660345 077cd1df4f 7170
owner: 11190727@N04
title: sketch-metro0870
originalsecret: bf3cbeeca4
originalformat: jpg
o_height: 1024
o_width: 781
datetaken: 2011-12-01 10:31:46
dateupload: 1322767438
tags: urban watercolor washingtondc sketch women metro drawing sketchbook penandink
license: 0
latitude: 38.927474
longitude: -77.032399
accuracy: 15
views: 31
interestingness: 60 out of 44

photo: 6470888145 8fddfe4969 7175
owner: 43998359@N05
title: Street in Karlsruhe III
originalsecret: null
originalformat: null
o_height: null
o_width: null
datetaken: 2011-11-06 11:36:33
dateupload: 1323254316
tags: urban architecture pen ink germany watercolor landscape deutschland sketch arquitectura drawing aquarelle picture watercolour architektur alemania dibujo karlsruhe tinta arquitecture croquis
license: 0
latitude: 49.010368
longitude: 8.409199
accuracy: 11
views: 39
interestingness: 61 out of 44

photo: 6455949141 fee81b1623 7174
owner: 57447841@N05
title: 21st Internationale Tattoo Convention Berlin
originalsecret: 86db5c5774
originalformat: jpg
o_height: 2304
o_width: 3456
datetaken: 2011-12-04 15:21:38
dateupload: 1323041110
tags: people berlin art tattoo ink deutschland skin contest piercing arena convention bodyart deu schmuck treptow internationale 2011 berlintreptow 21sttattooconventionberlin
license: 0
latitude: 52.496944
longitude: 13.453961
accuracy: 16
views: 50
interestingness: 62 out of 44

photo: 6455933525 7528aef3db 7014
owner: 57447841@N05
title: 21st Internationale Tattoo Convention Berlin
originalsecret: b754a71092
originalformat: jpg
o_height: 2304
o_width: 3456
datetaken: 2011-12-04 15:20:01
dateupload: 1323040950
tags: people berlin art tattoo ink deutschland skin contest piercing arena convention bodyart deu schmuck treptow internationale 2011 berlintreptow 21sttattooconventionberlin
license: 0
latitude: 52.496944
longitude: 13.453961
accuracy: 16
views: 47
interestingness: 63 out of 44

photo: 6455856757 0799f6094f 7154
owner: 57447841@N05
title: 21st Internationale Tattoo Convention Berlin
originalsecret: 925b908450
originalformat: jpg
o_height: 2304
o_width: 3456
datetaken: 2011-12-04 15:12:48
dateupload: 1323040174
tags: people berlin art tattoo ink deutschland skin contest piercing arena convention bodyart deu schmuck treptow internationale 2011 berlintreptow 21sttattooconventionberlin
license: 0
latitude: 52.496944
longitude: 13.453961
accuracy: 16
views: 48
interestingness: 64 out of 44

photo: 6476068153 38c37f9b10 7169
owner: 61552606@N02
title: Advancing towards Calistemon
originalsecret: null
originalformat: null
o_height: null
o_width: null
datetaken: 2011-12-08 19:56:51
dateupload: 1323338211
tags: original art illustration drawing contemporary australia watercolour gouache inkpen worksonpaper melbourneworksonpaperartoriginaldrawingcontemporarywatercolourgouacheaustraliainkpenillustration
license: 0
latitude: -37.666429
longitude: 144.821777
accuracy: 5
views: 4
interestingness: 65 out of 44

photo: 6476067881 7ecf699a5e 7162
owner: 61552606@N02
title: Room for counting domestic movements
originalsecret: null
originalformat: null
o_height: null
o_width: null
datetaken: 2011-12-08 19:56:45
dateupload: 1323338205
tags: original art illustration drawing contemporary australia watercolour gouache inkpen worksonpaper melbourneworksonpaperartoriginaldrawingcontemporarywatercolourgouacheaustraliainkpenillustration
license: 0
latitude: -37.666429
longitude: 144.821777
accuracy: 5
views: 6
interestingness: 66 out of 44

photo: 6453877833 13b5cdf0ce 7154
owner: 24788248@N07
title: Screen Shot 2011-12-04 at 12.42.14 PM
originalsecret: null
originalformat: null
o_height: null
o_width: null
datetaken: 2011-12-04 12:44:49
dateupload: 1323020689
tags: atlanta art yoga pen ink logo graphicdesign paint icon scan letterpress vector gmp hotlanta reduced gmd hco yolo handillustrated georgemikodesignscom blueheronpaddleclub
license: 0
latitude: 33.880155
longitude: -84.380903
accuracy: 14
views: 17
interestingness: 67 out of 44

photo: 6439213085 fd4c488bd9 7170
owner: 41973381@N00
title: punks thugs vandals
originalsecret: null
originalformat: null
o_height: null
o_width: null
datetaken: 2011-12-01 14:16:54
dateupload: 1322789038
tags: california black pen ink graffiti berkeley sticker punk university cal sharpie uc thugs handwritten vandals
license: 0
latitude: 37.87
longitude: -122.262
accuracy: 16
views: 16
interestingness: 68 out of 44

photo: 6475858471 a448b74817 7009
owner: 51452258@N06
title: Royal blue cufflinks
originalsecret: 41c0c8f9f2
originalformat: jpg
o_height: 873
o_width: 1000
datetaken: 2011-12-06 01:38:22
dateupload: 1323333209
tags: blue handmade jewelry polymerclay romantic ethnic cufflinks fauxceramic
license: 0
latitude: 49.844661
longitude: 24.028079
accuracy: 11
views: 9
interestingness: 69 out of 44

photo: 6462630165 abe899d369 7026
owner: 63213887@N07
title: Noodler's at last
originalsecret: 421364ff02
originalformat: jpg
o_height: 1440
o_width: 1000
datetaken: 2011-12-06 00:25:36
dateupload: 1323127536
tags: 
license: 0
latitude: 36.716595
longitude: -4.423713
accuracy: 11
views: 35
interestingness: 70 out of 44

photo: 6456048341 6e90cf49d9 7163
owner: 57447841@N05
title: 21st Internationale Tattoo Convention Berlin
originalsecret: df652f3cb8
originalformat: jpg
o_height: 2304
o_width: 3456
datetaken: 2011-12-04 15:59:18
dateupload: 1323042169
tags: people berlin art tattoo ink deutschland skin contest piercing arena convention bodyart deu schmuck treptow internationale 2011 berlintreptow 21sttattooconventionberlin
license: 0
latitude: 52.496944
longitude: 13.453961
accuracy: 16
views: 108
interestingness: 71 out of 44

photo: 6455244801 c234a4a275 7174
owner: 27034289@N00
title: Drawing in Bodegas Campos, Cordoba
originalsecret: b313dc3bc7
originalformat: jpg
o_height: 1125
o_width: 1500
datetaken: 2011-12-04 15:44:21
dateupload: 1323034180
tags: espa?a ink watercolor sketch andaluc?a spain europa europe drawing sketchbook acuarela andalusia dibujo c?rdoba tinta croquis cuaderno alvarocarnicero drawingbookfromspaincom
license: 0
latitude: 37.881509
longitude: -4.773463
accuracy: 16
views: 82
interestingness: 72 out of 44

photo: 6456004545 b37e777d6c 7028
owner: 57447841@N05
title: 21st Internationale Tattoo Convention Berlin
originalsecret: 8ec2acf22f
originalformat: jpg
o_height: 2304
o_width: 3456
datetaken: 2011-12-04 15:42:35
dateupload: 1323041704
tags: people berlin art tattoo ink deutschland skin contest piercing arena convention bodyart deu schmuck treptow internationale 2011 berlintreptow 21sttattooconventionberlin
license: 0
latitude: 52.496944
longitude: 13.453961
accuracy: 16
views: 51
interestingness: 73 out of 44

photo: 6455709329 3e4d1f8b26 7160
owner: 57447841@N05
title: 21st Internationale Tattoo Convention Berlin
originalsecret: b90f502a5c
originalformat: jpg
o_height: 2304
o_width: 3456
datetaken: 2011-12-04 13:53:17
dateupload: 1323038687
tags: people berlin art tattoo ink deutschland skin contest piercing arena convention bodyart deu schmuck treptow internationale 2011 berlintreptow 21sttattooconventionberlin
license: 0
latitude: 52.496944
longitude: 13.453961
accuracy: 16
views: 54
interestingness: 74 out of 44

photo: 6481009287 0591a29dd3 7157
owner: 43998359@N05
title: Houses beside Torres de Serrano
originalsecret: null
originalformat: null
o_height: null
o_width: null
datetaken: 2011-12-09 09:22:43
dateupload: 1323422563
tags: urban espa?a valencia architecture pen ink watercolor sketch spain arquitectura drawing aquarelle picture watercolour architektur acuarela dibujo tinta spanien arquitecture croquis
license: 0
latitude: 39.469188
longitude: -0.376819
accuracy: 11
views: 7
interestingness: 75 out of 44

photo: 6455240689 fa1527f77d 7010
owner: 27034289@N00
title: Drawing in Bodegas Campos, Cordoba
originalsecret: 66099bbb30
originalformat: jpg
o_height: 1125
o_width: 1500
datetaken: 2011-12-04 15:35:49
dateupload: 1323034140
tags: espa?a ink watercolor sketch andaluc?a spain europa europe drawing sketchbook acuarela andalusia dibujo c?rdoba tinta croquis cuaderno alvarocarnicero drawingbookfromspaincom
license: 0
latitude: 37.881509
longitude: -4.773463
accuracy: 16
views: 76
interestingness: 76 out of 44

photo: 6481680747 05f487f007 7029
owner: 25059422@N00
title: Yuna at work
originalsecret: null
originalformat: null
o_height: null
o_width: null
datetaken: 2011-12-09 22:38:20
dateupload: 1323437900
tags: vacation tattoo nikon australia melbourne fitzroyst stkilda joon yuna d700 jykthemuse ??? joonyoungkim stkildaink
license: 0
latitude: -37.81696
longitude: 144.967346
accuracy: 13
views: 2
interestingness: 77 out of 44

photo: 6481679777 c99b47eb19 7007
owner: 25059422@N00
title: bloody midway
originalsecret: null
originalformat: null
o_height: null
o_width: null
datetaken: 2011-12-09 22:38:00
dateupload: 1323437880
tags: vacation tattoo nikon australia melbourne fitzroyst stkilda joon yuna d700 jykthemuse ??? joonyoungkim stkildaink
license: 0
latitude: -37.81696
longitude: 144.967346
accuracy: 13
views: 3
interestingness: 78 out of 44

photo: 6476068199 acf347db9c 7159
owner: 61552606@N02
title: A league of shadows
originalsecret: null
originalformat: null
o_height: null
o_width: null
datetaken: 2011-12-08 19:56:52
dateupload: 1323338212
tags: original art illustration drawing contemporary australia watercolour gouache inkpen worksonpaper melbourneworksonpaperartoriginaldrawingcontemporarywatercolourgouacheaustraliainkpenillustration
license: 0
latitude: -37.666429
longitude: 144.821777
accuracy: 5
views: 2
interestingness: 79 out of 44

photo: 6476068107 3c029800f7 7026
owner: 61552606@N02
title: Gathering for extended pleasantries
originalsecret: null
originalformat: null
o_height: null
o_width: null
datetaken: 2011-12-08 19:56:50
dateupload: 1323338210
tags: original art illustration drawing contemporary australia watercolour gouache inkpen worksonpaper melbourneworksonpaperartoriginaldrawingcontemporarywatercolourgouacheaustraliainkpenillustration
license: 0
latitude: -37.666429
longitude: 144.821777
accuracy: 5
views: 2
interestingness: 80 out of 44

photo: 6476067965 5a099cc12e 7025
owner: 61552606@N02
title: Birds retreating at b flat
originalsecret: null
originalformat: null
o_height: null
o_width: null
datetaken: 2011-12-08 19:56:47
dateupload: 1323338207
tags: original art illustration drawing contemporary australia watercolour gouache inkpen worksonpaper melbourneworksonpaperartoriginaldrawingcontemporarywatercolourgouacheaustraliainkpenillustration
license: 0
latitude: -37.666429
longitude: 144.821777
accuracy: 5
views: 1
interestingness: 81 out of 44

photo: 6476067801 78affee383 7161
owner: 61552606@N02
title: In search of inaudible quarters
originalsecret: null
originalformat: null
o_height: null
o_width: null
datetaken: 2011-12-08 19:56:43
dateupload: 1323338203
tags: original art illustration drawing contemporary australia watercolour gouache inkpen worksonpaper melbourneworksonpaperartoriginaldrawingcontemporarywatercolourgouacheaustraliainkpenillustration
license: 0
latitude: -37.666429
longitude: 144.821777
accuracy: 5
views: 1
interestingness: 82 out of 44

photo: 6476067763 1aac74df1e 7016
owner: 61552606@N02
title: Assembly for symphonic conclusions
originalsecret: null
originalformat: null
o_height: null
o_width: null
datetaken: 2011-12-08 19:56:42
dateupload: 1323338202
tags: original art illustration drawing contemporary australia watercolour gouache inkpen worksonpaper melbourneworksonpaperartoriginaldrawingcontemporarywatercolourgouacheaustraliainkpenillustration
license: 0
latitude: -37.666429
longitude: 144.821777
accuracy: 5
views: 2
interestingness: 83 out of 44

photo: 6476067729 389d655957 7164
owner: 61552606@N02
title: An exchange for open air flirtations
originalsecret: null
originalformat: null
o_height: null
o_width: null
datetaken: 2011-12-08 19:56:41
dateupload: 1323338201
tags: original art illustration drawing contemporary australia watercolour gouache inkpen worksonpaper melbourneworksonpaperartoriginaldrawingcontemporarywatercolourgouacheaustraliainkpenillustration
license: 0
latitude: -37.666429
longitude: 144.821777
accuracy: 5
views: 2
interestingness: 84 out of 44

photo: 6476067693 7ae69208df 7149
owner: 61552606@N02
title: Seating for rehearsed aeronautics
originalsecret: null
originalformat: null
o_height: null
o_width: null
datetaken: 2011-12-08 19:56:40
dateupload: 1323338200
tags: original art illustration drawing contemporary australia watercolour gouache inkpen worksonpaper melbourneworksonpaperartoriginaldrawingcontemporarywatercolourgouacheaustraliainkpenillustration
license: 0
latitude: -37.666429
longitude: 144.821777
accuracy: 5
views: 3
interestingness: 85 out of 44

photo: 6436731011 2d977aa322 7024
owner: 54778207@N08
title: Gwylan
originalsecret: 5b1d0698ef
originalformat: jpg
o_height: 2354
o_width: 2354
datetaken: 2011-11-19 15:54:01
dateupload: 1322754948
tags: wood art seagull bois mouette gwylan celf pren gwyngalch leblond chaux limewash goelan vale?riane
license: 0
latitude: 52.413519
longitude: -4.096183
accuracy: 16
views: 12
interestingness: 86 out of 44

photo: 6479402143 58b8fe7dab 7154
owner: 69629555@N06
title: 9. Dezember
originalsecret: null
originalformat: null
o_height: null
o_width: null
datetaken: 2011-12-01 00:00:00
dateupload: 1323390647
tags: ink drawing stones sketchbook aquarell
license: 6
latitude: 52.855656
longitude: 11.157217
accuracy: 13
views: 10
interestingness: 87 out of 44

photo: 6481346597 dcaa4e8fc3 7015
owner: 31602258@N07
title: SKETCHBOOK "Poulet noir" ?
originalsecret: c80c8b8159
originalformat: jpg
o_height: 2380
o_width: 1491
datetaken: 2011-12-09 03:41:19
dateupload: 1323430879
tags: france art chicken moleskine pen ink work notebook book sketch berry artist drawing journal bretagne sketchbook creation drawer draw ?criture artbook poulet artiste framboisine locqu?nol? framboisineberry carnetdartiste
license: 0
latitude: 48.627377
longitude: -3.867959
accuracy: 13
views: 12
interestingness: 88 out of 44

photo: 6481022001 5fa153301e 7019
owner: 43998359@N05
title: Weissenhofsiedlung, Stuttgart
originalsecret: null
originalformat: null
o_height: null
o_width: null
datetaken: 2011-12-09 09:28:08
dateupload: 1323422888
tags: urban tree architecture pen ink germany watercolor landscape deutschland sketch arquitectura stuttgart drawing aquarelle picture watercolour architektur alemania bauhaus acuarela dibujo baum tinta arquitecture croquis weissenhofsiedlung
license: 0
latitude: 48.767669
longitude: 9.171919
accuracy: 11
views: 8
interestingness: 89 out of 44

photo: 6475857041 a7169ca963 7031
owner: 51452258@N06
title: Vert ring
originalsecret: 35ab7b3399
originalformat: jpg
o_height: 693
o_width: 1000
datetaken: 2011-12-06 01:25:33
dateupload: 1323333172
tags: green handmade jewelry ring polymerclay romantic ethnic fauxceramic
license: 0
latitude: 49.844661
longitude: 24.028079
accuracy: 11
views: 10
interestingness: 90 out of 44

photo: 6461512713 8ee525fe41 7168
owner: 20424414@N00
title: Glistening ink cap
originalsecret: null
originalformat: null
o_height: null
o_width: null
datetaken: 2011-12-03 14:25:22
dateupload: 1323114478
tags: ink cornwall fungi cap bashing scrub glistening micaceus porkellis corprinus butterflyandmothconservation corprinusmicaceus
license: 0
latitude: 50.154906
longitude: -5.22932
accuracy: 12
views: 15
interestingness: 91 out of 44

photo: 6455931305 cd4cfc5145 7158
owner: 57447841@N05
title: 21st Internationale Tattoo Convention Berlin
originalsecret: ec6394f4e5
originalformat: jpg
o_height: 2304
o_width: 3456
datetaken: 2011-12-04 15:19:22
dateupload: 1323040927
tags: people berlin art tattoo ink deutschland skin contest piercing arena convention bodyart deu schmuck treptow internationale danilo 2011 garbe berlintreptow 21sttattooconventionberlin
license: 0
latitude: 52.496944
longitude: 13.453961
accuracy: 16
views: 66
interestingness: 92 out of 44

photo: 6455576539 5f69b1acb0 7006
owner: 57447841@N05
title: 21st Internationale Tattoo Convention Berlin
originalsecret: 6b8a4437f1
originalformat: jpg
o_height: 2304
o_width: 3456
datetaken: 2011-12-04 13:44:07
dateupload: 1323037404
tags: people berlin art tattoo ink deutschland skin contest piercing arena convention bodyart deu schmuck treptow internationale danilo 2011 garbe berlintreptow 21sttattooconventionberlin
license: 0
latitude: 52.496944
longitude: 13.453961
accuracy: 16
views: 127
interestingness: 93 out of 44

photo: 6442715233 f1854589a2 7150
owner: 32121198@N00
title: Northern Wren Nesting in a Porch Light on Dilapidated House
originalsecret: 384c099ec8
originalformat: jpg
o_height: 4694
o_width: 3608
datetaken: 2011-12-02 10:36:39
dateupload: 1322850999
tags: old light green art glass lamp grass weather birds architecture illustration ink insect us wire globe artwork rust paint nest feeding drawing song antique decay originalart wildlife web tail spiderweb beak rusty insects fluff story wires sing bignose chicks wren nut portfolio northern sketches prismacolor twigs commission troglodytes clapboard dilapidated earwig chirp dilapidatedhouse porchlight chippewa troglodytesaedon alligatoring insectavore inkandpen wildlifeillustration americanbird wildlifedrawing northernus commisionedpiece nestpocket newworldwren sylviadomestica odunamissuguddaweshi bignoiseforitssize
license: 0
latitude: 42.884014
longitude: -78.879604
accuracy: 11
views: 11
interestingness: 94 out of 44

photo: 6287168096 de5db860ef 6038
owner: 28106333@N05
title: Jaguar_Skull_McKie
originalsecret: null
originalformat: null
o_height: null
o_width: null
datetaken: 2011-10-27 16:31:13
dateupload: 1322774845
tags: art animals illustration cat mammal skull blackwhite fineart bigcat jaguar endangered linedrawing penink endangeredspecies markmckie jaguardrawing jaguarskull
license: 0
latitude: 42.412431
longitude: -72.511825
accuracy: 11
views: 63
interestingness: 95 out of 44

photo: 6476068013 edb7fd9bc8 7012
owner: 61552606@N02
title: Outing for uncertain pursuits
originalsecret: null
originalformat: null
o_height: null
o_width: null
datetaken: 2011-12-08 19:56:48
dateupload: 1323338208
tags: original art illustration drawing contemporary australia watercolour gouache inkpen worksonpaper melbourneworksonpaperartoriginaldrawingcontemporarywatercolourgouacheaustraliainkpenillustration
license: 0
latitude: -37.666429
longitude: 144.821777
accuracy: 5
views: 4
interestingness: 96 out of 44

photo: 6455929605 47cb8b4bd3 7033
owner: 57447841@N05
title: 21st Internationale Tattoo Convention Berlin
originalsecret: b01238070f
originalformat: jpg
o_height: 2304
o_width: 3456
datetaken: 2011-12-04 15:19:02
dateupload: 1323040910
tags: people berlin art tattoo ink deutschland skin contest piercing arena convention bodyart deu schmuck treptow internationale danilo 2011 garbe berlintreptow 21sttattooconventionberlin
license: 0
latitude: 52.496944
longitude: 13.453961
accuracy: 16
views: 58
interestingness: 97 out of 44

photo: 6472812253 f777a66352 7158
owner: 34350512@N03
title: Inktpot 18
originalsecret: e1165fe0d7
originalformat: jpg
o_height: 800
o_width: 1200
datetaken: 2011-12-02 11:23:41
dateupload: 1323283164
tags: distortion building stone architecture nikon utrecht dynamic stones ns bricks perspective dramatic hdr inktpot prorail inkjar zyco
license: 0
latitude: 52.08954
longitude: 5.116775
accuracy: 14
views: 2
interestingness: 98 out of 44

photo: 6472807707 cf4b879b58 7167
owner: 34350512@N03
title: Inktpot 11
originalsecret: 0e7aa4219d
originalformat: jpg
o_height: 800
o_width: 1200
datetaken: 2011-12-07 19:35:11
dateupload: 1323283106
tags: distortion building stone architecture nikon utrecht dynamic stones ns bricks perspective dramatic hdr inktpot prorail inkjar zyco
license: 0
latitude: 52.08954
longitude: 5.116775
accuracy: 14
views: 2
interestingness: 99 out of 44

photo: 6472803839 84ba594130 7171
owner: 34350512@N03
title: Inktpot 05
originalsecret: 40702d8f77
originalformat: jpg
o_height: 800
o_width: 1200
datetaken: 2011-12-07 19:34:52
dateupload: 1323283055
tags: distortion building stone architecture nikon utrecht dynamic stones ns bricks perspective dramatic hdr inktpot prorail inkjar zyco
license: 0
latitude: 52.08954
longitude: 5.116775
accuracy: 14
views: 2
interestingness: 100 out of 44

photo: 6453406525 fd3cb8d82a 7031
owner: 16481922@N02
title: Handmade Christmas + New Year greeting cards
originalsecret: null
originalformat: null
o_height: null
o_width: null
datetaken: 2011-11-30 15:50:24
dateupload: 1323015928
tags: christmas new red white typography gold idea golden design handmade postcard year creative craft newyear gifts greetings greetingcards ??????? ????????? ???????? ???????? pennyjey
license: 0
latitude: 48.696229
longitude: 44.476089
accuracy: 12
views: 33
interestingness: 101 out of 44

photo: 6446254105 ba97987bc5 7005
owner: 31536722@N00
title: A Good Night's Sleep
originalsecret: 9f102cf8a7
originalformat: jpg
o_height: 762
o_width: 1024
datetaken: 2011-12-03 12:13:40
dateupload: 1322914438
tags: sleeping moon plant flower window illustration night watercolor stars bed bedroom funny drawing sleep humor cartoon illustrations drawings humour dreaming nighttime dreams laugh watercolour xo cartoons nightcap acrylics penandink xox acrylicpaints acryliccolours agoodnightssleep asleepinbed
license: 3
latitude: 55.048711
longitude: -8.285027
accuracy: 13
views: 14
interestingness: 102 out of 44

photo: 6481681109 90bfac7ac4 7026
owner: 25059422@N00
title: getting pumped
originalsecret: null
originalformat: null
o_height: null
o_width: null
datetaken: 2011-12-09 22:38:28
dateupload: 1323437908
tags: vacation beer tattoo nikon australia melbourne fitzroyst stkilda joon yuna d700 jykthemuse ??? joonyoungkim stkildaink
license: 0
latitude: -37.81696
longitude: 144.967346
accuracy: 13
views: 3
interestingness: 103 out of 44

photo: 6481680341 233c7b029b 7001
owner: 25059422@N00
title: a portrait within a portrait
originalsecret: null
originalformat: null
o_height: null
o_width: null
datetaken: 2011-12-09 22:38:12
dateupload: 1323437892
tags: jykthemuse joonyoungkim nikon d700 melbourne australia vacation stkilda tattoo yuna stkildaink fitzroyst ??? joon
license: 0
latitude: -37.81696
longitude: 144.967346
accuracy: 13
views: 0
interestingness: 104 out of 44

photo: 6481679383 0a99a48939 7150
owner: 25059422@N00
title: phone break
originalsecret: null
originalformat: null
o_height: null
o_width: null
datetaken: 2011-12-09 22:37:53
dateupload: 1323437873
tags: vacation tattoo nikon australia melbourne fitzroyst stkilda joon yuna d700 jykthemuse ??? joonyoungkim stkildaink
license: 0
latitude: -37.81696
longitude: 144.967346
accuracy: 13
views: 0
interestingness: 105 out of 44

photo: 6481678959 a1e3795451 7026
owner: 25059422@N00
title: mad skillz
originalsecret: null
originalformat: null
o_height: null
o_width: null
datetaken: 2011-12-09 22:37:44
dateupload: 1323437864
tags: vacation tattoo nikon australia melbourne fitzroyst stkilda joon yuna d700 jykthemuse ??? joonyoungkim stkildaink
license: 0
latitude: -37.81696
longitude: 144.967346
accuracy: 13
views: 2
interestingness: 106 out of 44

photo: 6481678593 f24f6a93a5 7165
owner: 25059422@N00
title: Reminders
originalsecret: null
originalformat: null
o_height: null
o_width: null
datetaken: 2011-12-09 22:37:37
dateupload: 1323437857
tags: vacation tattoo nikon australia melbourne fitzroyst stkilda joon yuna d700 jykthemuse ??? joonyoungkim stkildaink
license: 0
latitude: -37.81696
longitude: 144.967346
accuracy: 13
views: 0
interestingness: 107 out of 44

photo: 6481678043 5a88ba3771 7151
owner: 25059422@N00
title: grin
originalsecret: null
originalformat: null
o_height: null
o_width: null
datetaken: 2011-12-09 22:37:25
dateupload: 1323437845
tags: vacation tattoo nikon australia melbourne fitzroyst stkilda joon yuna d700 jykthemuse ??? joonyoungkim stkildaink
license: 0
latitude: -37.81696
longitude: 144.967346
accuracy: 13
views: 0
interestingness: 108 out of 44

photo: 6481677815 551da08d1c 7012
owner: 25059422@N00
title: the final clean-up
originalsecret: null
originalformat: null
o_height: null
o_width: null
datetaken: 2011-12-09 22:37:20
dateupload: 1323437840
tags: vacation tattoo nikon australia melbourne fitzroyst stkilda joon yuna d700 jykthemuse ??? joonyoungkim stkildaink
license: 0
latitude: -37.81696
longitude: 144.967346
accuracy: 13
views: 0
interestingness: 109 out of 44

photo: 6481677533 bdb76960d4 7021
owner: 25059422@N00
title: fin ? done
originalsecret: null
originalformat: null
o_height: null
o_width: null
datetaken: 2011-12-09 22:37:14
dateupload: 1323437834
tags: vacation tattoo nikon australia melbourne fitzroyst stkilda joon yuna d700 jykthemuse ??? joonyoungkim stkildaink
license: 0
latitude: -37.81696
longitude: 144.967346
accuracy: 13
views: 2
interestingness: 110 out of 44

photo: 6481346587 5d6c41b128 7002
owner: 31602258@N07
title: SKETCHBOOK "Un temps de chien" ?
originalsecret: 05cdf00694
originalformat: jpg
o_height: 1476
o_width: 2347
datetaken: 2011-12-09 03:41:19
dateupload: 1323430879
tags: dog chien france art moleskine pen ink work notebook book sketch berry artist drawing journal bretagne sketchbook creation drawer draw ?criture artbook artiste framboisine locqu?nol? framboisineberry carnetdartiste
license: 0
latitude: 48.626952
longitude: -3.863239
accuracy: 13
views: 19
interestingness: 111 out of 44

photo: 6478174665 8b696cb0c5 7003
owner: 31958923@N02
title: Through No. 5
originalsecret: 233396e532
originalformat: jpg
o_height: 2716
o_width: 2742
datetaken: 2011-12-07 16:18:32
dateupload: 1323372550
tags: art nc handmade drawing craft newest graphite coloredpencil ballpointpen ghc theshop indiaink greensboronc salesgallery greenhillcenterforncart greenhillcenter mattmicca theshopgreenhillcenter
license: 0
latitude: 36.0736
longitude: -79.788615
accuracy: 15
views: 0
interestingness: 112 out of 44

photo: 6476353233 f8904f2746 7158
owner: 71669595@N03
title: i art ink tattoo studio 16
originalsecret: null
originalformat: null
o_height: null
o_width: null
datetaken: 2011-12-08 13:42:48
dateupload: 1323344568
tags: colour art tattoo ink nicole tattoos script bodyart durban tattooart blackandgrey dustyrich iartinktattoostudio durbantattoo southafricatattoo
license: 0
latitude: -29.863299
longitude: 30.996749
accuracy: 16
views: 1
interestingness: 113 out of 44

photo: 6476352981 537c5b5a4a 7035
owner: 71669595@N03
title: i art ink tattoo studio 15
originalsecret: null
originalformat: null
o_height: null
o_width: null
datetaken: 2011-12-08 13:42:44
dateupload: 1323344564
tags: colour art tattoo ink nicole tattoos script bodyart durban tattooart blackandgrey dustyrich iartinktattoostudio durbantattoo southafricatattoo
license: 0
latitude: -29.863299
longitude: 30.996749
accuracy: 16
views: 1
interestingness: 114 out of 44

photo: 6476352837 05f73f5768 7154
owner: 71669595@N03
title: i art ink tattoo studio 14
originalsecret: null
originalformat: null
o_height: null
o_width: null
datetaken: 2011-12-08 13:42:41
dateupload: 1323344561
tags: colour art tattoo ink nicole tattoos script bodyart durban tattooart blackandgrey dustyrich iartinktattoostudio durbantattoo southafricatattoo
license: 0
latitude: -29.863299
longitude: 30.996749
accuracy: 16
views: 0
interestingness: 115 out of 44

photo: 6476352661 d0c56ce7c2 7157
owner: 71669595@N03
title: i art ink tattoo studio 13
originalsecret: null
originalformat: null
o_height: null
o_width: null
datetaken: 2011-12-08 13:42:38
dateupload: 1323344558
tags: colour art tattoo ink nicole tattoos script bodyart durban tattooart blackandgrey dustyrich iartinktattoostudio durbantattoo southafricatattoo
license: 0
latitude: -29.863299
longitude: 30.996749
accuracy: 16
views: 1
interestingness: 116 out of 44

photo: 6476352457 4eb42b9a0a 7145
owner: 71669595@N03
title: i art ink tattoo studio 12
originalsecret: null
originalformat: null
o_height: null
o_width: null
datetaken: 2011-12-08 13:42:34
dateupload: 1323344554
tags: colour art tattoo ink nicole tattoos script bodyart durban tattooart blackandgrey dustyrich iartinktattoostudio durbantattoo southafricatattoo
license: 0
latitude: -29.863299
longitude: 30.996749
accuracy: 16
views: 1
interestingness: 117 out of 44

photo: 6476352287 d0d8173874 7014
owner: 71669595@N03
title: i art ink tattoo studio 11
originalsecret: null
originalformat: null
o_height: null
o_width: null
datetaken: 2011-12-08 13:42:31
dateupload: 1323344551
tags: colour art tattoo ink nicole tattoos script bodyart durban tattooart blackandgrey dustyrich iartinktattoostudio durbantattoo southafricatattoo
license: 0
latitude: -29.863299
longitude: 30.996749
accuracy: 16
views: 1
interestingness: 118 out of 44

photo: 6476352093 4ec5754412 7011
owner: 71669595@N03
title: i art ink tattoo studio 10
originalsecret: null
originalformat: null
o_height: null
o_width: null
datetaken: 2011-12-08 13:42:27
dateupload: 1323344547
tags: colour art tattoo ink nicole tattoos script bodyart durban tattooart blackandgrey dustyrich iartinktattoostudio durbantattoo southafricatattoo
license: 0
latitude: -29.863299
longitude: 30.996749
accuracy: 16
views: 1
interestingness: 119 out of 44

photo: 6476351881 28292fa048 7152
owner: 71669595@N03
title: i art ink tattoo studio 9
originalsecret: null
originalformat: null
o_height: null
o_width: null
datetaken: 2011-12-08 13:42:23
dateupload: 1323344543
tags: colour art tattoo ink nicole tattoos script bodyart durban tattooart blackandgrey dustyrich iartinktattoostudio durbantattoo southafricatattoo
license: 0
latitude: -29.863299
longitude: 30.996749
accuracy: 16
views: 1
interestingness: 120 out of 44

photo: 6476351645 a309d264f0 7163
owner: 71669595@N03
title: i art ink tattoo studio 8
originalsecret: null
originalformat: null
o_height: null
o_width: null
datetaken: 2011-12-08 13:42:19
dateupload: 1323344539
tags: colour art tattoo ink nicole tattoos script bodyart durban tattooart blackandgrey dustyrich iartinktattoostudio durbantattoo southafricatattoo
license: 0
latitude: -29.863299
longitude: 30.996749
accuracy: 16
views: 1
interestingness: 121 out of 44

photo: 6476351471 0c77abb45f 7161
owner: 71669595@N03
title: i art ink tattoo studio 7
originalsecret: null
originalformat: null
o_height: null
o_width: null
datetaken: 2011-12-08 13:42:16
dateupload: 1323344536
tags: colour art tattoo ink nicole tattoos script bodyart durban tattooart blackandgrey dustyrich iartinktattoostudio durbantattoo southafricatattoo
license: 0
latitude: -29.863299
longitude: 30.996749
accuracy: 16
views: 0
interestingness: 122 out of 44

photo: 6476351291 74af088799 7024
owner: 71669595@N03
title: i art ink tattoo studio 6
originalsecret: null
originalformat: null
o_height: null
o_width: null
datetaken: 2011-12-08 13:42:12
dateupload: 1323344532
tags: colour art tattoo ink nicole tattoos script bodyart durban tattooart blackandgrey dustyrich iartinktattoostudio durbantattoo southafricatattoo
license: 0
latitude: -29.863299
longitude: 30.996749
accuracy: 16
views: 1
interestingness: 123 out of 44

photo: 6476351099 1a50fd81ce 7030
owner: 71669595@N03
title: i art ink tattoo studio 5
originalsecret: null
originalformat: null
o_height: null
o_width: null
datetaken: 2011-12-08 13:42:08
dateupload: 1323344528
tags: colour art tattoo ink nicole tattoos script bodyart durban tattooart blackandgrey dustyrich iartinktattoostudio durbantattoo southafricatattoo
license: 0
latitude: -29.863299
longitude: 30.996749
accuracy: 16
views: 1
interestingness: 124 out of 44

photo: 6476350897 b2272e1006 7150
owner: 71669595@N03
title: i art ink tattoo studio 4
originalsecret: null
originalformat: null
o_height: null
o_width: null
datetaken: 2011-12-08 13:42:04
dateupload: 1323344524
tags: colour art tattoo ink nicole tattoos script bodyart durban tattooart blackandgrey dustyrich iartinktattoostudio durbantattoo southafricatattoo
license: 0
latitude: -29.863299
longitude: 30.996749
accuracy: 16
views: 1
interestingness: 125 out of 44

photo: 6476350567 ebaa91ae00 7165
owner: 71669595@N03
title: i art ink tattoo studio 2
originalsecret: null
originalformat: null
o_height: null
o_width: null
datetaken: 2011-12-08 13:41:58
dateupload: 1323344518
tags: colour art tattoo ink nicole tattoos script bodyart durban tattooart blackandgrey dustyrich iartinktattoostudio durbantattoo southafricatattoo
license: 0
latitude: -29.863299
longitude: 30.996749
accuracy: 16
views: 0
interestingness: 126 out of 44

photo: 6476350367 615c3c2369 7010
owner: 71669595@N03
title: i art ink tattoo studio 1
originalsecret: null
originalformat: null
o_height: null
o_width: null
datetaken: 2011-12-08 13:41:54
dateupload: 1323344514
tags: colour art tattoo ink nicole tattoos script bodyart durban tattooart blackandgrey dustyrich iartinktattoostudio durbantattoo southafricatattoo
license: 0
latitude: -29.863299
longitude: 30.996749
accuracy: 16
views: 0
interestingness: 127 out of 44

photo: 6476350211 39f36edc0a 7026
owner: 71669595@N03
title: i art ink tattoo studio 34
originalsecret: null
originalformat: null
o_height: null
o_width: null
datetaken: 2011-12-08 13:41:50
dateupload: 1323344510
tags: colour art tattoo ink nicole tattoos script bodyart durban tattooart blackandgrey dustyrich iartinktattoostudio durbantattoo southafricatattoo
license: 0
latitude: -29.863299
longitude: 30.996749
accuracy: 16
views: 0
interestingness: 128 out of 44

photo: 6476350083 2981bc2062 7141
owner: 71669595@N03
title: i art ink tattoo studio 33
originalsecret: null
originalformat: null
o_height: null
o_width: null
datetaken: 2011-12-08 13:41:47
dateupload: 1323344507
tags: colour art tattoo ink nicole tattoos script bodyart durban tattooart blackandgrey dustyrich iartinktattoostudio durbantattoo southafricatattoo
license: 0
latitude: -29.863299
longitude: 30.996749
accuracy: 16
views: 1
interestingness: 129 out of 44

photo: 6476349919 0450957d9b 7167
owner: 71669595@N03
title: i art ink tattoo studio 32
originalsecret: null
originalformat: null
o_height: null
o_width: null
datetaken: 2011-12-08 13:41:44
dateupload: 1323344504
tags: colour art tattoo ink nicole tattoos script bodyart durban tattooart blackandgrey dustyrich iartinktattoostudio durbantattoo southafricatattoo
license: 0
latitude: -29.863299
longitude: 30.996749
accuracy: 16
views: 1
interestingness: 130 out of 44

photo: 6476349801 cf539ea47d 7150
owner: 71669595@N03
title: i art ink tattoo studio 31
originalsecret: null
originalformat: null
o_height: null
o_width: null
datetaken: 2011-12-08 13:41:41
dateupload: 1323344501
tags: colour art tattoo ink nicole tattoos script bodyart durban tattooart blackandgrey dustyrich iartinktattoostudio durbantattoo southafricatattoo
license: 0
latitude: -29.863299
longitude: 30.996749
accuracy: 16
views: 1
interestingness: 131 out of 44

photo: 6476349657 ebf6f4eb4a 7006
owner: 71669595@N03
title: i art ink tattoo studio 30
originalsecret: null
originalformat: null
o_height: null
o_width: null
datetaken: 2011-12-08 13:41:38
dateupload: 1323344498
tags: colour art tattoo ink nicole tattoos script bodyart durban tattooart blackandgrey dustyrich iartinktattoostudio durbantattoo southafricatattoo
license: 0
latitude: -29.863299
longitude: 30.996749
accuracy: 16
views: 1
interestingness: 132 out of 44

photo: 6476349515 a530070b99 7157
owner: 71669595@N03
title: i art ink tattoo studio 29
originalsecret: null
originalformat: null
o_height: null
o_width: null
datetaken: 2011-12-08 13:41:35
dateupload: 1323344495
tags: colour art tattoo ink nicole tattoos script bodyart durban tattooart blackandgrey dustyrich iartinktattoostudio durbantattoo southafricatattoo
license: 0
latitude: -29.863299
longitude: 30.996749
accuracy: 16
views: 2
interestingness: 133 out of 44

photo: 6476349371 15520a5bf6 7159
owner: 71669595@N03
title: i art ink tattoo studio 28
originalsecret: null
originalformat: null
o_height: null
o_width: null
datetaken: 2011-12-08 13:41:32
dateupload: 1323344492
tags: colour art tattoo ink nicole tattoos script bodyart durban tattooart blackandgrey dustyrich iartinktattoostudio durbantattoo southafricatattoo
license: 0
latitude: -29.863299
longitude: 30.996749
accuracy: 16
views: 1
interestingness: 134 out of 44

photo: 6476349233 218c594972 7020
owner: 71669595@N03
title: i art ink tattoo studio 27
originalsecret: null
originalformat: null
o_height: null
o_width: null
datetaken: 2011-12-08 13:41:29
dateupload: 1323344489
tags: colour art tattoo ink nicole tattoos script bodyart durban tattooart blackandgrey dustyrich iartinktattoostudio durbantattoo southafricatattoo
license: 0
latitude: -29.863299
longitude: 30.996749
accuracy: 16
views: 1
interestingness: 135 out of 44

photo: 6476349097 9af5df6326 7018
owner: 71669595@N03
title: i art ink tattoo studio 26
originalsecret: null
originalformat: null
o_height: null
o_width: null
datetaken: 2011-12-08 13:41:26
dateupload: 1323344486
tags: colour art tattoo ink nicole tattoos script bodyart durban tattooart blackandgrey dustyrich iartinktattoostudio durbantattoo southafricatattoo
license: 0
latitude: -29.863299
longitude: 30.996749
accuracy: 16
views: 1
interestingness: 136 out of 44

photo: 6476348907 0b82644784 7007
owner: 71669595@N03
title: i art ink tattoo studio 25
originalsecret: null
originalformat: null
o_height: null
o_width: null
datetaken: 2011-12-08 13:41:22
dateupload: 1323344482
tags: colour art tattoo ink nicole tattoos script bodyart durban tattooart blackandgrey dustyrich iartinktattoostudio durbantattoo southafricatattoo
license: 0
latitude: -29.863299
longitude: 30.996749
accuracy: 16
views: 1
interestingness: 137 out of 44

photo: 6476348779 476d187ec2 7002
owner: 71669595@N03
title: i art ink tattoo studio 24
originalsecret: null
originalformat: null
o_height: null
o_width: null
datetaken: 2011-12-08 13:41:19
dateupload: 1323344479
tags: colour art tattoo ink nicole tattoos script bodyart durban tattooart blackandgrey dustyrich iartinktattoostudio durbantattoo southafricatattoo
license: 0
latitude: -29.863299
longitude: 30.996749
accuracy: 16
views: 0
interestingness: 138 out of 44

photo: 6476348649 71d794211f 7146
owner: 71669595@N03
title: i art ink tattoo studio 23a
originalsecret: null
originalformat: null
o_height: null
o_width: null
datetaken: 2011-12-08 13:41:16
dateupload: 1323344476
tags: colour art tattoo ink nicole tattoos script bodyart durban tattooart blackandgrey dustyrich iartinktattoostudio durbantattoo southafricatattoo
license: 0
latitude: -29.863299
longitude: 30.996749
accuracy: 16
views: 0
interestingness: 139 out of 44

photo: 6476348443 c02be3aa7d 7164
owner: 71669595@N03
title: i art ink tattoo studio 23
originalsecret: null
originalformat: null
o_height: null
o_width: null
datetaken: 2011-12-08 13:41:12
dateupload: 1323344472
tags: colour art tattoo ink nicole tattoos script bodyart durban tattooart blackandgrey dustyrich iartinktattoostudio durbantattoo southafricatattoo
license: 0
latitude: -29.863299
longitude: 30.996749
accuracy: 16
views: 1
interestingness: 140 out of 44

photo: 6476348265 78b9e6c6c8 7171
owner: 71669595@N03
title: i art ink tattoo studio 21
originalsecret: null
originalformat: null
o_height: null
o_width: null
datetaken: 2011-12-08 13:41:08
dateupload: 1323344468
tags: colour art tattoo ink nicole tattoos script bodyart durban tattooart blackandgrey dustyrich iartinktattoostudio durbantattoo southafricatattoo
license: 0
latitude: -29.863299
longitude: 30.996749
accuracy: 16
views: 0
interestingness: 141 out of 44

photo: 6476348083 ec392ab690 7175
owner: 71669595@N03
title: i art ink tattoo studio 20
originalsecret: null
originalformat: null
o_height: null
o_width: null
datetaken: 2011-12-08 13:41:05
dateupload: 1323344465
tags: colour art tattoo ink nicole tattoos script bodyart durban tattooart blackandgrey dustyrich iartinktattoostudio durbantattoo southafricatattoo
license: 0
latitude: -29.863299
longitude: 30.996749
accuracy: 16
views: 1
interestingness: 142 out of 44

photo: 6476347923 40a1d35555 7150
owner: 71669595@N03
title: i art ink tattoo studio 19
originalsecret: null
originalformat: null
o_height: null
o_width: null
datetaken: 2011-12-08 13:41:02
dateupload: 1323344462
tags: colour art tattoo ink nicole tattoos script bodyart durban tattooart blackandgrey dustyrich iartinktattoostudio durbantattoo southafricatattoo
license: 0
latitude: -29.863299
longitude: 30.996749
accuracy: 16
views: 1
interestingness: 143 out of 44

photo: 6476347737 8987c0d935 7147
owner: 71669595@N03
title: i art ink tattoo studio 18
originalsecret: null
originalformat: null
o_height: null
o_width: null
datetaken: 2011-12-08 13:40:58
dateupload: 1323344458
tags: colour art tattoo ink nicole tattoos script bodyart durban tattooart blackandgrey dustyrich iartinktattoostudio durbantattoo southafricatattoo
license: 0
latitude: -29.863299
longitude: 30.996749
accuracy: 16
views: 1
interestingness: 144 out of 44

photo: 6476347595 997e38bae8 7155
owner: 71669595@N03
title: i art ink tattoo studio 17
originalsecret: null
originalformat: null
o_height: null
o_width: null
datetaken: 2011-12-08 13:40:55
dateupload: 1323344455
tags: colour art tattoo ink nicole tattoos script bodyart durban tattooart blackandgrey dustyrich iartinktattoostudio durbantattoo southafricatattoo
license: 0
latitude: -29.863299
longitude: 30.996749
accuracy: 16
views: 1
interestingness: 145 out of 44

photo: 6476347405 5d11a79439 7025
owner: 71669595@N03
title: i art ink tattoo studio 41
originalsecret: null
originalformat: null
o_height: null
o_width: null
datetaken: 2011-12-08 13:40:52
dateupload: 1323344452
tags: colour art tattoo ink nicole tattoos script bodyart durban tattooart blackandgrey dustyrich iartinktattoostudio durbantattoo southafricatattoo
license: 0
latitude: -29.863299
longitude: 30.996749
accuracy: 16
views: 1
interestingness: 146 out of 44

photo: 6476347071 ed46effb74 7003
owner: 71669595@N03
title: i art ink tattoo studio 39
originalsecret: null
originalformat: null
o_height: null
o_width: null
datetaken: 2011-12-08 13:40:45
dateupload: 1323344445
tags: colour art tattoo ink nicole tattoos script bodyart durban tattooart blackandgrey dustyrich iartinktattoostudio durbantattoo southafricatattoo
license: 0
latitude: -29.863299
longitude: 30.996749
accuracy: 16
views: 0
interestingness: 147 out of 44

photo: 6476346909 4e96c246e2 7030
owner: 71669595@N03
title: i art ink tattoo studio 38
originalsecret: null
originalformat: null
o_height: null
o_width: null
datetaken: 2011-12-08 13:40:41
dateupload: 1323344441
tags: colour art tattoo ink nicole tattoos script bodyart durban tattooart blackandgrey dustyrich iartinktattoostudio durbantattoo southafricatattoo
license: 0
latitude: -29.863299
longitude: 30.996749
accuracy: 16
views: 1
interestingness: 148 out of 44

photo: 6476346717 e492e51e8b 7154
owner: 71669595@N03
title: i art ink tattoo studio 37
originalsecret: null
originalformat: null
o_height: null
o_width: null
datetaken: 2011-12-08 13:40:37
dateupload: 1323344437
tags: colour art tattoo ink nicole tattoos script bodyart durban tattooart blackandgrey dustyrich iartinktattoostudio durbantattoo southafricatattoo
license: 0
latitude: -29.863299
longitude: 30.996749
accuracy: 16
views: 1
interestingness: 149 out of 44

photo: 6476346543 c8d95a648b 7167
owner: 71669595@N03
title: i art ink tattoo studio 36
originalsecret: null
originalformat: null
o_height: null
o_width: null
datetaken: 2011-12-08 13:40:34
dateupload: 1323344434
tags: colour art tattoo ink nicole tattoos script bodyart durban tattooart blackandgrey dustyrich iartinktattoostudio durbantattoo southafricatattoo
license: 0
latitude: -29.863299
longitude: 30.996749
accuracy: 16
views: 0
interestingness: 150 out of 44

photo: 6476346385 130781e9bb 7152
owner: 71669595@N03
title: i art ink tattoo studio 35
originalsecret: null
originalformat: null
o_height: null
o_width: null
datetaken: 2011-12-08 13:40:31
dateupload: 1323344431
tags: colour art tattoo ink nicole tattoos script bodyart durban tattooart blackandgrey dustyrich iartinktattoostudio durbantattoo southafricatattoo
license: 0
latitude: -29.863299
longitude: 30.996749
accuracy: 16
views: 1
interestingness: 151 out of 44

photo: 6476068055 060b7e09c8 7161
owner: 61552606@N02
title: Birds ascending at c minor
originalsecret: null
originalformat: null
o_height: null
o_width: null
datetaken: 2011-12-08 19:56:49
dateupload: 1323338209
tags: original art illustration drawing contemporary australia watercolour gouache inkpen worksonpaper melbourneworksonpaperartoriginaldrawingcontemporarywatercolourgouacheaustraliainkpenillustration
license: 0
latitude: -37.666429
longitude: 144.821777
accuracy: 5
views: 2
interestingness: 152 out of 44

photo: 6476067927 f4fecc6637 7025
owner: 61552606@N02
title: Agency for tea & geometry
originalsecret: null
originalformat: null
o_height: null
o_width: null
datetaken: 2011-12-08 19:56:46
dateupload: 1323338206
tags: original art illustration drawing contemporary australia watercolour gouache inkpen worksonpaper melbourneworksonpaperartoriginaldrawingcontemporarywatercolourgouacheaustraliainkpenillustration
license: 0
latitude: -37.666429
longitude: 144.821777
accuracy: 5
views: 1
interestingness: 153 out of 44

photo: 6476067853 dc90c4d181 7024
owner: 61552606@N02
title: Advancing in familiar light
originalsecret: null
originalformat: null
o_height: null
o_width: null
datetaken: 2011-12-08 19:56:44
dateupload: 1323338204
tags: original art illustration drawing contemporary australia watercolour gouache inkpen worksonpaper melbourneworksonpaperartoriginaldrawingcontemporarywatercolourgouacheaustraliainkpenillustration
license: 0
latitude: -37.666429
longitude: 144.821777
accuracy: 5
views: 1
interestingness: 154 out of 44

photo: 6476067653 f0f94ceab5 7030
owner: 61552606@N02
title: Lessons in landscaping with music
originalsecret: null
originalformat: null
o_height: null
o_width: null
datetaken: 2011-12-08 19:56:39
dateupload: 1323338199
tags: original art illustration drawing contemporary australia watercolour gouache inkpen worksonpaper melbourneworksonpaperartoriginaldrawingcontemporarywatercolourgouacheaustraliainkpenillustration
license: 0
latitude: -37.666429
longitude: 144.821777
accuracy: 5
views: 3
interestingness: 155 out of 44

photo: 6473583995 49c6eefbc5 7006
owner: 41973381@N00
title: End the war - broke
originalsecret: null
originalformat: null
o_height: null
o_width: null
datetaken: 2011-12-07 12:29:06
dateupload: 1323293449
tags: california pen ink campus berkeley sticker war university end uc broke
license: 0
latitude: 37.870667
longitude: -122.261833
accuracy: 16
views: 2
interestingness: 156 out of 44

photo: 6472815799 fcd4d53a93 7151
owner: 34350512@N03
title: Inktpot 24
originalsecret: 9bbd19bbb9
originalformat: jpg
o_height: 800
o_width: 1200
datetaken: 2011-12-02 11:44:48
dateupload: 1323283212
tags: distortion building stone architecture nikon utrecht dynamic stones ns bricks perspective dramatic hdr inktpot prorail inkjar zyco
license: 0
latitude: 52.08954
longitude: 5.116775
accuracy: 14
views: 2
interestingness: 157 out of 44

photo: 6472815181 8e5924ca7b 7163
owner: 34350512@N03
title: Inktpot 23
originalsecret: 93fa19b0e4
originalformat: jpg
o_height: 800
o_width: 1202
datetaken: 2011-12-02 11:43:07
dateupload: 1323283204
tags: distortion building stone architecture nikon utrecht dynamic stones ns bricks perspective dramatic hdr inktpot prorail inkjar zyco
license: 0
latitude: 52.08954
longitude: 5.116775
accuracy: 14
views: 2
interestingness: 158 out of 44

photo: 6472814555 943bcf61dd 7021
owner: 34350512@N03
title: Inktpot 22
originalsecret: f1c8704540
originalformat: jpg
o_height: 800
o_width: 1202
datetaken: 2011-12-02 11:41:25
dateupload: 1323283196
tags: distortion building stone architecture nikon utrecht dynamic stones ns bricks perspective dramatic hdr inktpot prorail inkjar zyco
license: 0
latitude: 52.08954
longitude: 5.116775
accuracy: 14
views: 3
interestingness: 159 out of 44

photo: 6472813933 b925284de5 7173
owner: 34350512@N03
title: Inktpot 21
originalsecret: 7e693d968b
originalformat: jpg
o_height: 800
o_width: 1200
datetaken: 2011-12-02 12:07:31
dateupload: 1323283188
tags: distortion building stone architecture nikon utrecht dynamic stones ns bricks perspective dramatic hdr inktpot prorail inkjar zyco
license: 0
latitude: 52.08954
longitude: 5.116775
accuracy: 14
views: 5
interestingness: 160 out of 44

photo: 6472813389 991b337f70 7015
owner: 34350512@N03
title: Inktpot 20
originalsecret: 02f1982df2
originalformat: jpg
o_height: 800
o_width: 1200
datetaken: 2011-12-07 19:35:39
dateupload: 1323283180
tags: distortion building stone architecture nikon utrecht dynamic stones ns bricks perspective dramatic hdr inktpot prorail inkjar zyco
license: 0
latitude: 52.08954
longitude: 5.116775
accuracy: 14
views: 2
interestingness: 161 out of 44

photo: 6472812849 cc34155fab 7019
owner: 34350512@N03
title: Inktpot 19
originalsecret: c8a0da3ac4
originalformat: jpg
o_height: 800
o_width: 1200
datetaken: 2011-12-02 11:11:00
dateupload: 1323283172
tags: distortion building stone architecture nikon utrecht dynamic stones ns bricks perspective dramatic hdr inktpot prorail inkjar zyco
license: 0
latitude: 52.08954
longitude: 5.116775
accuracy: 14
views: 6
interestingness: 162 out of 44

photo: 6472811625 00acaf37e8 7156
owner: 34350512@N03
title: Inktpot 17
originalsecret: de0b964ce5
originalformat: jpg
o_height: 800
o_width: 1200
datetaken: 2011-12-07 19:39:16
dateupload: 1323283156
tags: distortion building stone architecture nikon utrecht dynamic stones ns bricks perspective dramatic hdr inktpot prorail inkjar zyco
license: 0
latitude: 52.08954
longitude: 5.116775
accuracy: 14
views: 5
interestingness: 163 out of 44

photo: 6472810937 5c94f4a8da 7164
owner: 34350512@N03
title: Inktpot 16
originalsecret: 0d86102780
originalformat: jpg
o_height: 800
o_width: 1200
datetaken: 2011-12-02 12:22:49
dateupload: 1323283148
tags: distortion building stone architecture nikon utrecht dynamic stones ns bricks perspective dramatic hdr inktpot prorail inkjar zyco
license: 0
latitude: 52.08954
longitude: 5.116775
accuracy: 14
views: 1
interestingness: 164 out of 44

photo: 6472810267 574933a2ca 7156
owner: 34350512@N03
title: Inktpot 15
originalsecret: 97e8f9ec6e
originalformat: jpg
o_height: 800
o_width: 1202
datetaken: 2011-12-02 10:52:46
dateupload: 1323283139
tags: distortion building stone architecture nikon utrecht dynamic stones ns bricks perspective dramatic hdr inktpot prorail inkjar zyco
license: 0
latitude: 52.08954
longitude: 5.116775
accuracy: 14
views: 1
interestingness: 165 out of 44

photo: 6472809569 647cf4e708 7016
owner: 34350512@N03
title: Inktpot 14
originalsecret: 861134c2bc
originalformat: jpg
o_height: 800
o_width: 1202
datetaken: 2011-12-02 10:54:49
dateupload: 1323283131
tags: distortion building stone architecture nikon utrecht dynamic stones ns bricks perspective dramatic hdr inktpot prorail inkjar zyco
license: 0
latitude: 52.08954
longitude: 5.116775
accuracy: 14
views: 3
interestingness: 166 out of 44

photo: 6472808983 eb8f2b8d96 7027
owner: 34350512@N03
title: Inktpot 13
originalsecret: 4e94f44cab
originalformat: jpg
o_height: 800
o_width: 1200
datetaken: 2011-12-02 11:29:36
dateupload: 1323283122
tags: distortion building stone architecture nikon utrecht dynamic stones ns bricks perspective dramatic hdr inktpot prorail inkjar zyco
license: 0
latitude: 52.08954
longitude: 5.116775
accuracy: 14
views: 1
interestingness: 167 out of 44

photo: 6472808371 0be6178f4b 7155
owner: 34350512@N03
title: Inktpot 12
originalsecret: 4da6099e08
originalformat: jpg
o_height: 800
o_width: 1202
datetaken: 2011-12-02 12:32:28
dateupload: 1323283114
tags: distortion building stone architecture nikon utrecht dynamic stones ns bricks perspective dramatic hdr inktpot prorail inkjar zyco
license: 0
latitude: 52.08954
longitude: 5.116775
accuracy: 14
views: 1
interestingness: 168 out of 44

photo: 6472807095 876021baf0 7157
owner: 34350512@N03
title: Inktpot 10
originalsecret: c31e982748
originalformat: jpg
o_height: 800
o_width: 1202
datetaken: 2011-12-02 12:24:24
dateupload: 1323283098
tags: distortion building stone architecture nikon utrecht dynamic stones ns bricks perspective dramatic hdr inktpot prorail inkjar zyco
license: 0
latitude: 52.08954
longitude: 5.116775
accuracy: 14
views: 3
interestingness: 169 out of 44

photo: 6472806489 d8b2735086 7174
owner: 34350512@N03
title: Inktpot 09
originalsecret: d8fee2a82c
originalformat: jpg
o_height: 800
o_width: 1200
datetaken: 2011-12-02 13:09:09
dateupload: 1323283090
tags: distortion building stone architecture nikon utrecht dynamic stones ns bricks perspective dramatic hdr inktpot prorail inkjar zyco
license: 0
latitude: 52.08954
longitude: 5.116775
accuracy: 14
views: 2
interestingness: 170 out of 44

photo: 6472805829 51868a04d4 7162
owner: 34350512@N03
title: Inktpot 08
originalsecret: 625fef71d9
originalformat: jpg
o_height: 800
o_width: 1200
datetaken: 2011-12-07 19:35:00
dateupload: 1323283081
tags: distortion building stone architecture nikon utrecht dynamic stones ns bricks perspective dramatic hdr inktpot prorail inkjar zyco
license: 0
latitude: 52.08954
longitude: 5.116775
accuracy: 14
views: 1
interestingness: 171 out of 44

photo: 6472805109 11a8314e84 7031
owner: 34350512@N03
title: Inktpot 07
originalsecret: d98ebae109
originalformat: jpg
o_height: 800
o_width: 1202
datetaken: 2011-12-07 19:34:57
dateupload: 1323283071
tags: distortion building stone architecture nikon utrecht dynamic stones ns bricks perspective dramatic hdr inktpot prorail inkjar zyco
license: 0
latitude: 52.08954
longitude: 5.116775
accuracy: 14
views: 1
interestingness: 172 out of 44

photo: 6472804533 4a42919ca3 7023
owner: 34350512@N03
title: Inktpot 06
originalsecret: abbcd7a4ef
originalformat: jpg
o_height: 800
o_width: 1200
datetaken: 2011-12-07 19:34:54
dateupload: 1323283064
tags: distortion building stone architecture nikon utrecht dynamic stones ns bricks perspective dramatic hdr inktpot prorail inkjar zyco
license: 0
latitude: 52.08954
longitude: 5.116775
accuracy: 14
views: 1
interestingness: 173 out of 44

photo: 6472803151 991a01a0eb 7017
owner: 34350512@N03
title: Inktpot 03
originalsecret: d6fde99825
originalformat: jpg
o_height: 800
o_width: 1202
datetaken: 2011-12-07 19:34:45
dateupload: 1323283046
tags: distortion building stone architecture nikon utrecht dynamic stones ns bricks perspective dramatic hdr inktpot prorail inkjar zyco
license: 0
latitude: 52.08954
longitude: 5.116775
accuracy: 14
views: 1
interestingness: 174 out of 44

photo: 6472802577 13aac21982 7022
owner: 34350512@N03
title: Inktpot 02
originalsecret: fc3ede6436
originalformat: jpg
o_height: 800
o_width: 1202
datetaken: 2011-12-02 10:27:32
dateupload: 1323283039
tags: distortion building stone architecture nikon utrecht dynamic stones ns bricks perspective dramatic hdr inktpot prorail inkjar zyco
license: 0
latitude: 52.08954
longitude: 5.116775
accuracy: 14
views: 1
interestingness: 175 out of 44

photo: 6472802149 5188f2a6a5 7033
owner: 34350512@N03
title: Inktpot 01
originalsecret: 8dce6c4f76
originalformat: jpg
o_height: 800
o_width: 1200
datetaken: 2011-12-02 13:17:17
dateupload: 1323283033
tags: distortion building stone architecture nikon utrecht dynamic stones ns bricks perspective dramatic hdr inktpot prorail inkjar zyco
license: 0
latitude: 52.08954
longitude: 5.116775
accuracy: 14
views: 1
interestingness: 176 out of 44

photo: 6472801407 15e56775a3 7001
owner: 34350512@N03
title: Inktpot 04
originalsecret: 2418bb0fdf
originalformat: jpg
o_height: 800
o_width: 1202
datetaken: 2011-12-07 19:34:48
dateupload: 1323283022
tags: distortion building stone architecture nikon utrecht dynamic stones ns bricks perspective dramatic hdr inktpot prorail inkjar zyco
license: 0
latitude: 52.08954
longitude: 5.116775
accuracy: 14
views: 1
interestingness: 177 out of 44

photo: 6472190309 58308879d4 7162
owner: 54564271@N03
title: Catherine Choi  ?2011 7
originalsecret: 835744e071
originalformat: jpg
o_height: 415
o_width: 504
datetaken: 2011-12-01 11:34:58
dateupload: 1323275122
tags: art public nashville visualarts arts ap ib hhs internationalbaccalaureate art? commission? ?photography? ?fine ?advanced ?tennessee ?nashville hillsborohighschool ?ap? catherinechoi ?metro placement? tennessee? schools? carolhagen nashvillearts chagenstudio martiprofittstreuli hhsvisualarttechnologygrant visualarticle artbyinternationalbaccalaureatestudents
license: 0
latitude: 36.107482
longitude: -86.812806
accuracy: 15
views: 13
interestingness: 178 out of 44

photo: 6472107231 fe27c1750a 7027
owner: 54564271@N03
title: Joyce Yoo ?2011 04
originalsecret: 475031864d
originalformat: jpg
o_height: 471
o_width: 504
datetaken: 2011-12-06 06:18:43
dateupload: 1323274090
tags: art public nashville visualarts arts ap ib hhs internationalbaccalaureate art? commission? ?photography? ?fine ?advanced ?tennessee ?nashville hillsborohighschool ?ap? ?metro placement? tennessee? schools? carolhagen nashvillearts chagenstudio martiprofittstreuli hhsvisualarttechnologygrant visualarticle artbyinternationalbaccalaureatestudents joyceyoo
license: 0
latitude: 36.107482
longitude: -86.812806
accuracy: 15
views: 6
interestingness: 179 out of 44

photo: 6472107109 47e6c9e0e7 7151
owner: 54564271@N03
title: Joyce Yoo ?2011 05
originalsecret: d09eb11075
originalformat: jpg
o_height: 468
o_width: 504
datetaken: 2011-12-06 06:18:44
dateupload: 1323274089
tags: hillsborohighschool visualarts internationalbaccalaureate ?photography? martiprofittstreuli nashvillearts ?nashville tennessee? ?advanced placement? ?ap? ?metro nashville public schools? arts commission? ?tennessee ?fine art? visualarticle carolhagen hhsvisualarttechnologygrant chagenstudio hhs ap ib art artbyinternationalbaccalaureatestudents joyceyoo
license: 0
latitude: 36.107482
longitude: -86.812806
accuracy: 15
views: 5
interestingness: 180 out of 44

photo: 6472039547 77f623cb8b 7029
owner: 54564271@N03
title: Nelly Anaya ?2011 05
originalsecret: 1bde1c998b
originalformat: jpg
o_height: 504
o_width: 409
datetaken: 2011-12-06 06:08:40
dateupload: 1323273261
tags: art public nashville visualarts arts ap ib hhs internationalbaccalaureate art? commission? ?photography? ?fine ?advanced ?tennessee ?nashville hillsborohighschool ?ap? ?metro placement? tennessee? schools? carolhagen nashvillearts chagenstudio martiprofittstreuli hhsvisualarttechnologygrant visualarticle artbyinternationalbaccalaureatestudents nellyanaya
license: 0
latitude: 36.107482
longitude: -86.812806
accuracy: 15
views: 6
interestingness: 181 out of 44

photo: 6472039265 ae91ca7914 7174
owner: 54564271@N03
title: Nelly Anaya ?2011 07
originalsecret: 27c6049a4a
originalformat: jpg
o_height: 504
o_width: 384
datetaken: 2011-12-01 11:38:42
dateupload: 1323273258
tags: art public nashville visualarts arts ap ib hhs internationalbaccalaureate art? commission? ?photography? ?fine ?advanced ?tennessee ?nashville hillsborohighschool ?ap? ?metro placement? tennessee? schools? carolhagen nashvillearts chagenstudio martiprofittstreuli hhsvisualarttechnologygrant visualarticle artbyinternationalbaccalaureatestudents nellyanaya
license: 0
latitude: 36.107482
longitude: -86.812806
accuracy: 15
views: 6
interestingness: 182 out of 44

photo: 6471642417 6b2e54d5c8 7142
owner: 54564271@N03
title: Naomi Daniel ?2011 11
originalsecret: bae05e7c89
originalformat: jpg
o_height: 339
o_width: 504
datetaken: 2011-11-30 05:20:59
dateupload: 1323267874
tags: art public nashville visualarts arts ap ib hhs internationalbaccalaureate art? commission? ?photography? ?fine naomidaniel ?advanced ?tennessee ?nashville hillsborohighschool ?ap? ?metro placement? tennessee? schools? carolhagen nashvillearts chagenstudio martiprofittstreuli hhsvisualarttechnologygrant visualarticle artbyinternationalbaccalaureatestudents
license: 0
latitude: 36.107482
longitude: -86.812806
accuracy: 15
views: 5
interestingness: 183 out of 44

photo: 6471642379 8d92093780 7162
owner: 54564271@N03
title: Naomi Daniel ?2011 10
originalsecret: 4e3b820147
originalformat: jpg
o_height: 367
o_width: 504
datetaken: 2011-11-30 05:13:11
dateupload: 1323267873
tags: hillsborohighschool visualarts internationalbaccalaureate ?photography? martiprofittstreuli nashvillearts ?nashville tennessee? ?advanced placement? ?ap? ?metro nashville public schools? arts commission? ?tennessee ?fine art? visualarticle carolhagen hhsvisualarttechnologygrant chagenstudio hhs ap ib art artbyinternationalbaccalaureatestudents naomidaniel
license: 0
latitude: 36.107482
longitude: -86.812806
accuracy: 15
views: 4
interestingness: 184 out of 44

photo: 6471642309 b372acf131 7152
owner: 54564271@N03
title: Naomi Daniel ?2011 09
originalsecret: cb1cb4a50e
originalformat: jpg
o_height: 504
o_width: 388
datetaken: 2011-11-30 05:10:28
dateupload: 1323267872
tags: art public nashville visualarts arts ap ib hhs internationalbaccalaureate art? commission? ?photography? ?fine naomidaniel ?advanced ?tennessee ?nashville hillsborohighschool ?ap? ?metro placement? tennessee? schools? carolhagen nashvillearts chagenstudio martiprofittstreuli hhsvisualarttechnologygrant visualarticle artbyinternationalbaccalaureatestudents
license: 0
latitude: 36.107482
longitude: -86.812806
accuracy: 15
views: 3
interestingness: 185 out of 44

photo: 6466844633 c72d4abd4a 7141
owner: 32121198@N00
title: Northern Wren and Nosy Chicks Hiding Under Eaves of a Dilapidated Barn.
originalsecret: 6c165c2d3b
originalformat: jpg
o_height: 4688
o_width: 3600
datetaken: 2011-12-06 09:31:31
dateupload: 1323192691
tags: old red art weather birds illustration danger barn ink insect us flying wire artwork rust paint nest drawing hawk song decay originalart wildlife tail small beak story nails raptor sing bignose chicks wren prey portfolio gliding hiding predator northern sketches prismacolor commission troglodytes eaves dilapidated chirp redtailedhawk buteojamaicensis chippewa buteo metalroof troglodytesaedon cutnails barnred barnsiding insectavore inkandpen wildlifeillustration americanbird wildlifedrawing northernus commisionedpiece newworldwren sylviadomestica odunamissuguddaweshi bignoiseforitssize nestpair
license: 0
latitude: 42.885272
longitude: -78.879261
accuracy: 11
views: 7
interestingness: 186 out of 44

photo: 6458481623 406015de3f 7144
owner: 62351094@N02
title: ???? Ink landscape
originalsecret: null
originalformat: null
o_height: null
o_width: null
datetaken: 2011-12-04 17:13:05
dateupload: 1323073041
tags: taiwan ?? ?? ? ??? ??? ??
license: 0
latitude: 24.059631
longitude: 121.159114
accuracy: 11
views: 6
interestingness: 187 out of 44

photo: 6442409943 10bac8d08a 7019
owner: 35535885@N03
title: U of U vs. BYU   - Gingerbread Houses
originalsecret: b9a90330ed
originalformat: jpg
o_height: 2578
o_width: 2129
datetaken: 2011-11-30 15:17:37
dateupload: 1322846807
tags: christmas trees decorations rivalry festival hospital gingerbread childrens primary byu uofu 2011
license: 0
latitude: 40.580336
longitude: -111.890505
accuracy: 16
views: 4
interestingness: 188 out of 44

photo: 6439142505 e8e88635f5 7027
owner: 68678468@N06
title: millennium fountain, sault ste. marie, ontario
originalsecret: 5da30b7f3c
originalformat: jpg
o_height: 1024
o_width: 680
datetaken: 2011-08-26 21:04:59
dateupload: 1322787889
tags: sky storm colour fountain rain night ink bench fire glow waterfront soo saultstemarie stmarysriver millenniumfountain clerguepark
license: 0
latitude: 46.505437
longitude: -84.332363
accuracy: 16
views: 8
interestingness: 189 out of 44

photo: 6438662343 38867b71ed 7004
owner: 39651478@N05
title: Art Practice Department Honor Student Show, Worth Ryder Gallery, UC Berkeley _ 8554
originalsecret: 8e71c023cf
originalformat: jpg
o_height: 375
o_width: 500
datetaken: 2011-11-30 18:00:41
dateupload: 1322780516
tags: sculpture art print berkeley gallery drawing installation uc universityofcalifornia worthrydergallery
license: 0
latitude: 37.869539
longitude: -122.254963
accuracy: 16
views: 11
interestingness: 190 out of 44

photo: 6437850081 b3d12a01e1 7009
owner: 68890175@N04
title: Scream Hungry
originalsecret: null
originalformat: null
o_height: null
o_width: null
datetaken: 2011-10-28 03:45:30
dateupload: 1322770022
tags: art love illustration pen ink sketch flickr artist sydney brush edgar draw biro bic ballpointpen artporn edgarr
license: 0
latitude: -33.884384
longitude: 151.208102
accuracy: 16
views: 32
interestingness: 191 out of 44

photo: 6436116371 7f1fed780d 7018
owner: 66118090@N03
title: CONIL INK "NEW TRIP" 1
originalsecret: null
originalformat: null
o_height: null
o_width: null
datetaken: 2011-12-01 01:21:04
dateupload: 1322745664
tags: madrid trip sunset art set tattoo angel ink studio de 1 la luca simone arte time albert el chapter randagio frontera vita conil palmar polynesian vejer righi kaifas randagia
license: 0
latitude: 40.437671
longitude: -3.715267
accuracy: 14
views: 27
interestingness: 192 out of 44

photo: 6436116139 82862dcd72 7016
owner: 66118090@N03
title: CONIL INK "NEW TRIP" 1
originalsecret: null
originalformat: null
o_height: null
o_width: null
datetaken: 2011-12-01 01:21:00
dateupload: 1322745660
tags: madrid trip sunset art set tattoo angel ink studio de 1 la luca simone arte time albert el chapter randagio frontera vita conil palmar polynesian vejer righi kaifas randagia
license: 0
latitude: 40.437671
longitude: -3.715267
accuracy: 14
views: 25
interestingness: 193 out of 44

photo: 6436115829 af877ce60b 7013
owner: 66118090@N03
title: CONIL INK "NEW TRIP" 1
originalsecret: null
originalformat: null
o_height: null
o_width: null
datetaken: 2011-12-01 01:20:54
dateupload: 1322745654
tags: madrid trip sunset art set tattoo angel ink studio de 1 la luca simone arte time albert el chapter randagio frontera vita conil palmar polynesian vejer righi kaifas randagia
license: 0
latitude: 40.437671
longitude: -3.715267
accuracy: 14
views: 28
interestingness: 194 out of 44

photo: 6436115615 d5d978b032 7001
owner: 66118090@N03
title: CONIL INK "NEW TRIP" 1
originalsecret: null
originalformat: null
o_height: null
o_width: null
datetaken: 2011-12-01 01:20:50
dateupload: 1322745650
tags: madrid trip sunset art set tattoo angel ink studio de 1 la luca simone arte time albert el chapter randagio frontera vita conil palmar polynesian vejer righi kaifas randagia
license: 0
latitude: 40.437671
longitude: -3.715267
accuracy: 14
views: 32
interestingness: 195 out of 44

photo: 6436115407 d0b10e6289 7021
owner: 66118090@N03
title: CONIL INK "NEW TRIP" 1
originalsecret: null
originalformat: null
o_height: null
o_width: null
datetaken: 2011-12-01 01:20:46
dateupload: 1322745646
tags: madrid trip sunset art set tattoo angel ink studio de 1 la luca simone arte time albert el chapter randagio frontera vita conil palmar polynesian vejer righi kaifas randagia
license: 0
latitude: 40.437671
longitude: -3.715267
accuracy: 14
views: 26
interestingness: 196 out of 44

photo: 6436115243 5b93a18c71 7162
owner: 66118090@N03
title: CONIL INK "NEW TRIP" 1
originalsecret: null
originalformat: null
o_height: null
o_width: null
datetaken: 2011-12-01 01:20:43
dateupload: 1322745643
tags: madrid trip sunset art set tattoo angel ink studio de 1 la luca simone arte time albert el chapter randagio frontera vita conil palmar polynesian vejer righi kaifas randagia
license: 0
latitude: 40.437671
longitude: -3.715267
accuracy: 14
views: 29
interestingness: 197 out of 44

photo: 6436115019 89df36912b 7023
owner: 66118090@N03
title: CONIL INK "NEW TRIP" 1
originalsecret: null
originalformat: null
o_height: null
o_width: null
datetaken: 2011-12-01 01:20:39
dateupload: 1322745639
tags: madrid trip sunset art set tattoo angel ink studio de 1 la luca simone arte time albert el chapter randagio frontera vita conil palmar polynesian vejer righi kaifas randagia
license: 0
latitude: 40.437671
longitude: -3.715267
accuracy: 14
views: 20
interestingness: 198 out of 44

photo: 6436114875 229d645af5 7016
owner: 66118090@N03
title: CONIL INK "NEW TRIP" 1
originalsecret: null
originalformat: null
o_height: null
o_width: null
datetaken: 2011-12-01 01:20:36
dateupload: 1322745636
tags: madrid trip sunset art set tattoo angel ink studio de 1 la luca simone arte time albert el chapter randagio frontera vita conil palmar polynesian vejer righi kaifas randagia
license: 0
latitude: 40.437671
longitude: -3.715267
accuracy: 14
views: 22
interestingness: 199 out of 44

photo: 6436114655 92432fbbe1 7165
owner: 66118090@N03
title: CONIL INK "NEW TRIP" 1
originalsecret: null
originalformat: null
o_height: null
o_width: null
datetaken: 2011-12-01 01:20:32
dateupload: 1322745632
tags: madrid trip sunset art set tattoo angel ink studio de 1 la luca simone arte time albert el chapter randagio frontera vita conil palmar polynesian vejer righi kaifas randagia
license: 0
latitude: 40.437671
longitude: -3.715267
accuracy: 14
views: 15
interestingness: 200 out of 44

photo: 6436114411 0d131c0b52 7010
owner: 66118090@N03
title: CONIL INK "NEW TRIP" 1
originalsecret: null
originalformat: null
o_height: null
o_width: null
datetaken: 2011-12-01 01:20:27
dateupload: 1322745627
tags: madrid trip sunset art set tattoo angel ink studio de 1 la luca simone arte time albert el chapter randagio frontera vita conil palmar polynesian vejer righi kaifas randagia
license: 0
latitude: 40.437671
longitude: -3.715267
accuracy: 14
views: 17
interestingness: 201 out of 44

photo: 6436114179 c4bbc4319d 7155
owner: 66118090@N03
title: CONIL INK "NEW TRIP" 1
originalsecret: null
originalformat: null
o_height: null
o_width: null
datetaken: 2011-12-01 01:20:23
dateupload: 1322745623
tags: madrid trip sunset art set tattoo angel ink studio de 1 la luca simone arte time albert el chapter randagio frontera vita conil palmar polynesian vejer righi kaifas randagia
license: 0
latitude: 40.437671
longitude: -3.715267
accuracy: 14
views: 20
interestingness: 202 out of 44

photo: 6436113705 8554c281a3 7150
owner: 66118090@N03
title: CONIL INK "NEW TRIP" 1
originalsecret: null
originalformat: null
o_height: null
o_width: null
datetaken: 2011-12-01 01:20:14
dateupload: 1322745614
tags: madrid trip sunset art set tattoo angel ink studio de 1 la luca simone arte time albert el chapter randagio frontera vita conil palmar polynesian vejer righi kaifas randagia
license: 0
latitude: 40.437671
longitude: -3.715267
accuracy: 14
views: 18
interestingness: 203 out of 44

photo: 6435743101 ec3dabf973 7153
owner: 66118090@N03
title: CONIL INK "NEW TRIP"
originalsecret: null
originalformat: null
o_height: null
o_width: null
datetaken: 2011-11-30 23:19:43
dateupload: 1322738383
tags: madrid trip sunset art set tattoo angel ink studio de 1 la luca simone arte time albert el chapter randagio frontera vita conil palmar polynesian vejer righi kaifas randagia
license: 0
latitude: 40.437671
longitude: -3.715267
accuracy: 14
views: 11
interestingness: 204 out of 44

photo: 6435742937 8301e7fc8f 7007
owner: 66118090@N03
title: CONIL INK "NEW TRIP" 1
originalsecret: null
originalformat: null
o_height: null
o_width: null
datetaken: 2011-11-30 23:19:39
dateupload: 1322738379
tags: madrid trip sunset art set tattoo angel ink studio de 1 la luca simone arte time albert el chapter randagio frontera vita conil palmar polynesian vejer righi kaifas randagia
license: 0
latitude: 40.437671
longitude: -3.715267
accuracy: 14
views: 19
interestingness: 205 out of 44

photo: 6435742773 012ed17807 7034
owner: 66118090@N03
title: CONIL INK "NEW TRIP" 1
originalsecret: null
originalformat: null
o_height: null
o_width: null
datetaken: 2011-11-30 23:19:36
dateupload: 1322738376
tags: madrid trip sunset art set tattoo angel ink studio de 1 la luca simone arte time albert el chapter randagio frontera vita conil palmar polynesian vejer righi kaifas randagia
license: 0
latitude: 40.437671
longitude: -3.715267
accuracy: 14
views: 27
interestingness: 206 out of 44

photo: 6455712285 9cdb4a6892 7172
owner: 57447841@N05
title: 21st Internationale Tattoo Convention Berlin
originalsecret: a4fb8e0ff1
originalformat: jpg
o_height: 2304
o_width: 3456
datetaken: 2011-12-04 13:55:50
dateupload: 1323038715
tags: people berlin art tattoo ink deutschland skin contest piercing arena convention bodyart deu schmuck treptow internationale 2011 berlintreptow 21sttattooconventionberlin
license: 0
latitude: 52.496944
longitude: 13.453961
accuracy: 16
views: 49
interestingness: 207 out of 44

photo: 6455704287 9d761606e5 7020
owner: 57447841@N05
title: 21st Internationale Tattoo Convention Berlin
originalsecret: 4a67851c3d
originalformat: jpg
o_height: 2304
o_width: 3456
datetaken: 2011-12-04 13:52:40
dateupload: 1323038638
