
mintime: 1322697600 maxtime: 1324512427.5
numimgs: 129
total pages: 1
visiting only 1 pages ( up to 250 images)
photo: 4018637345 02302f05b0 2650
owner: 25959337@N00
title: My shadow, my fog bow, my aura
originalsecret: a8290454a8
originalformat: jpg
o_height: 3079
o_width: 2848
datetaken: 2009-10-17 10:34:57
dateupload: 1323010212
tags: light shadow selfportrait nature weather norway clouds landscape photography norge photo rainbow nikon foto natur norwegen 1001nights landschaft norvege fotografi fogbow bilde fiatlux d90 circularrainbow sykkylven nikond90 fogdog flickrestrellas sykylven sykkelven sykkulven mygearandmepremium mygearandmebronze sykulven sykelven
license: 0
latitude: 62.423764
longitude: 6.611537
accuracy: 16
views: 17958
interestingness: 1 out of 129

photo: 1070316715 df0ab959d5 1144
owner: 97042891@N00
title: Jogos do PAN 2011
originalsecret: null
originalformat: null
o_height: null
o_width: null
datetaken: 2007-07-24 16:48:56
dateupload: 1323115350
tags: street city light brazil people urban streets art luz rio brasil riodejaneiro architecture downtown rj janeiro cidademaravilhosa bresil stadium paz brasilien explore worldcup brasile 2010 br?sil fifaworldcup atletismo maracan? brazili? rioantigo claudiolara engenh?o engenhodedentro est?diojo?ohavelange rio2007 wonderfulcity ???????? ???????? panrio2007 aplusphoto parapan ?panrio2007? ?panamericangames? ?jogos panamericanos? sa?deeeduca??o parapanamericangames 8102007 brazil2014 copadomundo2014 brasil2014 ???????? rio2016 riodejaneiro2016 090012 rio2014
license: 0
latitude: -22.892365
longitude: -43.292784
accuracy: 15
views: 4367
interestingness: 2 out of 129

photo: 6452892839 7646d76a6a 7148
owner: 41580255@N02
title: Stargate./Encontrando una salida....../Finding a way out......
originalsecret: null
originalformat: null
o_height: null
o_width: null
datetaken: 2011-12-03 17:22:45
dateupload: 1323010441
tags: sunset atardecer ruins gate arch stargate portal sanmiguel burgos arco ru?nas sasamon
license: 0
latitude: 42.422442
longitude: -4.042968
accuracy: 11
views: 3493
interestingness: 3 out of 129

photo: 3941301677 093f9cae11 2618
owner: 8398907@N02
title: Bell Rock , Sedona, Arizona
originalsecret: af11f5d740
originalformat: jpg
o_height: 601
o_width: 978
datetaken: 2009-09-13 22:46:14
dateupload: 1323363600
tags: red arizona southwest nature beauty rock landscape photography climb site sandstone butte view desert earth walk dramatic sedona landmark tourist hike best formation trail geography geology sedimentary earthscience oakcreek bellrock vortice senoran permain
license: 0
latitude: 34.879171
longitude: -111.774902
accuracy: 7
views: 2057
interestingness: 4 out of 129

photo: 6442613051 c073cd50c7 7020
owner: 24385706@N07
title: Week 48 ? Away We Go
originalsecret: null
originalformat: null
o_height: null
o_width: null
datetaken: 2011-12-02 12:52:19
dateupload: 1322849568
tags: voyage travel texture suitcase week48 52weeks 4852 luminouslu analu?sapinto
license: 0
latitude: 41.145569
longitude: -8.613281
accuracy: 3
views: 1009
interestingness: 5 out of 129

photo: 6462797305 00d258b752 7158
owner: 11224136@N07
title: The Still Lake
originalsecret: null
originalformat: null
o_height: null
o_width: null
datetaken: 2011-10-15 05:27:51
dateupload: 1323344026
tags: longexposure travel wedding mist lake mountains alps slr tower church water beautiful misty fog night digital photoshop sunrise canon reflections landscape island eos dawn lights photo high still julian europe dynamic foggy hills slovenia photograph processing slowshutter ljubljana bled romantic 5d slovenija balkans dslr range hdr highdynamicrange balkan markii glacial postprocessing mitteleuropa lakebled travelphotography glaciallake julianalps slovene blejskiotok bledisland photomatix republikaslovenija cerkevmarijinegavnebovzetja blejskojezero wishingbell thefella pilgrimagechurchoftheassumptionofmary 5dmarkii republicofslovenia conormacneill thefellaphotography northbalkans
license: 0
latitude: 46.361756
longitude: 14.084794
accuracy: 16
views: 955
interestingness: 6 out of 129

photo: 6191606008 46ac008edb 6153
owner: 12192905@N00
title: HEAVY WEIGHT...
originalsecret: null
originalformat: null
o_height: null
o_width: null
datetaken: 2010-02-07 19:10:58
dateupload: 1323079263
tags: nepal portrait people blackandwhite bw white man black male candid portraiture heavy porter weight kahtmandu 481787 482196
license: 0
latitude: 27.701999
longitude: 85.317497
accuracy: 11
views: 617
interestingness: 7 out of 129

photo: 6467501435 f6787c96fd 7151
owner: 35110249@N05
title: White Hibiscus
originalsecret: f25b94d9b1
originalformat: jpg
o_height: 800
o_width: 1000
datetaken: 2011-09-03 13:56:16
dateupload: 1323411120
tags: flower holland colour macro netherlands fleur dutch colorfull flor nederland hibiscus jamaica tropical bloom malvaceae rosemallow blume fiore bl?te coloured hibiskus bunt veluwe blum bloem macrophoto ibisco sorrel hibiscos polychrome bont tropisch harskamp veelkleurig macrofoto kleurig macroopname flordejamaica zorgboerderij a550 zorginstelling passiflorahoeve martienuiterweerd martienarnhem sonyalpha550 mygearandme minoltamacro100mm28mm fotomartien kleuurrijk
license: 0
latitude: 52.14081
longitude: 5.732288
accuracy: 13
views: 141
interestingness: 8 out of 129

photo: 6446616113 e37bee31ed 7019
owner: 24061413@N04
title: Body changes / Corps en mouvement
originalsecret: 6de5132dba
originalformat: jpg
o_height: 800
o_width: 450
datetaken: 2011-11-28 12:26:01
dateupload: 1322920480
tags: black silk skirt blouse
license: 0
latitude: 48.870325
longitude: 2.278659
accuracy: 16
views: 2139
interestingness: 9 out of 129

photo: 6452892499 e958d5b03d 7168
owner: 49025062@N04
title: December Morning on Argyle Lake
originalsecret: 7edaea36be
originalformat: jpg
o_height: 1984
o_width: 2634
datetaken: 2011-12-04 07:25:47
dateupload: 1323010437
tags: morning winter house reflection fall clouds sunrise landscape pond nikon december smooth victorian longisland clear argyle babylon hdr argylelake babylonvillage nikond90 babylonandbeyond
license: 0
latitude: 40.695411
longitude: -73.331336
accuracy: 16
views: 206
interestingness: 10 out of 129

photo: 6468462809 00cfa9b77f 7153
owner: 45868243@N06
title: White Lines
originalsecret: dd391a9bf3
originalformat: jpg
o_height: 900
o_width: 674
datetaken: 2011-11-11 05:50:47
dateupload: 1323212439
tags: longexposure nightphotography lightpainting clouds moonlight outerhebrides whitelines isleofharris freerangeeggs direcleit
license: 0
latitude: 57.88829
longitude: -6.803657
accuracy: 13
views: 227
interestingness: 11 out of 129

photo: 6400229543 7b9e987fd9 7150
owner: 55416316@N07
title: Living without faith is like driving in a fog
originalsecret: 5b9b084f0a
originalformat: jpg
o_height: 2688
o_width: 4032
datetaken: 2011-11-20 13:47:11
dateupload: 1323169200
tags: mist nature water netherlands monochrome dutch fog haze dunes olympus naturereserve zuiko wassenaar lr lightroom 2011 m43 mft epl1 meijendaal waterabstraction frompeterj?
license: 0
latitude: 52.142864
longitude: 4.358482
accuracy: 11
views: 235
interestingness: 12 out of 129

photo: 6442791901 fc4d63fe29 7167
owner: 41684606@N08
title: STORM OVER THE MOUNT
originalsecret: null
originalformat: null
o_height: null
o_width: null
datetaken: 2011-07-28 05:44:43
dateupload: 1322927070
tags: longexposure light shadow sea bw cloud castle wet water dark mono rocks cornwall jetty mount spencer storms wetfeet leefilters bigstopper nikond3s
license: 0
latitude: 50.1252
longitude: -5.462265
accuracy: 10
views: 281
interestingness: 13 out of 129

photo: 5818463065 28e8f9e924 2213
owner: 53097531@N05
title: English Attraction - Aston Martin One-77
originalsecret: null
originalformat: null
o_height: null
o_width: null
datetaken: 2011-06-10 11:13:24
dateupload: 1322936413
tags: black beauty canon eos grey one is power martin d racing mans le soul hours 24 55 bugatti 450 77 efs aston spotting 250 heures 450d 55250 worldcars one77
license: 3
latitude: 47.936443
longitude: 0.215692
accuracy: 13
views: 666
interestingness: 14 out of 129

photo: 6427588267 bc1032f3ba 7141
owner: 41178312@N08
title: IT'S A TIME.........
originalsecret: 481bb9edd9
originalformat: jpg
o_height: 2347
o_width: 2796
datetaken: 2010-09-06 05:05:44
dateupload: 1323314513
tags: blue inspiration art love nature beauty clouds creativity happy photography awakening miracle tranquility sacred kansas imagination spirituality inspirational spiritual miracles magical gratitude mystic flinthills peacefulness winfieldkansas
license: 0
latitude: 37.305658
longitude: -96.879109
accuracy: 16
views: 134
interestingness: 15 out of 129

photo: 6477749541 128d0a479d 7019
owner: 46306125@N03
title: Reflections of a Beautiful Day
originalsecret: 30670dfd56
originalformat: jpg
o_height: 685
o_width: 1024
datetaken: 2011-06-24 13:10:22
dateupload: 1323366507
tags: summer june reflections yukon conrad coastrange northerncanada skagwayroad tagishlake windyarm southklonkdikehighway colonelconrad
license: 0
latitude: 60.031929
longitude: -134.873657
accuracy: 5
views: 135
interestingness: 16 out of 129

photo: 6439985275 bb888547f4 7016
owner: 9413478@N08
title: Canadian Doughnut.  - Il 17 dicembre NOI DEL PIEMONTE ci troviamo a Torino!!!
originalsecret: null
originalformat: null
o_height: null
o_width: null
datetaken: 2011-08-27 21:33:47
dateupload: 1322856040
tags: canada max dough canadian donut doughnut maranza maranzamax flickrstruereflection1
license: 0
latitude: 43.683048
longitude: -79.61174
accuracy: 16
views: 129
interestingness: 17 out of 129

photo: 6465805165 801bbc1c2b 7152
owner: 45991067@N00
title: Portal of Fire
originalsecret: null
originalformat: null
o_height: null
o_width: null
datetaken: 2011-12-02 17:33:34
dateupload: 1323179485
tags: beach? ?big ?light ?landscape? fire? ?nature? ?sunset? sur? pfeiffer? ?julia ?portal ?pacific? ?ocean? beam? ?seascape? ?pfeiffer ?portal? ?scenic? ?pfeiffer?
license: 0
latitude: 36.238129
longitude: -121.816781
accuracy: 15
views: 165
interestingness: 18 out of 129

photo: 6460108607 f0380844d2 7161
owner: 30117728@N04
title: Ard Reeds
originalsecret: null
originalformat: null
o_height: null
o_width: null
datetaken: 2009-12-10 11:10:46
dateupload: 1323197280
tags: mist water reflections reeds landscape scotland williams silhouettes karl grasses trossachs hdr lochard karlwilliams
license: 0
latitude: 56.187006
longitude: -4.493923
accuracy: 13
views: 139
interestingness: 19 out of 129

photo: 6450968053 8debb0c130 7144
owner: 32699608@N02
title: Day 337/365 - Manufactured Chaos!
originalsecret: null
originalformat: null
o_height: null
o_width: null
datetaken: 2011-12-03 12:41:23
dateupload: 1322979283
tags: 
license: 0
latitude: 26.832955
longitude: -80.105094
accuracy: 11
views: 484
interestingness: 20 out of 129

photo: 6472482065 78f5d70ac3 7143
owner: 88323212@N00
title: tree, wires ...
originalsecret: d1ccdabdd6
originalformat: jpg
o_height: 1200
o_width: 952
datetaken: 2011-12-03 12:12:18
dateupload: 1323278797
tags: trees winter snow tree silhouette fog schweiz switzerland suisse suiza foggy silhouettes wires simplicity bern minimalism glimpse svizzera berne sigriswil berneroberland lessismore cantonofberne winterminimalism fogminimalism aglimpseofwinterinthefog
license: 0
latitude: 46.715529
longitude: 7.714912
accuracy: 13
views: 313
interestingness: 21 out of 129

photo: 6460097349 7532371278 7006
owner: 7422037@N06
title: Red Tail Hawk Ready
originalsecret: f8f273ce24
originalformat: jpg
o_height: 1170
o_width: 1257
datetaken: 2011-11-25 00:21:14
dateupload: 1323098846
tags: ri bird nature canon outdoors photography photo flickr foto image hawk picture newengland powershot explore rhodeisland capture birdofprey chickenhawk redtailedhawk blackstoneriver theoceanstate blackstonecanal blackstonevalley cumberlandri explored blackstoneriverbikeway
license: 0
latitude: 41.940483
longitude: -71.442364
accuracy: 16
views: 227
interestingness: 22 out of 129

photo: 6452615609 4905198600 7025
owner: 79262651@N00
title: A Sea for the Season
originalsecret: e9ea64af74
originalformat: jpg
o_height: 618
o_width: 800
datetaken: 2008-03-08 14:50:03
dateupload: 1323007102
tags: ocean sea surf waves wave atlanticocean
license: 0
latitude: 39.96028
longitude: -73.850097
accuracy: 4
views: 87
interestingness: 23 out of 129

photo: 6442530167 fb8f220dff 7024
owner: 76583692@N00
title: Autumn Blue
originalsecret: a1c559f6ce
originalformat: jpg
o_height: 3888
o_width: 2592
datetaken: 2011-10-30 16:32:53
dateupload: 1322848425
tags: park blue autumn trees wild sky reflection green fall nature ecology colors beautiful leaves yellow forest woodland river outside outdoors mirror evening woods october colorful stream branch view bright image peaceful sunny ukraine clean foliage vegetation vista environment serene cloudless picturesque kiev kyiv tranquil magnificent timesofyear
license: 1
latitude: 50.461949
longitude: 30.541293
accuracy: 16
views: 225
interestingness: 24 out of 129

photo: 6468088077 2bd7706f97 7142
owner: 92009745@N00
title: Vi?ey
originalsecret: null
originalformat: null
o_height: null
o_width: null
datetaken: 2011-12-06 18:11:15
dateupload: 1323207779
tags: ocean winter snow mountains tower island iceland peace snowy imagine ?sland videy 2011 vi?ey canonef300mmf4lisusm canoneos5dmarkii imaginepeacetower
license: 0
latitude: 64.147608
longitude: -21.922107
accuracy: 16
views: 120
interestingness: 25 out of 129

photo: 6477034371 e7eaaa20f5 7009
owner: 55646157@N08
title: The Freshmaker
originalsecret: null
originalformat: null
o_height: null
o_width: null
datetaken: 2011-12-08 13:13:28
dateupload: 1323356506
tags: food green cooking water fruit cuisine switzerland drink juice acid bubbles slice mineral pulp lime sour sparkling vitaminc freshmaker rubigen 2011 valser cantonbern limelite danielwildiphotography
license: 0
latitude: 46.89838
longitude: 7.544119
accuracy: 11
views: 191
interestingness: 26 out of 129

photo: 6442096139 57e6bf96f7 7019
owner: 41126359@N00
title: The Bellagio Fountains [EXPLORED]
originalsecret: ab93c8c226
originalformat: jpg
o_height: 2351
o_width: 3639
datetaken: 2011-11-24 17:08:07
dateupload: 1322842703
tags: 
license: 0
latitude: 36.112925
longitude: -115.173271
accuracy: 16
views: 428
interestingness: 27 out of 129

photo: 6467778363 4b4ef9a588 7154
owner: 22900377@N07
title: Stranger #4/100
originalsecret: null
originalformat: null
o_height: null
o_width: null
datetaken: 2011-12-06 08:54:51
dateupload: 1323204071
tags: nyc newyorkcity people newyork face 50mm manhattan peoplewatching 100strangers
license: 0
latitude: 40.742574
longitude: -73.986053
accuracy: 12
views: 436
interestingness: 28 out of 129

photo: 6456037439 d414855316 7009
owner: 38773020@N00
title: Manken Asli
originalsecret: null
originalformat: null
o_height: null
o_width: null
datetaken: 2011-12-04 00:50:54
dateupload: 1323042053
tags: tv tgirl transgender ts travesti
license: 0
latitude: 38.95774
longitude: 35.431701
accuracy: 2
views: 405
interestingness: 29 out of 129

photo: 6445723391 1c3a45f840 7008
owner: 75796297@N00
title: IMG_7871sm
originalsecret: null
originalformat: null
o_height: null
o_width: null
datetaken: 2011-07-13 20:10:08
dateupload: 1322902844
tags: arizona canon sandstone indian canyon page antelope 5d lower navajo 1740 reservation mkii
license: 0
latitude: 36.827973
longitude: -111.466255
accuracy: 10
views: 97
interestingness: 30 out of 129

photo: 6471023925 ba6a0d960c 7168
owner: 25822731@N02
title: Tinsel Time :)
originalsecret: null
originalformat: null
o_height: null
o_width: null
datetaken: 2011-12-07 11:04:57
dateupload: 1323370800
tags: christmas dog pet collie sheepdog tinsel bordercollie barney ldlportraits
license: 0
latitude: 51.460628
longitude: -2.12244
accuracy: 11
views: 109
interestingness: 31 out of 129

photo: 6467422061 0549bcecf1 7025
owner: 49036575@N02
title: M?sange charbonni?re, great tit
originalsecret: d8973ef02f
originalformat: jpg
o_height: 683
o_width: 1024
datetaken: 2011-12-02 09:22:11
dateupload: 1323272633
tags: wild favorite bird speed jaune french geotagged rouge effects photography photo flickr tits minolta photos bokeh sony main group vert best apo fave most views faves gorge awards alpha antony animaux parc postproduction oiseau fran?ais greattit sal zed hs francais sceaux lightroom 80200 effets m?sange vif rapide parcdesceaux favoris surlevif a850 traitements alpha350 100comment parcsceaux 80200apo dslra850 zedthedragon 100coms minoltaapo80200hs charbonni?re
license: 0
latitude: 48.766316
longitude: 2.300884
accuracy: 15
views: 299
interestingness: 32 out of 129

photo: 6458685407 8a2e02a8ab 7165
owner: 34428167@N05
title: Too long a lens for too near a subject!
originalsecret: null
originalformat: null
o_height: null
o_width: null
datetaken: 2011-05-01 08:59:24
dateupload: 1323077031
tags: kenya cheetah masaimara naturesfinest canoneos1dmarkiii markinghisterritory goldwildlife canon300mmf28isl naturesgreenpeace mothernaturesgreenearth mackenya amazingwildlifephotography
license: 0
latitude: -1.252341
longitude: 35.176849
accuracy: 9
views: 146
interestingness: 33 out of 129

photo: 6475782233 f59c1a43b3 7031
owner: 44840445@N07
title: 308/365 - Bench Monday: A day in the park.
originalsecret: null
originalformat: null
o_height: null
o_width: null
datetaken: 2011-12-04 16:25:12
dateupload: 1323331342
tags: late day308 adayinthepark project365 asusual threesixfive benchmonday butbylessthanaweek itslookingup
license: 0
latitude: 51.548563
longitude: -0.113039
accuracy: 14
views: 42
interestingness: 34 out of 129

photo: 6473416613 16b4716585 7034
owner: 15470975@N03
title: Black-eared Kite (Milvus lineatus) near Lake Pelkhu Tso, Tibet
originalsecret: null
originalformat: null
o_height: null
o_width: null
datetaken: 2011-09-24 06:42:08
dateupload: 1323291193
tags: tar 2011 accipitridae blackearedkite milvusmigranslineatus tibetautonomousregion milvuslineatus ?????????? ?janreurink tibetanplateau????????????b?togang tibet??? bird???bya natureofphenomena???????????????choskyidbyings birdflying?????????????jechurts?l nature????????????rangbyungrangjung ???? tsang????latowesterntibet kyirong????????????county pelkhutso?????????? lakepelkhutso padkhyung???????? meaninggloriousgaruda spottedspeciesofeaglefemaleeaglevulture?????????laktramo
license: 0
latitude: 28.94717
longitude: 85.460586
accuracy: 11
views: 177
interestingness: 35 out of 129

photo: 6433723707 2b8e4e4cee 7152
owner: 23285057@N04
title: Ashy Drongo
originalsecret: 02f166a268
originalformat: jpg
o_height: 768
o_width: 1024
datetaken: 2011-11-27 16:42:57
dateupload: 1322700944
tags: bird fauna canon eos rebel backyard kiss x4 ashy drongo ashydrongo dicrurusleucophaeus 550d canonef300mmf4lisusm t2i
license: 0
latitude: 11.875918
longitude: 75.376167
accuracy: 11
views: 117
interestingness: 36 out of 129

photo: 6456268413 2bc6602914 7012
owner: 79986881@N00
title: Denmark - Copenhagen - Orestad - Hotel Cabinn Metro 05
originalsecret: null
originalformat: null
o_height: null
o_width: null
datetaken: 2011-09-12 08:48:15
dateupload: 1323090026
tags: travel copyright building tower tourism architecture facade copenhagen denmark hotel nikon europe eu landmark dk scandinavia danmark modernarchitecture europeanunion daniellibeskind allrightsreserved k?benhavn architecturalphotography ?restad contemporaryarchitecture travelphotography europeseunie uni?neuropea instantfave unioneurop?enne orestad studiodaniellibeskind hotelcabinn omot travelphotographer daniellibesking flickrelite dgphotos darrellgodliman wwwdgphotoscouk architecturalphotographer d300s ?dgodliman nikond300s hotelcabinnmetro denmarkcopenhagenorestadhotelcabinnmetro05dsc2049
license: 0
latitude: 55.631248
longitude: 12.572436
accuracy: 15
views: 107
interestingness: 37 out of 129

photo: 6451447673 4f42bdab81 7018
owner: 35888901@N00
title: 
originalsecret: 34cbfbf0bc
originalformat: jpg
o_height: 3977
o_width: 5953
datetaken: 2011-11-29 19:43:17
dateupload: 1322988323
tags: bridge holiday night sanantonio river restaurant holidays texas tourist christmaslights hdr touristattraction riverwalk ledlights republicoftexas rivertaxi brandonwatts commercest definitivehdr sonya77
license: 1
latitude: 29.424301
longitude: -98.488134
accuracy: 16
views: 194
interestingness: 38 out of 129

photo: 6468725339 d0bf9b093f 7021
owner: 22227558@N08
title: Mama Alpaca and Her Cria (less than an hour old)
originalsecret: null
originalformat: null
o_height: null
o_width: null
datetaken: 2011-10-16 11:21:29
dateupload: 1323216198
tags: baby animal virginia farm gap va parkway fancy blueridge alpacas cria
license: 0
latitude: 36.668491
longitude: -80.69239
accuracy: 11
views: 56
interestingness: 39 out of 129

photo: 6447349269 c315c9b465 7024
owner: 40221941@N00
title: Christmas Market
originalsecret: null
originalformat: null
o_height: null
o_width: null
datetaken: 2011-10-03 14:22:30
dateupload: 1322930427
tags: christmas xmas italy love canon navidad interestingness interesting italia 300d campania canon300d dream noel kris napoli naples natale caserta sangregorioarmeno 2011 maddaloni napule christmasstreet christmasatmosphere krisdecurtis christmas2011 natale2011
license: 0
latitude: 40.849438
longitude: 14.258204
accuracy: 15
views: 92
interestingness: 40 out of 129

photo: 6435574141 65e876bcd0 7013
owner: 54459739@N08
title: Durham Coalminers
originalsecret: 061db72907
originalformat: jpg
o_height: 669
o_width: 1000
datetaken: 2011-11-30 14:28:07
dateupload: 1322734664
tags: uk november england london 30 canon walking demo march durham britain budget protest smiles photojournalism nov30 explore 99 1984 friendly strike 5d unions nut teachers coal banners northeast cuts crisis num protesters n30 harbinger placards reportage miners markii marchers strikers 2011 pensions publicsector austerity coalnotdole righttowork 30nov
license: 0
latitude: 51.512915
longitude: -0.118081
accuracy: 15
views: 158
interestingness: 41 out of 129

photo: 5312678487 252835d7ea 5285
owner: 38609442@N02
title: Briller de mille feux.
originalsecret: null
originalformat: null
o_height: null
o_width: null
datetaken: 2010-05-15 18:09:49
dateupload: 1322986862
tags: italy rome roma history architecture europe italia capital amphitheatre unesco worldheritagesite colosseum histoire coliseum capitale baroque archeology renaissance italie romanempire lazio antiquity colossus colis?e antiquit? arch?ologie thecolosseum latium urbs romebynight romeatnight empireromain romankingdom ilcolosseo caputmundi amphitheatrumflavium lecolis?e romenight capitalofitaly ocoliseu elcoliseo limenapostolorum amphitheatrumcaesareum capitaledumonde colosseumatnight laville?ternelle lavilleauxseptcollines colosseumul
license: 0
latitude: 41.90311
longitude: 12.495759
accuracy: 11
views: 157
interestingness: 42 out of 129

photo: 6475694503 14eb18efd3 7006
owner: 31676563@N05
title: Autumn in the Zen temple
originalsecret: 734c59067b
originalformat: jpg
o_height: 2000
o_width: 3000
datetaken: 2011-12-07 12:47:17
dateupload: 1323329203
tags: autumn red japan garden temple moss maple kyoto momiji zen ?? ?? ?? ??? ??
license: 0
latitude: 35.001193
longitude: 135.774021
accuracy: 15
views: 121
interestingness: 43 out of 129

photo: 6457641785 7d131e0278 7026
owner: 54869588@N07
title: Sunset at Uluwatu Cliff :: Bali, Indonesia
originalsecret: null
originalformat: null
o_height: null
o_width: null
datetaken: 2011-12-05 12:37:49
dateupload: 1323059869
tags: sunset sea bali cliff seascape canon temple asia southeastasia indianocean sigma 7d uluwatu dri uluwatutemple baliindonesia balisunset blendmode blendingmodes canon7d sigma816mm demromero uluwatecliff
license: 5
latitude: -8.82828
longitude: 115.086257
accuracy: 11
views: 67
interestingness: 44 out of 129

photo: 6459021259 fe492996e7 7155
owner: 54595324@N04
title: Brand Spanking New
originalsecret: 14862d1fba
originalformat: jpg
o_height: 1867
o_width: 2800
datetaken: 2011-12-03 13:35:40
dateupload: 1323126720
tags: auto county new light red italy 3 sexy cars beautiful beauty car race america canon eos rebel cool interesting italian automobile italia european five connecticut interior greenwich rear spoke tan fast ct convertible ferrari best explore miller mounted editing expensive rims rosso rare exclusive fastest extraordinary v8 automobiles 47 liter horsepower corsa lightroom limerock lakeville motorcars 458 2011 562 explored 200mph fairfiield shutterspeedphotos
license: 0
latitude: 41.093195
longitude: -73.585739
accuracy: 11
views: 213
interestingness: 45 out of 129

photo: 6448292163 b3730ac67a 7007
owner: 39076108@N00
title: Of Time, and God, and Man.
originalsecret: 951b0f2fd7
originalformat: jpg
o_height: 2414
o_width: 2076
datetaken: 2011-12-03 20:51:38
dateupload: 1322941898
tags: england history 120 6x6 mamiya tlr monochrome architecture mediumformat blackwhite shanghai cathedral gothic thorntons tudor gloucester jpg c2 perpendicular gp3 twobath epsonv500 buildingsobserved gupr summer2011 80mmsekors
license: 0
latitude: 51.8677
longitude: -2.247637
accuracy: 15
views: 93
interestingness: 46 out of 129

photo: 6453536519 b2d143f54a 7001
owner: 29545393@N06
title: Naturally Simple
originalsecret: null
originalformat: null
o_height: null
o_width: null
datetaken: 2011-12-04 10:37:38
dateupload: 1323017252
tags: 
license: 0
latitude: 45.301531
longitude: -75.867161
accuracy: 14
views: 99
interestingness: 47 out of 129

photo: 6436171609 c969f8377c 7141
owner: 7729940@N06
title: road to nowhere
originalsecret: d57f363ec0
originalformat: jpg
o_height: 5472
o_width: 3648
datetaken: 2011-12-01 10:45:49
dateupload: 1322746632
tags: road street blackandwhite bw white mist black bus film car fog night way lights mirror high haze highway europe day image daniel nowhere creative picture evil fast samsung poland line imaging lamps 1977 far less vapor weft nx mistiness nx200 kulinski daniel1977 samsungnx samsungimaging samsungnx200 danielkulinski
license: 1
latitude: 52.220228
longitude: 21.029666
accuracy: 15
views: 118
interestingness: 48 out of 129

photo: 6445349889 a3f096b077 7014
owner: 79815930@N00
title: RB_12-02-2011_SF-BayBridge-Night
originalsecret: null
originalformat: null
o_height: null
o_width: null
datetaken: 2011-12-02 20:20:41
dateupload: 1322894108
tags: sf bridge san pentaxk10d pentaxart copyrightrichardbeebe richardbeebe mygearandme franciscosanfranciscocalifnight
license: 0
latitude: 37.817242
longitude: -122.372417
accuracy: 11
views: 100
interestingness: 49 out of 129

photo: 6429397501 f2d6d9a52c 7175
owner: 10255922@N06
title: Sun-painted PM
originalsecret: 6c320533cb
originalformat: jpg
o_height: 4032
o_width: 6048
datetaken: 2011-11-26 16:12:28
dateupload: 1322744548
tags: 
license: 0
latitude: 35.556331
longitude: 139.675201
accuracy: 11
views: 220
interestingness: 50 out of 129

photo: 6462157077 a613b6b5af 7035
owner: 57780149@N08
title: 25127 & 25107 Attenborough 28Aug77
originalsecret: 8b3dcb6a3d
originalformat: jpg
o_height: 1879
o_width: 2782
datetaken: 1977-08-28 21:38:52
dateupload: 1323121589
tags: fisherman attenborough jolly 25107 25127 class25
license: 0
latitude: 52.905278
longitude: -1.233386
accuracy: 13
views: 114
interestingness: 51 out of 129

photo: 6470295471 40f9be6659 7146
owner: 59018612@N06
title: Chaffinch
originalsecret: 29abcfc2c4
originalformat: jpg
o_height: 600
o_width: 900
datetaken: 2008-06-04 15:40:04
dateupload: 1323277260
tags: bird finch devon chaffinch barnstaple bids wildelife
license: 0
latitude: 51.068351
longitude: -4.07096
accuracy: 16
views: 144
interestingness: 52 out of 129

photo: 6461974485 48ce358623 7016
owner: 25428957@N03
title: I love not man the less, but Nature more
originalsecret: null
originalformat: null
o_height: null
o_width: null
datetaken: 2011-08-18 18:24:49
dateupload: 1323119521
tags: 
license: 0
latitude: 62.590575
longitude: 6.470775
accuracy: 11
views: 64
interestingness: 53 out of 129

photo: 6457258035 e8948c936a 7161
owner: 48144862@N06
title: 338/365: Three Dimensions
originalsecret: 1948815e4c
originalformat: jpg
o_height: 683
o_width: 1024
datetaken: 2011-12-04 21:11:46
dateupload: 1323055382
tags: shadow blackandwhite bw canada classic film closeup canon photography eos glasses 3d winnipeg shadows manitoba indoors martinscorsese hugo dslr 3dglasses scorsese automaton silentfilm atriptothemoon ef100mmf28macrousm silentmovies 50d project365 real3d georgesmelies hugocabret mostly365
license: 0
latitude: 49.954959
longitude: -97.182785
accuracy: 16
views: 140
interestingness: 54 out of 129

photo: 6440028881 ec16f2cd53 7017
owner: 50521655@N07
title: Autumn
originalsecret: 197e90e9c5
originalformat: jpg
o_height: 3465
o_width: 5202
datetaken: 2011-10-30 15:56:44
dateupload: 1322802882
tags: autumn fall canon eos ?ledefrance versailles 1855mm tests yvelines twitter 550d sadstudentlife
license: 0
latitude: 48.803471
longitude: 2.130317
accuracy: 11
views: 94
interestingness: 55 out of 129

photo: 6460584857 c2d1e6a27a 7025
owner: 19054262@N00
title: The toilet guard
originalsecret: 227cb18c66
originalformat: jpg
o_height: 2592
o_width: 3872
datetaken: 2011-08-20 11:36:45
dateupload: 1323104164
tags: 
license: 0
latitude: 62.01807
longitude: 6.680771
accuracy: 16
views: 90
interestingness: 56 out of 129

photo: 6433779773 df26d9bf40 7006
owner: 69797303@N04
title: " He didn't notice that the lights had changed... "
originalsecret: null
originalformat: null
o_height: null
o_width: null
datetaken: 2011-11-29 23:47:31
dateupload: 1322701791
tags: 
license: 0
latitude: 85.754219
longitude: 124.804687
accuracy: 1
views: 183
interestingness: 57 out of 129

photo: 6470580133 bda0ea1238 7142
owner: 54236650@N03
title: The sky is the limit
originalsecret: d22724a95b
originalformat: jpg
o_height: 723
o_width: 1064
datetaken: 2011-11-18 11:31:08
dateupload: 1323247511
tags: sky france alps bird alpes flying nikon ciel alpine vol nikkor chough oiseau aravis alpinechough yellowbilledchough pyrrhocoraxgraculus chocard 55200mmf456gvr d7000
license: 0
latitude: 45.849488
longitude: 6.265983
accuracy: 11
views: 30
interestingness: 58 out of 129

photo: 6477706077 da5e1061e8 7005
owner: 48731569@N00
title: Different eras
originalsecret: null
originalformat: null
o_height: null
o_width: null
datetaken: 2011-12-08 12:05:21
dateupload: 1323365857
tags: speed train high different cathedral pacific opposite twyford main great 7 class steam line direction final oxford era western ely british express railtour standard railways brit passes charter maidenhead intercity 43 britannia powered 125 hst olivercromwell 462 7mt ruscombe 70013
license: 0
latitude: 51.479084
longitude: -0.851676
accuracy: 14
views: 60
interestingness: 59 out of 129

photo: 6462667861 75bbfc0f5a 7168
owner: 58006580@N04
title: 031 Vista do Alto uma pequenina parte da cidade de S?o Paulo - Brasil
originalsecret: null
originalformat: null
o_height: null
o_width: null
datetaken: 2011-11-20 09:06:04
dateupload: 1323128037
tags: brasil nikon br s?opaulo sigma sp picodojaragu? ? frenteafrente 70300mm? blinkagain d5100?
license: 0
latitude: -23.462301
longitude: -46.776008
accuracy: 11
views: 85
interestingness: 60 out of 129

photo: 6439203437 a44a36363b 7166
owner: 11067781@N04
title: Cine Noir
originalsecret: null
originalformat: null
o_height: null
o_width: null
datetaken: 2011-12-01 11:09:30
dateupload: 1323009480
tags: chile santiago boy red portrait white selfportrait man black macro male men guy blanco field portraits canon dark hair skinny 50mm reflex flickr noir dof y zoom para body retrato widescreen negro bottom pablo young cine shades depthoffield iso ii desenfoque half campo tele torso baja f18 169 boke humano bi depth sombras joven edici?n arriba ?? telelens poulain profundidad editado canonef50mmf18ii 1280x720 teleobjetivo 550d bokhe t2i cinenegro pablopoulain
license: 0
latitude: -33.456078
longitude: -70.647583
accuracy: 9
views: 244
interestingness: 61 out of 129

photo: 6467651729 b79cce905d 7027
owner: 28202653@N02
title: Orb Fun
originalsecret: 7d1a0fdd4c
originalformat: jpg
o_height: 775
o_width: 525
datetaken: 2011-11-27 17:09:53
dateupload: 1323202506
tags: blue cyprus orb squirly
license: 0
latitude: 34.671052
longitude: 32.610168
accuracy: 10
views: 62
interestingness: 62 out of 129

photo: 6446129225 4f2b82464a 7005
owner: 39793483@N03
title: NGC2244-SHO
originalsecret: null
originalformat: null
o_height: null
o_width: null
datetaken: 2011-12-03 06:19:08
dateupload: 1322911829
tags: nebula rc paramount paramountme astrotech10 fstl6303moagnarrowbandastrondon ha3nmngc2244rosette
license: 0
latitude: 40.769061
longitude: -73.903055
accuracy: 15
views: 89
interestingness: 63 out of 129

photo: 6458519919 6484462db7 7004
owner: 53825985@N02
title: Bang!
originalsecret: d232d4f037
originalformat: jpg
o_height: 1643
o_width: 1809
datetaken: 2011-12-05 08:29:33
dateupload: 1323073773
tags: world china blue light red orange color colour green colors yellow silver paper stars effects model war technology purple shot mail display fireworks smoke air flames tube shapes culture shell floating ground competition chinesenewyear firework device aerial confetti celebration event entertainment burn mortar commercial material rocket perform festivity noise bang sparks society sparkling sights explosive cultural origin exporter backbone classified casing springfestival manufacturer skyrocket religeous aesthetic invented pasteboard focal propulsion midautumnfestival pyrotechnic combustible dvice
license: 3
latitude: 52.911735
longitude: -1.04222
accuracy: 14
views: 78
interestingness: 64 out of 129

photo: 6466892677 423a9d1113 7169
owner: 30588017@N06
title: Mommy's Little Princess
originalsecret: null
originalformat: null
o_height: null
o_width: null
datetaken: 2011-12-03 19:33:07
dateupload: 1323193294
tags: christmas baby girl portait babygirl newborn christmasbaby newbornportrait
license: 0
latitude: 38.638618
longitude: -90.426902
accuracy: 11
views: 78
interestingness: 65 out of 129

photo: 6403299733 4caf371f95 6232
owner: 74113208@N00
title: prancing bully cop harasses while man lies bleeding
originalsecret: null
originalformat: null
o_height: null
o_width: null
datetaken: 2011-11-25 05:37:17
dateupload: 1323008920
tags: island bc jamie mayor britishcolumbia chief dean victoria vancouverisland cher cop brucedean professionalrecreationalist bully graham gypsies performs fortin tramps 68 chers theives vicpd chiefjamiegraham mayordeanfortin gypsiestrampstheives
license: 0
latitude: 48.436247
longitude: -123.361208
accuracy: 15
views: 236
interestingness: 66 out of 129

photo: 6468082403 bc9c47a247 7001
owner: 32454422@N00
title: left side, ten governors turkey, Edgefield, South Carolina
originalsecret: b84460401a
originalformat: jpg
o_height: 2774
o_width: 3052
datetaken: 2011-10-28 13:00:40
dateupload: 1323207707
tags: lake history turkey southcarolina governor stromthurmond peaches fiberglass decorated edgefield governors slade civicpride edgefieldcounty paintedturkey sladelake tengovernors
license: 2
latitude: 33.789372
longitude: -81.92767
accuracy: 13
views: 51
interestingness: 67 out of 129

photo: 6457553827 3efbcd5bc6 7175
owner: 90807129@N00
title: LAFD Battles Massive Blaze in El Sereno Equipment Yard
originalsecret: null
originalformat: null
o_height: null
o_width: null
datetaken: 2011-12-02 03:44:06
dateupload: 1323058810
tags: lafd losangelesfiredepartment mikemeadows
license: 0
latitude: 34.074588
longitude: -118.166961
accuracy: 15
views: 379
interestingness: 68 out of 129

photo: 6438000227 0f9d288fac 7152
owner: 49023748@N02
title: finding her roots (version 3)
originalsecret: 2567aaf7df
originalformat: jpg
o_height: 3445
o_width: 5167
datetaken: 2011-10-29 10:47:50
dateupload: 1322772020
tags: woman tree nature floral beautiful fashion contrast photoshop dark dress teen faded canon5d canon5dmarkii photoshopcs5
license: 0
latitude: 43.466171
longitude: -79.689582
accuracy: 11
views: 74
interestingness: 69 out of 129

photo: 6476514571 7f895e4f49 7009
owner: 79741078@N00
title: ~~ A December Flower ~~
originalsecret: null
originalformat: null
o_height: null
o_width: null
datetaken: 2011-11-13 10:46:00
dateupload: 1323347869
tags: inspiration texture group the hibiscusblossom
license: 0
latitude: 28.662763
longitude: -81.385946
accuracy: 15
views: 30
interestingness: 70 out of 129

photo: 6441501071 955cd512fe 7175
owner: 53516741@N04
title: Frontierland Fireworks - Fireworks Friday
originalsecret: null
originalformat: null
o_height: null
o_width: null
datetaken: 2011-10-24 21:07:59
dateupload: 1322834116
tags: florida fireworks riverboat fl wdw waltdisneyworld magickingdom hauntedmansion frontierland 2011 libertybelle fireworksfriday
license: 0
latitude: 28.419133
longitude: -81.583103
accuracy: 16
views: 70
interestingness: 71 out of 129

photo: 6446660849 e8fd468680 7023
owner: 93108868@N00
title: Mountain view.....
originalsecret: f60c99ff13
originalformat: jpg
o_height: 3168
o_width: 4752
datetaken: 2011-06-26 12:01:28
dateupload: 1322921140
tags: mountain mountains nature iceland highlands view hiking ??rsm?rk thorsmork fimmv?r?uh?ls fimmvorduhals
license: 0
latitude: 63.644836
longitude: -19.461971
accuracy: 10
views: 73
interestingness: 72 out of 129

photo: 6438631029 bae4618da0 7006
owner: 53776494@N06
title: Els Encants
originalsecret: 492b9b8357
originalformat: jpg
o_height: 663
o_width: 1000
datetaken: 2011-12-01 07:17:57
dateupload: 1322859000
tags: barcelona blackandwhite blancoynegro film mono nikon catalunya blancinegre analogic f601 elsencants fkeamarket marx?auxpuces
license: 0
latitude: 41.401479
longitude: 2.185914
accuracy: 15
views: 64
interestingness: 73 out of 129

photo: 6449353821 25ec00969b 7157
owner: 21655818@N02
title: When's Christmas?
originalsecret: null
originalformat: null
o_height: null
o_width: null
datetaken: 2011-12-03 16:10:39
dateupload: 1322955524
tags: christmas dog shibainu bandage barkley
license: 0
latitude: 82.332382
longitude: -72.421875
accuracy: 1
views: 102
interestingness: 74 out of 129

photo: 6457338069 89fabfa3c2 7143
owner: 61425807@N06
title: December Dawn on the Charles River
originalsecret: null
originalformat: null
o_height: null
o_width: null
datetaken: 2011-12-04 07:14:27
dateupload: 1323056247
tags: trip morning travel reflection beautiful boston skyline skyscraper sunrise river dawn interesting cityscape massachusetts charlesriver newengland visit panoramic backbay beantown 5dii
license: 0
latitude: 42.35718
longitude: -71.091542
accuracy: 14
views: 37
interestingness: 75 out of 129

photo: 6469038583 25c4ecaf3b 7004
owner: 91779914@N00
title: Eilean Donan Castle Wester Ross Lochalsh Scotland
originalsecret: 1a5e632500
originalformat: jpg
o_height: 894
o_width: 1500
datetaken: 2006-07-27 15:22:05
dateupload: 1323220929
tags: castle scotland ross highlands alba scottish escocia highland scotia fortress szkocja caledonia eileandonan conner schottland westerross schotland ecosse kintail dornie scozia eileandonancastle skottland scottishcastles rossshire skotlanti skotland castlescotland ??????? ??? ??????? kartpostal scotlandcastle scottishcastle highlandcastle ?????? daveconner conner395 ????????? castlesofscotland davidconner daveconnerinverness daveconnerinvernessscotland scottishcastlepic scottishcastlephotograph castlescots scottishhighlandcastle ?????????? castlesinthehighlandsofscotland castlephotograph ????????
license: 4
latitude: 57.276676
longitude: -5.517368
accuracy: 13
views: 59
interestingness: 76 out of 129

photo: 6444956163 d8fc134be1 7012
owner: 40198749@N05
title: SubjectsRevolt
originalsecret: null
originalformat: null
o_height: null
o_width: null
datetaken: 2011-12-01 18:06:13
dateupload: 1322886584
tags: 
license: 0
latitude: 27.946529
longitude: -82.459266
accuracy: 11
views: 100
interestingness: 77 out of 129

photo: 6435092931 ae7a65fd9d 7167
owner: 46745754@N03
title: From where I stand
originalsecret: 284f7c567c
originalformat: jpg
o_height: 2902
o_width: 4353
datetaken: 2011-11-29 12:50:00
dateupload: 1322723162
tags: december savour owp shuttersisters 365gratefulproject
license: 0
latitude: 51.634001
longitude: -0.575752
accuracy: 11
views: 102
interestingness: 78 out of 129

photo: 6434108863 ba57a40330 7014
owner: 8713703@N08
title: Picnic Place
originalsecret: null
originalformat: null
o_height: null
o_width: null
datetaken: 2011-11-26 14:21:39
dateupload: 1322706598
tags: california montereycounty pocketcamera cottonwoodtree sanantoniolake thanksgivingcamping canonpowershots100
license: 0
latitude: 35.863491
longitude: -120.97666
accuracy: 15
views: 57
interestingness: 79 out of 129

photo: 6470793521 dc449ec4e6 7169
owner: 30879819@N03
title: Sara Jennifer Panza // Self
originalsecret: null
originalformat: null
o_height: null
o_width: null
datetaken: 2011-12-02 15:21:44
dateupload: 1323252288
tags: snowflake christmas autumn red portrait woman color sexy fall girl beautiful beauty fashion female vintage happy photography sweater model glamour eyes doll pretty artistic fashionphotography michigan sinister gorgeous detroit hipster makeup vivid pale vogue fairy faded portraiture dreamy desaturated redlipstick lipstick brunette conceptual bohemian suave oldfashioned offset classy fallfashion lightblueeyes oversizedsweater detroitphotographer canon5dmarkii sarajenniferpanza josephconder
license: 0
latitude: 42.33168
longitude: -83.04792
accuracy: 11
views: 687
interestingness: 80 out of 129

photo: 6442647185 d58be64737 7167
owner: 49511688@N04
title: CAERPHILLY CASTLE     >   CASTELL CAERFFILI
originalsecret: 10156883dd
originalformat: jpg
o_height: 1544
o_width: 3984
datetaken: 2011-12-02 11:29:01
dateupload: 1322850044
tags: castle wales moat caerphilly welshhistory
license: 0
latitude: 51.563412
longitude: -3.199768
accuracy: 10
views: 86
interestingness: 81 out of 129

photo: 6434907141 0760b8b728 7146
owner: 7729940@N06
title: Foggy day - time to start
originalsecret: 803239343d
originalformat: jpg
o_height: 3432
o_width: 5148
datetaken: 2011-12-01 06:11:19
dateupload: 1322719254
tags: street new city morning light urban blackandwhite bw white mist black film window lamp fog wall night dark mirror office haze europe day view image time pov daniel empty creative foggy picture evil samsung poland zebra imaging 1977 less vapor weft nx mistiness nx200 kulinski daniel1977 samsungnx samsungimaging samsungnx200 danielkulinski
license: 1
latitude: 52.235622
longitude: 21.010864
accuracy: 16
views: 106
interestingness: 82 out of 129

photo: 6467652779 5b095518f2 7015
owner: 32533500@N07
title: so where do u think u are? ~ less romantic point of view
originalsecret: 17e9ca9851
originalformat: jpg
o_height: 3456
o_width: 5184
datetaken: 2011-11-28 18:06:23
dateupload: 1323202519
tags: street city uk urban brick london rough bricklane labyrinth nn eastlondon bricklanemarket londonphotographers nassiakapa
license: 0
latitude: 51.519371
longitude: -0.078964
accuracy: 14
views: 62
interestingness: 83 out of 129

photo: 6437612419 1bd48cdcd5 7160
owner: 52297086@N00
title: Afon Ogwen and Tryfan, Snowdonia
originalsecret: null
originalformat: null
o_height: null
o_width: null
datetaken: 2011-11-27 09:37:43
dateupload: 1322766796
tags: snowdon snowdonia tryfan ogwen llynogwen afonogwen
license: 0
latitude: 53.126019
longitude: -4.021854
accuracy: 13
views: 68
interestingness: 84 out of 129

photo: 6402564475 213542f901 7146
owner: 74113208@N00
title: insecure bully cop - photography is NOT a crime
originalsecret: null
originalformat: null
o_height: null
o_width: null
datetaken: 2011-11-25 05:37:06
dateupload: 1323008892
tags: street camera island photography pig is photo punk bc jamie mayor britishcolumbia chief dean police victoria vancouverisland crime cop brucedean professionalrecreationalist graham fortin harass vicpd chiefjamiegraham mayordeanfortin
license: 0
latitude: 48.436283
longitude: -123.361208
accuracy: 15
views: 183
interestingness: 85 out of 129

photo: 6441092151 7dd9cceb31 7154
owner: 74269181@N00
title: Tennis Anyone?
originalsecret: null
originalformat: null
o_height: null
o_width: null
datetaken: 2011-11-20 08:48:39
dateupload: 1322826527
tags: 
license: 0
latitude: 18.40079
longitude: -76.948585
accuracy: 11
views: 93
interestingness: 86 out of 129

photo: 6456403443 73e6a144e2 7170
owner: 48405916@N08
title: Strictly enforced
originalsecret: 3bb8dd0070
originalformat: jpg
o_height: 1536
o_width: 2330
datetaken: 2011-11-26 11:47:29
dateupload: 1323045990
tags: 
license: 0
latitude: 53.526533
longitude: -113.502502
accuracy: 11
views: 54
interestingness: 87 out of 129

photo: 6466728939 733dc23194 7152
owner: 38745062@N02
title: 16-bits vs. 8-bits - a Photoshop Tutorial
originalsecret: null
originalformat: null
o_height: null
o_width: null
datetaken: 2011-12-06 10:03:47
dateupload: 1323169640
tags: photoshop tutorial anseladams 16bit cameraraw photoshoptutorial rawfiles 16bits thetetonssnakeriver
license: 0
latitude: 43.754008
longitude: -110.623451
accuracy: 16
views: 44
interestingness: 88 out of 129

photo: 6438476735 a93dd5bb54 7165
owner: 63255278@N08
title: 'Tanking' away from Gloucester
originalsecret: 7fcfe5f360
originalformat: jpg
o_height: 747
o_width: 1280
datetaken: 1979-07-14 20:52:53
dateupload: 1322778056
tags: gloucester centurion class50 50011 d411
license: 0
latitude: 51.863233
longitude: -2.23173
accuracy: 13
views: 95
interestingness: 89 out of 129

photo: 6480218273 ca287c5875 7172
owner: 53404779@N07
title: Gullable
originalsecret: null
originalformat: null
o_height: null
o_width: null
datetaken: 2011-11-27 18:18:05
dateupload: 1323404695
tags: sunset sun seagulls water silhouette gate highiso thespit nikkor2470mm singhrayfilter dougjenningspark nikond7000 darylbensonnd3revgrad
license: 0
latitude: -27.938368
longitude: 153.4239
accuracy: 14
views: 46
interestingness: 90 out of 129

photo: 6449120899 8b27747a4b 7025
owner: 8342810@N02
title: Rydal Water
originalsecret: null
originalformat: null
o_height: null
o_width: null
datetaken: 2010-09-03 07:36:13
dateupload: 1322952285
tags: 
license: 0
latitude: 54.447486
longitude: -2.994976
accuracy: 11
views: 52
interestingness: 91 out of 129

photo: 6452556683 8da713e142 7033
owner: 8342810@N02
title: Buttermere
originalsecret: null
originalformat: null
o_height: null
o_width: null
datetaken: 2010-09-02 06:53:16
dateupload: 1323006340
tags: 
license: 0
latitude: 54.523871
longitude: -3.254356
accuracy: 10
views: 40
interestingness: 92 out of 129

photo: 6461102215 d5536441b9 7156
owner: 76583692@N00
title: Autumn Decay
originalsecret: e6a55bf04d
originalformat: jpg
o_height: 2592
o_width: 3888
datetaken: 2011-10-30 16:39:53
dateupload: 1323109987
tags: park old blue autumn sunset red sky brown plant building tree fall abandoned public beautiful leaves stone wall architecture standing vintage town october scenery colorful exterior vibrant empty ruin ukraine structure foliage clear pavilion kiev kyiv obsolete timesofyear
license: 1
latitude: 50.460418
longitude: 30.539474
accuracy: 16
views: 159
interestingness: 93 out of 129

photo: 6477948129 a1f2b26578 7020
owner: 13225209@N00
title: Gute Clowns ernten Applaus
originalsecret: 1ced6c2d8f
originalformat: jpg
o_height: 1000
o_width: 664
datetaken: 2011-12-08 20:23:00
dateupload: 1323369332
tags: fladv11
license: 0
latitude: 19.556878
longitude: -155.109786
accuracy: 10
views: 24
interestingness: 94 out of 129

photo: 6454304105 4890a76263 7033
owner: 46589036@N05
title: Chloe, the cross-eyed kitten: Less is More
originalsecret: null
originalformat: null
o_height: null
o_width: null
datetaken: 2011-12-04 17:15:30
dateupload: 1323025084
tags: kitten cloe week49 lessismore bestofcats 52of2011
license: 0
latitude: 41.551819
longitude: 2.286915
accuracy: 13
views: 60
interestingness: 95 out of 129

photo: 6443113101 61648150ee 7010
owner: 49196221@N03
title: Red Rock December Landscape
originalsecret: null
originalformat: null
o_height: null
o_width: null
datetaken: 2011-12-02 10:53:41
dateupload: 1322856429
tags: redrockcanyon winter mountains southwest landscape december shadows desert lasvegas nevada lee hitech redrockstatepark gndfilter nohdr d300s tokina1116mm28 gnd6softedge
license: 0
latitude: 36.084898
longitude: -115.456609
accuracy: 16
views: 91
interestingness: 96 out of 129

photo: 6437555923 7027729cf7 7016
owner: 16519638@N00
title: Moon Slice
originalsecret: null
originalformat: null
o_height: null
o_width: null
datetaken: 2011-11-29 20:46:56
dateupload: 1322766013
tags: moon canon nighttime lunar topaz t1i
license: 0
latitude: 43.905089
longitude: -91.23609
accuracy: 16
views: 42
interestingness: 97 out of 129

photo: 6457553745 0bb75a609b 7155
owner: 90807129@N00
title: LAFD Battles Massive Blaze in El Sereno Equipment Yard
originalsecret: null
originalformat: null
o_height: null
o_width: null
datetaken: 2011-12-02 03:23:47
dateupload: 1323058809
tags: lafd losangelesfiredepartment mikemeadows
license: 0
latitude: 34.074588
longitude: -118.166961
accuracy: 15
views: 459
interestingness: 98 out of 129

photo: 6442154751 9da80eb73d 7148
owner: 48295575@N05
title: New Photo: Nick Jonas upcoming episode of ABC?s "Last Man Standing" [5]
originalsecret: null
originalformat: null
o_height: null
o_width: null
datetaken: 2011-12-02 10:30:45
dateupload: 1322843445
tags: usa newyork tour disney jonas deltagoodrem jonasbrothers onedirection mileycyrus tumblr nickjonas kevinjonas joejonas demilovatoselenagomez justinbieber
license: 0
latitude: 40.77304
longitude: -73.957489
accuracy: 13
views: 209
interestingness: 99 out of 129

photo: 6465218077 a30a6dce55 7026
owner: 40297601@N02
title: Snowy Owl...#2
originalsecret: null
originalformat: null
o_height: null
o_width: null
datetaken: 2011-12-01 10:08:23
dateupload: 1323168792
tags: canada birds animals canon wildlife manitoba owls arnaud 50d canonef400mmf56l avianexcellence owlsnowy amazingwildlifephotography
license: 0
latitude: 49.25212
longitude: -97.049446
accuracy: 11
views: 35
interestingness: 100 out of 129

photo: 6436159447 f7e98b530e 7152
owner: 7729940@N06
title: Bird-2
originalsecret: 2b3950b83d
originalformat: jpg
o_height: 5103
o_width: 3402
datetaken: 2011-12-01 09:50:09
dateupload: 1322746421
tags: life autumn get cold bird fall nature colors mirror europe hand image daniel creative picture gap bleach evil samsung poland catch imaging feed 1977 less hold nab snatch grasp nx nx200 kulinski daniel1977 samsungnx samsungimaging samsungnx200 danielkulinski
license: 1
latitude: 52.217546
longitude: 21.033684
accuracy: 16
views: 108
interestingness: 101 out of 129

photo: 6476652019 20392367cb 7155
owner: 8692813@N06
title: 339/365 Hanging on
originalsecret: 916fea323c
originalformat: jpg
o_height: 1740
o_width: 2615
datetaken: 2011-12-05 09:21:33
dateupload: 1323350407
tags: autumn fall nature georgia leaf week49 lagrange troupcounty thesussman sonyalphadslra550 project36612011 52of2011 themelessismore
license: 3
latitude: 33.053394
longitude: -85.037645
accuracy: 16
views: 44
interestingness: 102 out of 129

photo: 6446927477 b617b905c1 7156
owner: 40740668@N05
title: Blue On Wall
originalsecret: c2665e2835
originalformat: jpg
o_height: 1838
o_width: 2461
datetaken: 2011-12-03 10:57:38
dateupload: 1322925005
tags: blue yellow wall shirt contrast is pipes minimal more simplicity copyspace simply simple less colorimage mobilephotography iphoneography tontygammy
license: 0
latitude: 13.762833
longitude: 100.5375
accuracy: 16
views: 38
interestingness: 103 out of 129

photo: 6457354055 34400ff245 7025
owner: 10084809@N04
title: Day 263:365
originalsecret: 8a541541f3
originalformat: jpg
o_height: 2602
o_width: 4592
datetaken: 2011-12-04 21:01:53
dateupload: 1323056424
tags: coffee mugs michigan sony cups arbor ann comet washtenaw nex5
license: 0
latitude: 42.278209
longitude: -83.740768
accuracy: 15
views: 30
interestingness: 104 out of 129

photo: 6438854101 809c162ea3 7166
owner: 14721410@N03
title: P1080111C Snow Cover, 18-12-10
originalsecret: a86175a2e8
originalformat: jpg
o_height: 788
o_width: 1077
datetaken: 2010-12-18 12:37:02
dateupload: 1322783376
tags: snow london church w4 turnhamgreen jonperry enlightenshade
license: 0
latitude: 51.491861
longitude: -0.264154
accuracy: 16
views: 27
interestingness: 105 out of 129

photo: 6461207687 1d108676cf 7011
owner: 35528040@N04
title: The Side View
originalsecret: 0b67e02ed9
originalformat: jpg
o_height: 1752
o_width: 2638
datetaken: 2011-09-06 13:46:25
dateupload: 1323111215
tags: statepark usa america us midwest ks historic kansas historical smalltown ponyexpress pammorris ponyexpressstation pamspics septemberroadtrip hollenbergstation nikond5000 hanoverkansas
license: 1
latitude: 39.90381
longitude: -96.844654
accuracy: 16
views: 37
interestingness: 106 out of 129

photo: 6442829281 4d6e7a9059 7014
owner: 65614637@N00
title: Fleetwith Pike and Buttermere
originalsecret: null
originalformat: null
o_height: null
o_width: null
datetaken: 2011-09-14 15:08:55
dateupload: 1322852604
tags: lakedistrict wainwright fells aw buttermere peakbagging fleetwithpike westernfells canoneos5dmarkii honistercrag samyang14mmf28ifedumc
license: 0
latitude: 54.516287
longitude: -3.217371
accuracy: 16
views: 44
interestingness: 107 out of 129

photo: 6440040873 e173c8ffac 7003
owner: 25005098@N03
title: Before...
originalsecret: cbe2b1dd80
originalformat: jpg
o_height: 940
o_width: 1500
datetaken: 1971-11-28 20:39:26
dateupload: 1322803097
tags: california santafe trains sanbernardino sd24
license: 0
latitude: 34.186139
longitude: -117.362523
accuracy: 14
views: 37
interestingness: 108 out of 129

photo: 6456703637 2ed0552c29 7154
owner: 45864885@N03
title: CITX 3056
originalsecret: 428efb043d
originalformat: jpg
o_height: 680
o_width: 1024
datetaken: 2011-12-04 14:30:50
dateupload: 1323049356
tags: 
license: 0
latitude: 44.240771
longitude: -96.29774
accuracy: 11
views: 62
interestingness: 109 out of 129

photo: 6453432325 731ea0de7e 7002
owner: 68709577@N06
title: One of three Falcons at Rennies.
originalsecret: ea7e132412
originalformat: jpg
o_height: 776
o_width: 1077
datetaken: 1998-11-17 16:29:51
dateupload: 1323016191
tags: dunfermline rennies northerncounties wellwood greatermanchesterpte dennisfalcon a472hnc
license: 0
latitude: 56.086692
longitude: -3.466529
accuracy: 11
views: 29
interestingness: 110 out of 129

photo: 6439600197 7d82527494 7007
owner: 53323105@N02
title: Coaster Love
originalsecret: c6eca83bcb
originalformat: jpg
o_height: 2052
o_width: 2736
datetaken: 2011-09-04 13:03:13
dateupload: 1322795631
tags: utah lagoon saltlakecity creativecommons amusementpark rollercoaster 19 birdseyeview farmington coasters highviewpoint 111picturesin2011
license: 1
latitude: 40.982973
longitude: -111.89651
accuracy: 14
views: 25
interestingness: 111 out of 129

photo: 6433881879 243a8996c4 7024
owner: 34578976@N00
title: Loon Lake B-23 Isometric
originalsecret: 9f09128d99
originalformat: jpg
o_height: 2934
o_width: 3168
datetaken: 2011-11-30 19:11:18
dateupload: 1322703287
tags: lake 3d model bomber pap loon b23 meshlab hypr3d
license: 0
latitude: 45.15877
longitude: -115.841238
accuracy: 14
views: 95
interestingness: 112 out of 129

photo: 6436186539 f10aaf8c51 7026
owner: 55426164@N00
title: Wedding Canyon, Colorado National Monument
originalsecret: 3ce2fbf8b6
originalformat: jpg
o_height: 829
o_width: 1229
datetaken: 2011-09-06 09:25:41
dateupload: 1322746888
tags: colorado parks canyons professionalphotographer nationalmonuments coloradonationalmonument westernlandscapes photoworkshops phototours phototourguide jmwnaturesimagescom audiovisualphotopresentations
license: 0
latitude: 39.102877
longitude: -108.727043
accuracy: 16
views: 46
interestingness: 113 out of 129

photo: 6462802987 df97c7098e 7016
owner: 25171569@N02
title: 114e2 tiny beauty
originalsecret: 543e07a115
originalformat: jpg
o_height: 991
o_width: 856
datetaken: 2011-11-23 04:26:05
dateupload: 1323129790
tags: autumn macro forest tn hiking small fungi smokies
license: 4
latitude: 35.751318
longitude: -83.677282
accuracy: 13
views: 17
interestingness: 114 out of 129

photo: 6461195773 9660813fdf 7156
owner: 35528040@N04
title: A Piece Of History
originalsecret: 14a3994109
originalformat: jpg
o_height: 1310
o_width: 1957
datetaken: 2011-09-06 13:47:37
dateupload: 1323111076
tags: usa building history america us midwest ks kansas historical hanover smalltown ponyexpress pammorris pamspics septemberroadtrip nikond5000 hollenbergponyexpressstation
license: 1
latitude: 39.904008
longitude: -96.844654
accuracy: 16
views: 41
interestingness: 115 out of 129

photo: 6446024919 634103da1a 7163
owner: 55691305@N08
title: st augustine lighthouse haunted?
originalsecret: eb1939830f
originalformat: jpg
o_height: 2440
o_width: 7296
datetaken: 2011-03-16 15:38:28
dateupload: 1322909679
tags: lighthouse feet st shoes haunted augustine crocs
license: 1
latitude: 29.885541
longitude: -81.288346
accuracy: 16
views: 43
interestingness: 116 out of 129

photo: 6442155719 7995a49185 7173
owner: 48295575@N05
title: New Photo: Nick Jonas upcoming episode of ABC?s "Last Man Standing"
originalsecret: null
originalformat: null
o_height: null
o_width: null
datetaken: 2011-12-02 10:30:56
dateupload: 1322843456
tags: usa newyork tour disney jonas deltagoodrem jonasbrothers onedirection mileycyrus tumblr nickjonas kevinjonas joejonas demilovatoselenagomez justinbieber
license: 0
latitude: 40.77304
longitude: -73.957489
accuracy: 13
views: 242
interestingness: 117 out of 129

photo: 6441726411 25cf8cc390 7024
owner: 93108868@N00
title: Landscape
originalsecret: 4b46923169
originalformat: jpg
o_height: 3168
o_width: 4752
datetaken: 2011-06-26 12:01:16
dateupload: 1322837528
tags: mountain mountains nature landscape iceland hiking fimmv?r?uh?ls fimmvorduhals
license: 0
latitude: 63.645598
longitude: -19.457164
accuracy: 10
views: 84
interestingness: 118 out of 129

photo: 6441399337 3f73470bd5 7003
owner: 7729940@N06
title: IGNORE
originalsecret: 1ee8279bb9
originalformat: jpg
o_height: 3465
o_width: 5197
datetaken: 2011-12-02 13:45:56
dateupload: 1322832407
tags: blur macro colors matrix point mirror tv europe image daniel creative foggy picture evil samsung poland pixel imaging lcd 1977 rgb blured less ignore nx nx200 kulinski daniel1977 samsungnx samsungimaging samsungnx200 danielkulinski
license: 1
latitude: 52.169686
longitude: 20.998917
accuracy: 16
views: 37
interestingness: 119 out of 129

photo: 6473206029 a8410c35a6 7018
owner: 8070463@N03
title: The three cubs violently fighting near the water
originalsecret: 859b314337
originalformat: jpg
o_height: 2832
o_width: 3776
datetaken: 2011-09-24 17:15:29
dateupload: 1323288364
tags: wild playing cute cat fun zoo cub switzerland three big nikon tiger young paws z?rich siberian fighting amur violent d700
license: 6
latitude: 47.382079
longitude: 8.571739
accuracy: 12
views: 33
interestingness: 120 out of 129

photo: 6442155545 636e3f4208 7008
owner: 48295575@N05
title: New Photo: Nick Jonas upcoming episode of ABC?s "Last Man Standing" [2]
originalsecret: null
originalformat: null
o_height: null
o_width: null
datetaken: 2011-12-02 10:30:54
dateupload: 1322843454
tags: usa newyork tour disney jonas deltagoodrem jonasbrothers onedirection mileycyrus tumblr nickjonas kevinjonas joejonas demilovatoselenagomez justinbieber
license: 0
latitude: 40.77304
longitude: -73.957489
accuracy: 13
views: 192
interestingness: 121 out of 129

photo: 6445794999 e4c0810da1 7014
owner: 8258976@N03
title: Porte Cochere Project, Milton Keynes
originalsecret: 5e3e7466fb
originalformat: jpg
o_height: 2360
o_width: 3176
datetaken: 2011-12-01 11:51:09
dateupload: 1322904478
tags: miltonkeynes portecochere centralmiltonkeynes miltonkeynesgallery schoolcompetition bolanskiheardarchitects
license: 0
latitude: 52.042843
longitude: -0.747756
accuracy: 14
views: 123
interestingness: 122 out of 129

photo: 6440198059 44aa976fda 7032
owner: 43643415@N07
title: Starry whirlpool
originalsecret: null
originalformat: null
o_height: null
o_width: null
datetaken: 2011-12-02 00:00:07
dateupload: 1322806095
tags: usa lake reflection oklahoma water night stars nikon nightsky circular startrails polaris laketexoma 2011 d7000 nikond7000 starstax
license: 0
latitude: 33.990412
longitude: -96.620721
accuracy: 14
views: 29
interestingness: 123 out of 129

photo: 6466148019 fc9ab4b0fd 7018
owner: 93108868@N00
title: Iceland
originalsecret: 6c2f990767
originalformat: jpg
o_height: 3168
o_width: 4752
datetaken: 2011-06-26 12:02:26
dateupload: 1323184119
tags: mountain nature landscape iceland hiking hike fimmv?r?uh?ls fimmvorduhals
license: 0
latitude: 63.650018
longitude: -19.461284
accuracy: 10
views: 49
interestingness: 124 out of 129

photo: 6442428367 ea4a865c9d 7157
owner: 57639431@N00
title: Along Old Almonte Road #2
originalsecret: a5bdcf7801
originalformat: jpg
o_height: 1600
o_width: 2400
datetaken: 2011-11-25 13:12:24
dateupload: 1322847044
tags: ottawa easternontario oldalmontroad
license: 3
latitude: 45.273195
longitude: -76.033716
accuracy: 16
views: 24
interestingness: 125 out of 129

photo: 6473546317 c9dc02c438 7013
owner: 28181728@N07
title: 327/365:  Housewarming Card
originalsecret: null
originalformat: null
o_height: null
o_width: null
datetaken: 2011-11-23 09:09:00
dateupload: 1323292944
tags: party card gift 365 picnik housewarmingparty day327 project365 3661 327365 365community thanksgivinggathering 112311 thethingswesee project36612011 project752 2011yip 3652011 365the2011edition 11232011 project36523nov11 project365231111 boughtinfancygroceerystorre
license: 0
latitude: 32.866996
longitude: -83.695556
accuracy: 16
views: 17
interestingness: 126 out of 129

photo: 6457762437 3e8bfea477 7010
owner: 48351188@N04
title: Amtrak 139
originalsecret: null
originalformat: null
o_height: null
o_width: null
datetaken: 2011-04-08 10:39:24
dateupload: 1323061344
tags: texture sepia train vintage nc track northcarolina raleigh amtrak rails hdr onone 3xp photomatix paulmalcolm perfecteffects
license: 0
latitude: 35.77505
longitude: -78.645758
accuracy: 14
views: 29
interestingness: 127 out of 129

photo: 6472446429 200085aaa5 7157
owner: 76583692@N00
title: Environmentally Friendly Streetlamp
originalsecret: 23e6992cb0
originalformat: jpg
o_height: 3834
o_width: 2556
datetaken: 2007-06-30 19:15:43
dateupload: 1323278357
tags: park blue trees light summer sky plants black green art fall nature public ecology lamp bulb clouds garden outdoors design globe streetlight europe solitude day branch quiet peace post streetlamp illumination sunny ukraine lamppost round environment ornamental kiev kyiv florescent
license: 1
latitude: 50.448213
longitude: 30.539151
accuracy: 16
views: 52
interestingness: 128 out of 129

photo: 6436170385 d3816b1986 7016
owner: 7729940@N06
title: Basket view
originalsecret: a77c155315
originalformat: jpg
o_height: 3442
o_width: 5162
datetaken: 2011-12-01 10:11:06
dateupload: 1322746610
tags: playing field basketball sport ball court mirror europe floor image daniel creative picture evil samsung poland health imaging 1977 less threshing nx baske nx200 kulinski daniel1977 samsungnx samsungimaging samsungnx200 danielkulinski
license: 1
latitude: 52.218085
longitude: 21.033931
accuracy: 16
views: 65
interestingness: 129 out of 129

photo: 6433668319 288af64848 7170
owner: 65512718@N08
title: The Road Less Traveled By......
originalsecret: null
originalformat: null
o_height: null
o_width: null
datetaken: 2011-11-16 10:51:53
dateupload: 1322700126
tags: singapore botanicalgarden
license: 0
latitude: 1.365579
longitude: 103.827713
accuracy: 2
views: 11
interestingness: 130 out of 129

photo: 6473769303 c967a2f787 7168
owner: 53654205@N05
title: Spirit of the Forest
originalsecret: 300ffd2f97
originalformat: jpg
o_height: 2336
o_width: 3504
datetaken: 2011-04-25 11:59:01
dateupload: 1323296098
tags: camera trees light shadow blackandwhite bw abstract motion blur art 20d monochrome forest photoshop canon dark eos woods monotone dslr tone impression phototools silverefexpro
license: 0
latitude: 52.155188
longitude: -0.837707
accuracy: 11
views: 24
interestingness: 131 out of 129

photo: 6455977531 9d44a86a0c 7174
owner: 34608298@N05
title: Project 365, Day 317
originalsecret: null
originalformat: null
o_height: null
o_width: null
datetaken: 2011-11-03 13:59:00
dateupload: 1323041418
tags: dinner square salad colorful napkin plate fork lettuce cleopatra deepthoughts straightoutofthecamera project365 saladdays shuttersisters
license: 0
latitude: 39.205322
longitude: -106.859378
accuracy: 16
views: 35
interestingness: 132 out of 129

photo: 6454931601 489571f316 7152
owner: 58645447@N00
title: Columbia River Plateau_5911: Boyd Granary
originalsecret: d25729ede3
originalformat: jpg
o_height: 715
o_width: 1024
datetaken: 2011-10-30 06:41:36
dateupload: 1323031188
tags: oregon washington cattle farming lakes oldbuildings farmland columbiariver waterfalls rivers mthood mtadams hoodriver lostlake columbiarivergorge homesteads farmlands coumbiarivergorge ranches greatphotographers schoolhouses hwy35 nikond700 tamawanasfalls columbiariverplateau volcanoeswaterfalls boydgranary troutlakeriverbend
license: 3
latitude: 45.708858
longitude: -121.510742
accuracy: 11
views: 20
interestingness: 133 out of 129

photo: 6445950301 b4aa3d3d14 7014
owner: 7729940@N06
title: Gift box-3
originalsecret: 2a5bb080a1
originalformat: jpg
o_height: 3613
o_width: 5419
datetaken: 2011-12-02 19:53:14
dateupload: 1322908090
tags: christmas blue light black night dark lights mirror europe image box daniel decoration creative picture evil samsung poland led gift imaging 1977 less nx nx200 kulinski daniel1977 samsungnx samsungimaging samsungnx200 danielkulinski
license: 1
latitude: 52.178458
longitude: 21.003429
accuracy: 16
views: 52
interestingness: 134 out of 129

photo: 6443738279 3fe5de7c7a 7009
owner: 58111124@N05
title: Moroccan Market, Peterborough.
originalsecret: b878093a60
originalformat: jpg
o_height: 2736
o_width: 3648
datetaken: 2011-12-02 18:45:04
dateupload: 1322865455
tags: market peterborough cambridgeshire cathedralsquare moroccanmarket
license: 0
latitude: 52.572705
longitude: -0.243394
accuracy: 15
views: 35
interestingness: 135 out of 129

photo: 6469976209 7e0d41ebb6 7142
owner: 93254204@N00
title: ...Christmas...
originalsecret: null
originalformat: null
o_height: null
o_width: null
datetaken: 2011-12-06 18:39:13
dateupload: 1323235093
tags: christmas autumn holland tree fall netherlands amsterdam hotel europe singing wicked nophotoshop lifeisgood carpediem waterreflections stadsarchief 2011 amstersam reflectah amstersm amsterdamthebestcityintheworld reflectionsofamsterdam checkoutmywebsitewwwamstersamcom wickedreflections thesingingchristmastree puddlepictures sonyhx1 thewickedreflectah amstersmthewickedreflectah
license: 0
latitude: 52.360014
longitude: 4.905438
accuracy: 16
views: 102
interestingness: 136 out of 129

photo: 6451399957 e366eea03b 7031
owner: 38115896@N05
title: "Respire"
originalsecret: null
originalformat: null
o_height: null
o_width: null
datetaken: 2011-12-04 00:29:29
dateupload: 1322987369
tags: ocean sea rock oregon coast surf waves pacific castlerock archcape garyloveless
license: 0
latitude: 45.812469
longitude: -123.988952
accuracy: 16
views: 32
interestingness: 137 out of 129

photo: 6435562569 e0b19aacec 7158
owner: 30888227@N08
title: Sheltered and leashed
originalsecret: b2c96e465d
originalformat: jpg
o_height: 1000
o_width: 1333
datetaken: 2011-09-07 14:36:01
dateupload: 1322734365
tags: ocean uk greatbritain sea england beach strand boats coast harbor meer europe cornwall dorf village view unitedkingdom harbour ships shoreline eu boote atlantic aussicht hafen atlanticocean dylanthomas hamlet seaport schiffe englishchannel seacoast ausblick vessels mousehole fishingvillage k?ste cornish penzance atlantik lamanche fischerdorf wellenbrecher breakwaters harbortown fischkutter harbourtown porttown hafenstadt irischesee celticsea dollypentreath ?rmelkanal mount?sbay grosbritannien fishingsmacks navaltown seaporttown tombawcock tombawcockseve fishingcutters fishermen?svillage
license: 0
latitude: 50.083113
longitude: -5.537903
accuracy: 15
views: 27
interestingness: 138 out of 129

photo: 6442358673 30177f8902 7017
owner: 34695815@N04
title: Path to El Capitan
originalsecret: null
originalformat: null
o_height: null
o_width: null
datetaken: 2011-11-23 13:47:01
dateupload: 1322846130
tags: cad2yosemiteravens
license: 0
latitude: 37.667541
longitude: -119.805389
accuracy: 1
views: 26
interestingness: 139 out of 129

photo: 6471999635 642b84d618 7020
owner: 61932398@N00
title: Heading for Water
originalsecret: b912e6dc73
originalformat: jpg
o_height: 1065
o_width: 1600
datetaken: 2010-06-28 19:53:38
dateupload: 1323272734
tags: mountains nature water river landscape europe view web geotag hdr 2010 eol egne bo47 thefaroeislands bonielsen nikond3s exposureoflifecom
license: 5
latitude: 62.050347
longitude: -6.923137
accuracy: 16
views: 12
interestingness: 140 out of 129

photo: 6435562997 637c932256 7156
owner: 30888227@N08
title: Of mice and men
originalsecret: 5ba0248bfc
originalformat: jpg
o_height: 1000
o_width: 1333
datetaken: 2011-09-07 14:32:08
dateupload: 1322734376
tags: ocean uk greatbritain sea england beach strand boats coast harbor meer europe cornwall dorf village view unitedkingdom harbour ships shoreline eu boote atlantic aussicht hafen atlanticocean dylanthomas hamlet seaport schiffe englishchannel seacoast ausblick vessels mousehole fishingvillage k?ste cornish penzance atlantik lamanche fischerdorf wellenbrecher breakwaters harbortown fischkutter harbourtown porttown hafenstadt irischesee celticsea dollypentreath ?rmelkanal mount?sbay grosbritannien fishingsmacks navaltown seaporttown tombawcock tombawcockseve fishingcutters fishermen?svillage
license: 0
latitude: 50.0827
longitude: -5.538117
accuracy: 15
views: 37
interestingness: 141 out of 129

photo: 6433767865 572537b446 7143
owner: 64620762@N02
title: G-CIVU - British Airways - Boeing 747-436
originalsecret: null
originalformat: null
o_height: null
o_width: null
datetaken: 2011-04-16 18:35:50
dateupload: 1322701612
tags: canada vancouver plane airplane britishcolumbia aviation jet british ba boeing airways yvr 747 airliner jumbo speedbird gcivu
license: 0
latitude: 49.18535
longitude: -123.165793
accuracy: 13
views: 36
interestingness: 142 out of 129

photo: 6454931861 8b238d8056 7033
owner: 58645447@N00
title: Columbia River Plateau_5931
originalsecret: 62d702c08f
originalformat: jpg
o_height: 681
o_width: 1024
datetaken: 2011-10-30 06:45:37
dateupload: 1323031190
tags: oregon washington cattle farming lakes oldbuildings farmland columbiariver waterfalls rivers mthood mtadams hoodriver lostlake columbiarivergorge homesteads farmlands coumbiarivergorge ranches greatphotographers schoolhouses hwy35 nikond700 tamawanasfalls columbiariverplateau volcanoeswaterfalls boydgranary troutlakeriverbend
license: 3
latitude: 45.650528
longitude: -121.5596
accuracy: 9
views: 10
interestingness: 143 out of 129

photo: 6443475899 e681eac35a 7013
owner: 30120563@N03
title: Unpacking Christmas
originalsecret: 3af6e8a436
originalformat: jpg
o_height: 1708
o_width: 1708
datetaken: 2011-12-02 14:36:20
dateupload: 1322861609
tags: 
license: 0
latitude: 44.626037
longitude: -65.760183
accuracy: 15
views: 57
interestingness: 144 out of 129

photo: 6436141647 a22c3a7b46 7149
owner: 31888501@N08
title: Ahhhhh, this is the life! :-))
originalsecret: 367ca69ed8
originalformat: jpg
o_height: 800
o_width: 600
datetaken: 2009-07-04 15:17:26
dateupload: 1322754077
tags: hiking funtimes youngman greatoutdoors drinkingcoffee thehillsarealivewiththesoundofjohnny
license: 0
latitude: 56.908814
longitude: -5.297641
accuracy: 11
views: 60
interestingness: 145 out of 129

photo: 6469976519 c5fc75eaeb 7024
owner: 93254204@N00
title: The Singing...
originalsecret: null
originalformat: null
o_height: null
o_width: null
datetaken: 2011-12-06 18:44:02
dateupload: 1323235098
tags: christmas autumn holland tree fall netherlands amsterdam hotel europe singing wicked nophotoshop lifeisgood carpediem waterreflections stadsarchief 2011 amstersam reflectah amstersm amsterdamthebestcityintheworld reflectionsofamsterdam checkoutmywebsitewwwamstersamcom wickedreflections thesingingchristmastree puddlepictures sonyhx1 thewickedreflectah amstersmthewickedreflectah
license: 0
latitude: 52.360014
longitude: 4.905438
accuracy: 16
views: 122
interestingness: 146 out of 129

photo: 6469038297 a7f2087f7a 7010
owner: 91779914@N00
title: Eilean Donan Castle Wester Ross Lochalsh Scotland
originalsecret: f7ae5154aa
originalformat: jpg
o_height: 505
o_width: 1223
datetaken: 2006-04-13 11:35:38
dateupload: 1323220925
tags: castle scotland ross highlands alba scottish escocia highland scotia fortress szkocja caledonia eileandonan conner schottland westerross schotland ecosse kintail dornie scozia eileandonancastle skottland scottishcastles rossshire skotlanti skotland castlescotland ??????? ??? ??????? kartpostal scotlandcastle scottishcastle highlandcastle ?????? daveconner conner395 ????????? castlesofscotland davidconner daveconnerinverness daveconnerinvernessscotland scottishcastlepic scottishcastlephotograph castlescots scottishhighlandcastle ?????????? castlesinthehighlandsofscotland castlephotograph ????????
license: 4
latitude: 57.276676
longitude: -5.517368
accuracy: 13
views: 31
interestingness: 147 out of 129

photo: 6463138025 b2ce3ea498 7169
owner: 57909150@N05
title: Executive feature level 30
originalsecret: null
originalformat: null
o_height: null
o_width: null
datetaken: 2011-12-01 05:04:42
dateupload: 1323134303
tags: architecture modern photography design floating architect elegant simple timeless lessismore featurewall tokina1116mm monumentalstairs nikond3100
license: 0
latitude: 29.757783
longitude: -95.367336
accuracy: 15
views: 20
interestingness: 148 out of 129

photo: 6442155305 93077cbc96 7033
owner: 48295575@N05
title: New Photo: Nick Jonas upcoming episode of ABC?s "Last Man Standing" [3]
originalsecret: null
originalformat: null
o_height: null
o_width: null
datetaken: 2011-12-02 10:30:51
dateupload: 1322843451
tags: usa newyork tour disney jonas deltagoodrem jonasbrothers onedirection mileycyrus tumblr nickjonas kevinjonas joejonas demilovatoselenagomez justinbieber
license: 0
latitude: 40.77304
longitude: -73.957489
accuracy: 13
views: 173
interestingness: 149 out of 129

photo: 6439170211 a2f65d761f 7002
owner: 13907834@N00
title: Lights Of December: December 1, 2011
originalsecret: b5d41d7a30
originalformat: jpg
o_height: 1742
o_width: 2322
datetaken: 2011-12-01 20:09:19
dateupload: 1322788324
tags: toronto ontario canada lights december etobicoke 2011
license: 4
latitude: 43.671716
longitude: -79.541219
accuracy: 16
views: 83
interestingness: 150 out of 129

photo: 6438421525 13454ef0b6 7015
owner: 31138867@N08
title: Packard Cormorant Mascot
originalsecret: null
originalformat: null
o_height: null
o_width: null
datetaken: 2011-06-15 15:04:28
dateupload: 1322777325
tags: cars june michigan oldcars packard canon1740l 2011 gilmorecarmuseum barrycounty hickorycorners 1938packard june2011 automascots 1930scars fullclassiccars
license: 0
latitude: 42.439349
longitude: -85.422756
accuracy: 16
views: 13
interestingness: 151 out of 129

photo: 6448805943 8681433b70 7171
owner: 24121629@N08
title: Scan-111203-0001 2000
originalsecret: null
originalformat: null
o_height: null
o_width: null
datetaken: 2011-12-04 00:08:06
dateupload: 1322948375
tags: horses holland beach strand nikonf100 horseriding noordwijkerhout sigmaex2470f28 pwsonline plustekopticfilm7400
license: 0
latitude: 52.297876
longitude: 4.474353
accuracy: 11
views: 51
interestingness: 152 out of 129

photo: 6446574771 db14eb34b7 7029
owner: 28632221@N05
title: Slender-billed Gull (Chroicocephalus genei)
originalsecret: ea6c6c527d
originalformat: jpg
o_height: 972
o_width: 1473
datetaken: 2011-11-22 11:47:23
dateupload: 1322919843
tags: cyprus limassol slenderbilledgull larusgenei ladysmile akrotirisaltlake chroicocephalusgenei
license: 0
latitude: 34.626074
longitude: 32.997779
accuracy: 16
views: 58
interestingness: 153 out of 129

photo: 6442155029 e1f34f6d5c 7147
owner: 48295575@N05
title: New Photo: Nick Jonas upcoming episode of ABC?s "Last Man Standing" [4]
originalsecret: null
originalformat: null
o_height: null
o_width: null
datetaken: 2011-12-02 10:30:48
dateupload: 1322843448
tags: usa newyork tour disney jonas deltagoodrem jonasbrothers onedirection mileycyrus tumblr nickjonas kevinjonas joejonas demilovatoselenagomez justinbieber
license: 0
latitude: 40.77304
longitude: -73.957489
accuracy: 13
views: 210
interestingness: 154 out of 129

photo: 6470176091 df4c9331c8 7141
owner: 34481239@N00
title: 3.365: Without Performers
originalsecret: null
originalformat: null
o_height: null
o_width: null
datetaken: 2011-12-06 22:19:38
dateupload: 1323238778
tags: columbus ohio bw music bar night canon 50mm drink bokeh guitar f14 empty stage 365 seating venue 50d
license: 0
latitude: 40.003391
longitude: -83.000829
accuracy: 15
views: 57
interestingness: 155 out of 129

photo: 6452186491 13e48a9146 7152
owner: 53008590@N06
title: Astrotrac Time Ruler
originalsecret: null
originalformat: null
o_height: null
o_width: null
datetaken: 2011-12-04 11:25:27
dateupload: 1323001315
tags: diy space astro mount astrophotography modification at astrotrac tt320xag
license: 0
latitude: 53.755282
longitude: -0.447521
accuracy: 13
views: 198
interestingness: 156 out of 129

photo: 6444377163 de18ac5be5 7005
owner: 28530821@N05
title: day forty four - profile
originalsecret: null
originalformat: null
o_height: null
o_width: null
datetaken: 2011-12-01 18:34:36
dateupload: 1322888110
tags: selfportrait me self 365 newhair ness 365days bochallenge manicpanicfushiashock
license: 0
latitude: 45.559061
longitude: -73.569016
accuracy: 15
views: 84
interestingness: 157 out of 129

photo: 6472585359 462aac5809 7141
owner: 29465267@N00
title: 49/52. Less is more
originalsecret: e535916c83
originalformat: jpg
o_height: 2592
o_width: 3872
datetaken: 2011-12-07 09:08:07
dateupload: 1323280063
tags: christ cross sony minimal cruz cristo alpha minimalista lessismore week01 sonyalpha sonyalpha200 sonyalphadslra200 sonyalphadslr200 52of2011
license: 2
latitude: 10.487558
longitude: -66.806037
accuracy: 16
views: 57
interestingness: 158 out of 129

photo: 6469975821 9efb721476 7144
owner: 93254204@N00
title: ...Tree
originalsecret: null
originalformat: null
o_height: null
o_width: null
datetaken: 2011-12-06 18:44:39
dateupload: 1323235086
tags: christmas autumn holland tree fall netherlands amsterdam hotel europe singing wicked nophotoshop lifeisgood carpediem waterreflections stadsarchief 2011 amstersam reflectah amstersm amsterdamthebestcityintheworld reflectionsofamsterdam checkoutmywebsitewwwamstersamcom wickedreflections thesingingchristmastree puddlepictures sonyhx1 thewickedreflectah amstersmthewickedreflectah
license: 0
latitude: 52.360014
longitude: 4.905438
accuracy: 16
views: 83
interestingness: 159 out of 129

photo: 6465436053 d32083e1dd 7146
owner: 64151671@N06
title: FAC 5 (TFRP No. 61)
originalsecret: null
originalformat: null
o_height: null
o_width: null
datetaken: 2011-10-25 17:52:03
dateupload: 1323173320
tags: manchester nikon 45 acr nikkor dslr 1979 petersaville jeremykerr allnightparty factoryrecords tonywilson anthonyhwilson picturesleeve acertainratio 7inchsingle martinmoscrop martinhannett simontopping d7000 fac5 peterterrell thefactoryrecordsproject thethinboys
license: 0
latitude: 53.431524
longitude: -2.230739
accuracy: 16
views: 19
interestingness: 160 out of 129

photo: 6451117351 cae9e92187 7152
owner: 26361100@N06
title: Favourite Wildplace_STewart_005_TNT11
originalsecret: null
originalformat: null
o_height: null
o_width: null
datetaken: 2010-07-09 10:43:02
dateupload: 1322981918
tags: nature water river landscape rocks stream scenic waterfalls favouritewildplacestewart005tnt11
license: 0
latitude: 48.948069
longitude: -123.766479
accuracy: 13
views: 24
interestingness: 161 out of 129

photo: 6446935259 5dcd9c8542 7017
owner: 36595580@N08
title: Last bits of water....
originalsecret: 2cc2bae41f
originalformat: jpg
o_height: 4288
o_width: 2848
datetaken: 2011-10-03 08:57:26
dateupload: 1322925119
tags: reflection tree water agua aqua eau wasser mud boom stump pan namibia arbre baum voda modder reflektion sossusvlei stronk reflectie namibi? namibien
license: 2
latitude: -24.738945
longitude: 15.286955
accuracy: 16
views: 17
interestingness: 162 out of 129

photo: 6445793703 de97b5776c 7156
owner: 8258976@N03
title: Porte Cochere Project, Milton Keynes
originalsecret: e052f44dc6
originalformat: jpg
o_height: 3072
o_width: 5120
datetaken: 2011-12-03 09:27:29
dateupload: 1322904449
tags: miltonkeynes portecochere centralmiltonkeynes miltonkeynesgallery schoolcompetition mkdcarchitects mkdcarchitectsdepartment
license: 0
latitude: 52.042843
longitude: -0.747756
accuracy: 14
views: 91
interestingness: 163 out of 129

photo: 6448276135 6d72117dcd 7156
owner: 92033577@N00
title: Priscilla A., Age 27
originalsecret: 7f7078336d
originalformat: jpg
o_height: 1024
o_width: 768
datetaken: 2011-11-26 05:33:17
dateupload: 1322941693
tags: cemetery stone nc memorial buncombe 2011 blackstock mystuart priscillaawells
license: 3
latitude: 35.757753
longitude: -82.541284
accuracy: 13
views: 17
interestingness: 164 out of 129

photo: 6438421533 d038cae97b 7142
owner: 31138867@N08
title: 1938 Packard V-12 Convertible Victoria
originalsecret: null
originalformat: null
o_height: null
o_width: null
datetaken: 2011-06-15 14:41:53
dateupload: 1322777325
tags: cars june michigan oldcars packard canon1740l 2011 gilmorecarmuseum barrycounty hickorycorners 1938packard june2011 1930scars fullclassiccars
license: 0
latitude: 42.439329
longitude: -85.422788
accuracy: 16
views: 29
interestingness: 165 out of 129

photo: 6481147547 07cdf7c82c 7165
owner: 77759382@N00
title: /GERM
originalsecret: null
originalformat: null
o_height: null
o_width: null
datetaken: 2011-10-16 10:18:47
dateupload: 1323425949
tags: paris france ?ledefrance parcmonceau 8e d90 nikkor35mmf2 nometering
license: 0
latitude: 48.879505
longitude: 2.310004
accuracy: 14
views: 17
interestingness: 166 out of 129

photo: 6475610245 23b8ed5a9c 7008
owner: 14573979@N00
title: Prodiaphania
originalsecret: 00b46b3cdf
originalformat: jpg
o_height: 1218
o_width: 1280
datetaken: 2011-12-08 16:56:47
dateupload: 1323327407
tags: geotagged australia queensland diptera tachinidae granitebelt mgjefferies girraweennp taxonomy:family=tachinidae geo:country=australia dofstacking geo:lat=28877617 geo:lon=151968019 prodiaphania taxonomy:genus=prodiaphania mtnormandayusepark
license: 2
latitude: -28.877598
longitude: 151.967697
accuracy: 14
views: 20
interestingness: 167 out of 129

photo: 6462579557 68ceda9f54 7150
owner: 47770928@N08
title: 200.000!!!
originalsecret: null
originalformat: null
o_height: null
o_width: null
datetaken: 2011-12-05 20:14:20
dateupload: 1323126860
tags: new light summer sky orange naturaleza sun color macro reflection verde green art love primavera luz nature argentina colors yellow photography luces photo google nikon flickr day foto dof photos bokeh top live colores explore amarillo reflejo contraste perspectiva jpg 365 geo d?a naranja nueva dec05 fot?grafo franco day05 brillo week49 fotograf?a c?mara pring encuadre day337 day338 2011 enfoque nitidez explored nitido rostan i365 d3100 nikond3100 francorostan load337
license: 0
latitude: -38.086607
longitude: -63.430938
accuracy: 11
views: 94
interestingness: 168 out of 129

photo: 6479318895 fd8ea2405a 7152
owner: 48894138@N05
title: Old house, Motupika, Tasman, New Zealand
originalsecret: 48ff161fd7
originalformat: jpg
o_height: 2400
o_width: 3600
datetaken: 2011-10-12 12:04:00
dateupload: 1323389250
tags: old newzealand house building abandoned home rural cabin decay farm nelson tasman derelict dilapidated deterioration oldandbeautiful oncewashome motupika
license: 0
latitude: -41.462773
longitude: 172.810413
accuracy: 16
views: 21
interestingness: 169 out of 129

photo: 6472421243 dd8444c6a2 7023
owner: 36989019@N08
title: Sts Peter and Paul - Catholic Church - St. Louis, MO.
originalsecret: 7ecda5d893
originalformat: jpg
o_height: 2347
o_width: 2536
datetaken: 2011-07-04 09:09:02
dateupload: 1323278046
tags: stlouis missouri catholicchurch july4 stspeterandpaul 2011
license: 0
latitude: 38.607334
longitude: -90.202507
accuracy: 16
views: 13
interestingness: 170 out of 129

photo: 6465445631 b2e5935a82 7002
owner: 64151671@N06
title: FAC 5 (TFRP No. 62)
originalsecret: null
originalformat: null
o_height: null
o_width: null
datetaken: 2011-10-25 17:52:07
dateupload: 1323173508
tags: manchester nikon vinyl 45 acr nikkor dslr 1979 petersaville jeremykerr allnightparty factoryrecords tonywilson anthonyhwilson picturesleeve acertainratio 7inchsingle martinmoscrop martinhannett simontopping d7000 fac5 peterterrell thefactoryrecordsproject thethinboys
license: 0
latitude: 53.431524
longitude: -2.230739
accuracy: 16
views: 24
interestingness: 171 out of 129

photo: 6462304045 9254fc54ec 7016
owner: 8818635@N02
title: 2011-12-05 Monster High Jackson (1)
originalsecret: null
originalformat: null
o_height: null
o_width: null
datetaken: 2011-12-05 16:36:26
dateupload: 1323123272
tags: mattel monsterhigh jacksonjekyll
license: 0
latitude: 44.265117
longitude: -88.417625
accuracy: 10
views: 24
interestingness: 172 out of 129

photo: 6445947589 8c1dd7cd35 7167
owner: 7729940@N06
title: Bokeh land
originalsecret: 5c49886a13
originalformat: jpg
o_height: 3452
o_width: 5177
datetaken: 2011-12-02 19:30:43
dateupload: 1322908027
tags: christmas blue light abstract black night dark lights mirror europe image bokeh box daniel decoration creative picture evil samsung poland led gift imaging 1977 less nx nx200 kulinski daniel1977 samsungnx samsungimaging samsungnx200 danielkulinski
license: 1
latitude: 52.178458
longitude: 21.003429
accuracy: 16
views: 39
interestingness: 173 out of 129

photo: 6443200407 e0cf6a130c 7022
owner: 55616468@N04
title: ?
originalsecret: 1293fe7a87
originalformat: jpg
o_height: 1010
o_width: 1518
datetaken: 2011-12-02 08:28:31
dateupload: 1322857711
tags: 
license: 0
latitude: 51.088321
longitude: 0.53657
accuracy: 14
views: 39
interestingness: 174 out of 129

photo: 6435759245 1b8f805fcb 7169
owner: 13227773@N08
title: 3 lines on a block
originalsecret: null
originalformat: null
o_height: null
o_width: null
datetaken: 2010-05-14 15:51:09
dateupload: 1322738714
tags: three londonderry block derry cam:panasonic=tz5
license: 0
latitude: 54.994837
longitude: -7.319759
accuracy: 16
views: 15
interestingness: 175 out of 129

photo: 6433881785 619a1d8cc5 7018
owner: 34578976@N00
title: Loon Lake B-23 Orthographic
originalsecret: 0dbf97ca1d
originalformat: jpg
o_height: 2748
o_width: 4152
datetaken: 2011-11-30 19:09:01
dateupload: 1322703286
tags: lake 3d model bomber pap loon b23 meshlab hypr3d
license: 0
latitude: 45.158861
longitude: -115.84134
accuracy: 16
views: 56
interestingness: 176 out of 129

photo: 6453123381 6626348028 7015
owner: 33445721@N04
title: Rolling Relic - Greenfield, Massachusetts
originalsecret: fb4366b103
originalformat: jpg
o_height: 1209
o_width: 1803
datetaken: 2011-12-03 14:17:40
dateupload: 1323012960
tags: rabbit vw ma highway massachusetts interstate mass greenfield 91 volkwagen i91
license: 0
latitude: 42.580262
longitude: -72.621195
accuracy: 15
views: 31
interestingness: 177 out of 129

photo: 6447229637 5d2e155150 7032
owner: 16140299@N06
title: Ghosts of Gainsborough Past
originalsecret: 599008c7cc
originalformat: jpg
o_height: 1250
o_width: 838
datetaken: 2011-12-03 10:00:03
dateupload: 1322928925
tags: old uk england urban history film 35mm geotagged town nikon kodak lincolnshire analogue f5 remains gainsborough tooleystreet primrosestreet ektar100 dn21 pilaredhouse
license: 0
latitude: 53.395622
longitude: -0.774589
accuracy: 16
views: 38
interestingness: 178 out of 129

photo: 6446249753 88d7dfa6ce 7142
owner: 9153769@N02
title: Antelope Canyon
originalsecret: null
originalformat: null
o_height: null
o_width: null
datetaken: 2011-09-27 13:35:39
dateupload: 1322914345
tags: arizona beautiful canon tourist canyon page antelope slot narrow attraction crowdy 40d
license: 0
latitude: 36.879448
longitude: -111.389522
accuracy: 11
views: 17
interestingness: 179 out of 129

photo: 6440861513 74f34f7c2e 7174
owner: 13227773@N08
title: why don't you
originalsecret: null
originalformat: null
o_height: null
o_width: null
datetaken: 2010-05-14 15:55:17
dateupload: 1322821519
tags: streetart building television site tv stencil kill londonderry derry rubble cam:panasonic=tz5
license: 0
latitude: 54.994899
longitude: -7.321175
accuracy: 16
views: 54
interestingness: 180 out of 129

photo: 6436158257 4cd51f4452 7172
owner: 7729940@N06
title: Rectangular wall
originalsecret: 69066d6f99
originalformat: jpg
o_height: 3621
o_width: 5432
datetaken: 2011-12-01 09:21:11
dateupload: 1322746398
tags: shadow texture lines wall square mirror europe pattern image daniel creative picture evil samsung poland imaging 1977 less nx nx200 kulinski daniel1977 samsungnx samsungimaging samsungnx200 danielkulinski
license: 1
latitude: 52.215975
longitude: 21.029489
accuracy: 16
views: 27
interestingness: 181 out of 129

photo: 6436157181 0413ee4e6f 7169
owner: 7729940@N06
title: Doors and windows
originalsecret: c6e833fb68
originalformat: jpg
o_height: 3501
o_width: 5251
datetaken: 2011-12-01 09:17:58
dateupload: 1322746379
tags: mirror europe image daniel creative picture evil samsung poland imaging 1977 less nx nx200 kulinski daniel1977 samsungnx samsungimaging samsungnx200 danielkulinski
license: 1
latitude: 52.216409
longitude: 21.030004
accuracy: 16
views: 34
interestingness: 182 out of 129

photo: 6436104723 e70680914d 7013
owner: 49699984@N05
title: Day335 - Brisbane Christmas Tree
originalsecret: null
originalformat: null
o_height: null
o_width: null
datetaken: 2011-12-01 08:48:02
dateupload: 1322745451
tags: christmas tree square george king australia brisbane queensland huge 365 project365
license: 0
latitude: -27.468473
longitude: 153.024015
accuracy: 16
views: 34
interestingness: 183 out of 129

photo: 6458477793 af3effba06 7175
owner: 70116432@N04
title: 751 316-1 - 2011-08-19 - Horice na Sumave
originalsecret: 4323b47b79
originalformat: jpg
o_height: 834
o_width: 1250
datetaken: 2011-08-19 08:03:18
dateupload: 1323072967
tags: cd 751 bardotka cdcargo 7513161
license: 0
latitude: 48.773415
longitude: 14.179744
accuracy: 14
views: 25
interestingness: 184 out of 129

photo: 6475096035 7dca42a9a8 7007
owner: 32204075@N08
title: Punggol Promenade #3
originalsecret: null
originalformat: null
o_height: null
o_width: null
datetaken: 2011-12-08 13:12:00
dateupload: 1323321120
tags: street sea blackandwhite film monochrome fishing singapore kodak jetty rangefinder 11 d76 tmax400 leicam6 osanpocamera selfdevelop 10min 4002tmy voigtlandernokton35mmf14sc punggolpromenade
license: 0
latitude: 1.422014
longitude: 103.910772
accuracy: 15
views: 28
interestingness: 185 out of 129

photo: 6474835127 85187f4d27 7025
owner: 28665107@N00
title: Wharf 2
originalsecret: null
originalformat: null
o_height: null
o_width: null
datetaken: 2011-12-03 08:02:10
dateupload: 1323313266
tags: chicago pier lakemichigan wharf adlerplanetarium
license: 0
latitude: 41.866852
longitude: -87.607716
accuracy: 16
views: 27
interestingness: 186 out of 129

photo: 6459445917 a62cc5d59a 7006
owner: 24609616@N05
title: NJ4 & NJ5
originalsecret: null
originalformat: null
o_height: null
o_width: null
datetaken: 1978-01-09 00:00:00
dateupload: 1323090596
tags: nj australia anr aus cr northernterritory ghan deepwell australiannationalrailways nj5 nj4 commonwealthrailways ewangina
license: 0
latitude: -24.190617
longitude: 134.01593
accuracy: 16
views: 28
interestingness: 187 out of 129

photo: 6441366487 45a374744a 7031
owner: 29794819@N08
title: Mantlepiece
originalsecret: null
originalformat: null
o_height: null
o_width: null
datetaken: 2011-11-27 17:16:41
dateupload: 1322831794
tags: christmas xmas decorations house holiday canada heritage nova museum season lens nikon holidays ns victorian exhibit atlantic candlelight kit 1855mm 1855 scotia nikkor decor odell annapolisvalley annapolisroyal d90
license: 0
latitude: 44.740166
longitude: -65.507834
accuracy: 16
views: 25
interestingness: 188 out of 129

photo: 6466308311 cab6794180 7166
owner: 64897365@N00
title: The Drop
originalsecret: e503dff648
originalformat: jpg
o_height: 2964
o_width: 4725
datetaken: 2011-12-03 15:16:12
dateupload: 1323186112
tags: high scary colorado drop canyon vertiginous height horseshoebend
license: 0
latitude: 36.879517
longitude: -111.513226
accuracy: 14
views: 18
interestingness: 189 out of 129

photo: 6436168179 7189027f7e 7010
owner: 7729940@N06
title: -L
originalsecret: 07459dc11a
originalformat: jpg
o_height: 5348
o_width: 3565
datetaken: 2011-12-01 10:05:24
dateupload: 1322746572
tags: playing field basketball sport ball court mirror europe floor image daniel creative picture evil samsung poland health imaging 1977 less threshing nx baske nx200 kulinski daniel1977 samsungnx samsungimaging samsungnx200 danielkulinski
license: 1
latitude: 52.218085
longitude: 21.033931
accuracy: 16
views: 40
interestingness: 190 out of 129

photo: 6481089127 c76db847c9 7155
owner: 44639173@N05
title: They Also Serve, Who Only Stand And Wait...
originalsecret: a53b4274f6
originalformat: jpg
o_height: 1900
o_width: 3278
datetaken: 2011-11-30 10:09:21
dateupload: 1323424546
tags: 
license: 3
latitude: 59.318014
longitude: 18.037489
accuracy: 15
views: 17
interestingness: 191 out of 129

photo: 6452621665 a518e0a8c6 7030
owner: 39343449@N02
title: Red-capped Parrot
originalsecret: f5b836209d
originalformat: jpg
o_height: 3000
o_width: 2400
datetaken: 2011-11-02 10:28:41
dateupload: 1323007182
tags: martin australia westernaustralia psittacidae psittaciformes redcappedparrot purpureicephalus purpureicephalusspurius endemictowesternaustralia ellisbrookvalleyreserve banyowlaregionalpark
license: 0
latitude: -32.061203
longitude: 116.037731
accuracy: 14
views: 29
interestingness: 192 out of 129

photo: 6449017631 26494e24e8 7142
owner: 87637435@N00
title: Altes Rathaus, Bamberg
originalsecret: cd7f50d487
originalformat: jpg
o_height: 662
o_width: 1000
datetaken: 2011-10-03 20:13:33
dateupload: 1322950985
tags: bridge blur river germany bavaria franconia franken altstadt guildhall altesrathaus anniversarytrip bambera mhm8530
license: 3
latitude: 49.890991
longitude: 10.886886
accuracy: 16
views: 33
interestingness: 193 out of 129

photo: 6443363177 fdf56b9526 7159
owner: 31121184@N07
title: Looking Down Nyhavn (Copenhagen, Denmark)
originalsecret: 296728d25a
originalformat: jpg
o_height: 1365
o_width: 2048
datetaken: 2010-09-01 13:40:00
dateupload: 1322859980
tags: urban water buildings reflections copenhagen denmark boats nyhavn europe sailing shadows ships silhouettes canals sailboats danmark k?benhavn runintherain
license: 1
latitude: 55.680311
longitude: 12.588025
accuracy: 16
views: 8
interestingness: 194 out of 129

photo: 6441766829 7e715e9e91 7022
owner: 22816272@N05
title: once upon a "riss?u"
originalsecret: null
originalformat: null
o_height: null
o_width: null
datetaken: 2011-10-20 16:46:03
dateupload: 1322838094
tags: floor edited liguria ps editing imperia ligurian portomaurizio parasio parrasio rikyprof provinceofimperia riss?u riss?ufloor ligurianriss?u ligurianriss?ufloor
license: 0
latitude: 43.873689
longitude: 8.014826
accuracy: 15
views: 41
interestingness: 195 out of 129

photo: 6436164735 f37e6340f8 7013
owner: 7729940@N06
title: Point
originalsecret: 8837548ec9
originalformat: jpg
o_height: 5472
o_width: 3648
datetaken: 2011-12-01 10:02:31
dateupload: 1322746514
tags: playing field basketball sport ball court mirror europe floor image daniel creative picture evil samsung poland health imaging 1977 less threshing nx baske nx200 kulinski daniel1977 samsungnx samsungimaging samsungnx200 danielkulinski
license: 1
latitude: 52.218085
longitude: 21.033931
accuracy: 16
views: 29
interestingness: 196 out of 129

photo: 6467148435 13d5c8ce4f 7169
owner: 71201735@N03
title: Guillemins I
originalsecret: null
originalformat: null
o_height: null
o_width: null
datetaken: 2010-06-17 09:49:05
dateupload: 1323196365
tags: santiago architecture railwaystation trainstation calatrava highkey liege l?ttich guillemins li?geguillemins highkeygaredeguilleminsl?ttichbelbelgienfragn?egeolat5062420185geolon556736469geotaggedli?gewallonie
license: 0
latitude: 50.624202
longitude: 5.567363
accuracy: 16
views: 19
interestingness: 197 out of 129

photo: 6456912141 6045f15880 7165
owner: 52582628@N05
title: #094: start a little conversation now, it's alright
originalsecret: null
originalformat: null
o_height: null
o_width: null
datetaken: 2011-12-03 22:46:57
dateupload: 1323051648
tags: music piano sheetmusic project365
license: 0
latitude: 43.467068
longitude: -80.521903
accuracy: 16
views: 37
interestingness: 198 out of 129

photo: 6450540637 d716619540 7001
owner: 43643200@N00
title: Amber...
originalsecret: null
originalformat: null
o_height: null
o_width: null
datetaken: 2011-11-23 11:07:26
dateupload: 1322972338
tags: vacation mexico amber dof bokeh bartering igottwooneforeachson
license: 0
latitude: 20.716941
longitude: -86.980476
accuracy: 10
views: 27
interestingness: 199 out of 129

photo: 6445948163 30d6a4e115 7015
owner: 7729940@N06
title: Gift box
originalsecret: cd16c6b020
originalformat: jpg
o_height: 3579
o_width: 5369
datetaken: 2011-12-02 19:42:41
dateupload: 1322908041
tags: christmas blue light black night dark lights mirror europe image box daniel decoration creative picture evil samsung poland led gift imaging 1977 less nx nx200 kulinski daniel1977 samsungnx samsungimaging samsungnx200 danielkulinski
license: 1
latitude: 52.178458
longitude: 21.003429
accuracy: 16
views: 60
interestingness: 200 out of 129

photo: 6444571915 dda5e5eb73 7146
owner: 33075566@N08
title: Eurotaxis-S612HGD-Bristol-210506ib
originalsecret: 930dec9578
originalformat: jpg
o_height: 1232
o_width: 1840
datetaken: 2006-05-21 00:00:00
dateupload: 1322879854
tags: bristol mercedes mercedesbenz eurotaxis s612hgd
license: 0
latitude: 51.452596
longitude: -2.597086
accuracy: 16
views: 13
interestingness: 201 out of 129

photo: 6443364571 90d4676349 7008
owner: 31121184@N07
title: Nyhavn Buildings Reflected (Copenhagen, Denmark)
originalsecret: 9b77ac86e4
originalformat: jpg
o_height: 1365
o_width: 2048
datetaken: 2010-09-01 13:40:26
dateupload: 1322860000
tags: urban water buildings reflections copenhagen denmark boats nyhavn europe sailing shadows ships silhouettes canals sailboats danmark k?benhavn runintherain
license: 1
latitude: 55.680311
longitude: 12.588025
accuracy: 16
views: 2
interestingness: 202 out of 129

photo: 6439306947 88eca50192 7025
owner: 37553034@N03
title: Fire Dancer @ the Spirit of Aloha Show
originalsecret: d8c48d9f72
originalformat: jpg
o_height: 2848
o_width: 4288
datetaken: 2011-12-01 17:14:34
dateupload: 1322790577
tags: longexposure fire dance dancer disneyworld fl wdw polynesianresort d90 spiritofalohashow
license: 0
latitude: 28.405788
longitude: -81.585792
accuracy: 16
views: 17
interestingness: 203 out of 129

photo: 6436170989 224da35361 7013
owner: 7729940@N06
title: Chinese Christmas balls
originalsecret: 10eb88632f
originalformat: jpg
o_height: 5472
o_width: 3648
datetaken: 2011-12-01 10:31:50
dateupload: 1322746621
