
mintime: 1322697600 maxtime: 1322760583.83
numimgs: 242
total pages: 1
visiting only 1 pages ( up to 250 images)
photo: 6436393725 ac573e2458 7141
owner: 12642504@N08
title: Peque?a Luci Lu (Explored)
originalsecret: e54567d2c0
originalformat: jpg
o_height: 600
o_width: 400
datetaken: 2011-07-29 15:53:27
dateupload: 1322750128
tags: texture sepia canon hair children tristeza kid child sad little lion triste malia rubia nena peque?a cabello leona malialeon
license: 0
latitude: 37.207773
longitude: -7.406501
accuracy: 11
views: 536
interestingness: 1 out of 242

photo: 6433507847 f747ac0681 7150
owner: 11683700@N04
title: Essence of squirrel. Explore.# 127. 30th.
originalsecret: e7db9b0ec2
originalformat: jpg
o_height: 1980
o_width: 2640
datetaken: 2011-11-30 13:15:25
dateupload: 1322697637
tags: lumix bokeh panasonic greysquirrel fz45 cobby31
license: 0
latitude: 50.734961
longitude: -2.005412
accuracy: 14
views: 318
interestingness: 2 out of 242

photo: 6435900749 75c0d35370 7145
owner: 24337301@N05
title: Windy River
originalsecret: null
originalformat: null
o_height: null
o_width: null
datetaken: 2011-12-01 06:13:08
dateupload: 1322741651
tags: blue urban sun chicago reflection skyline clouds river movement nikon downtown cityscape wind loop sigma hour times merchandise 1020mm hdr hdri mart d3000
license: 0
latitude: 41.885745
longitude: -87.638245
accuracy: 16
views: 2429
interestingness: 3 out of 242

photo: 6435630047 a5f994020c 7009
owner: 29545393@N06
title: Hello sir ... I will trade you this sunflower seed for a peanut?
originalsecret: null
originalformat: null
o_height: null
o_width: null
datetaken: 2011-11-26 10:18:19
dateupload: 1322736013
tags: picnik
license: 0
latitude: 45.302135
longitude: -75.871925
accuracy: 14
views: 240
interestingness: 4 out of 242

photo: 6435275205 827612bc8a 7004
owner: 40713376@N06
title: autumn sun
originalsecret: null
originalformat: null
o_height: null
o_width: null
datetaken: 2007-11-18 14:35:21
dateupload: 1322727311
tags: barcelona people mar playas ol?tusfotos
license: 0
latitude: 41.400505
longitude: 2.16156
accuracy: 8
views: 90
interestingness: 5 out of 242

photo: 6306651341 c7e4129a12 6032
owner: 26405526@N00
title: dogs at an exhibition #1
originalsecret: null
originalformat: null
o_height: null
o_width: null
datetaken: 2011-11-02 20:55:46
dateupload: 1322736780
tags: blackandwhite bw dog square 11 exhibition hund sw ausstellung 1x1 quadratisch westlicht schwarzundweiss thelittledoglaughed canoneos50d schwarzundweis canonefs1585mmf3556isusm xxxwork wwwwestlichtat
license: 0
latitude: 48.201945
longitude: 16.341739
accuracy: 16
views: 168
interestingness: 6 out of 242

photo: 6436382753 6efb46b41f 7167
owner: 32468655@N04
title: Abbey of San Nazzaro Sesia (Novara), the frescoes of the Cloister
originalsecret: b8de4a952f
originalformat: jpg
o_height: 3648
o_width: 2736
datetaken: 2011-10-16 15:30:03
dateupload: 1322749969
tags: abbey cloister affreschi chiostro medioevo abbazia frescoes sannazzaro mygearandme middlieage
license: 0
latitude: 45.43822
longitude: 8.425935
accuracy: 14
views: 326
interestingness: 7 out of 242

photo: 6435252549 9bcc6d61d9 7160
owner: 48814374@N00
title: After the Game of Love :))
originalsecret: null
originalformat: null
o_height: null
o_width: null
datetaken: 2011-11-24 15:11:35
dateupload: 1322726809
tags: lighting light sunlight macro nature sunshine butterfly wings dof natural bokeh details insects yellowbutterfly backlighitng b??mb??m blinkagain
license: 0
latitude: 10.787653
longitude: 106.705924
accuracy: 15
views: 125
interestingness: 8 out of 242

photo: 6436821329 7f74899cf0 7149
owner: 97133246@N00
title: Show me the way
originalsecret: null
originalformat: null
o_height: null
o_width: null
datetaken: 2011-09-08 08:22:43
dateupload: 1322756145
tags: travel trees mountain snow fall tourism nature clouds sunrise outdoors photography volcano washington nationalpark nikon hiking adventure alpine glaciers wildflowers deby allrightsreserved mtrainiernationalpark 2011 debydixon debydixonphotography
license: 0
latitude: 46.914861
longitude: -121.624488
accuracy: 11
views: 465
interestingness: 9 out of 242

photo: 6436406873 1cfb839d3c 7150
owner: 36704819@N08
title: Historical Vehicle
originalsecret: 3f23fa4d90
originalformat: jpg
o_height: 1000
o_width: 1500
datetaken: 2011-05-28 10:42:30
dateupload: 1322750329
tags: california wood trip usa car america canon geotagged eos us spring kay roadtrip carving vehicle historical oldtimer bone miranda amerika fr?hling staaten 2011 vereinigtestaaten vereinigte 9363 40d worldcars g?nsler gaensler wwwenslerde geo:lat=4023558667 geo:lon=12382440167
license: 1
latitude: 40.235586
longitude: -123.824401
accuracy: 16
views: 135
interestingness: 10 out of 242

photo: 6436822699 ab828f0ee5 7013
owner: 52254014@N00
title: Grand Floridian Sunset
originalsecret: 32481ccf8f
originalformat: jpg
o_height: 2832
o_width: 4256
datetaken: 2011-11-30 19:06:49
dateupload: 1322756164
tags: longexposure travel blue autumn sunset sky orange usa lake color reflection tourism water clouds hotel harbor orlando nikon darkness florida outdoor availablelight fineart environmental william disney architectural resort timeexposure northamerica nautical wdw waltdisneyworld resorts incandescent hdr hospitality grandfloridian beem digimarc photomatix tonemapped nikonnikkor colorefexpro niksoftware d700 viveza glamourglow wbeem 2470mmf28g afszoomnikkor2470mmf28ged brilliancewarmth williambeem
license: 0
latitude: 28.415333
longitude: -81.581999
accuracy: 16
views: 214
interestingness: 11 out of 242

photo: 6431797669 70df94080c 7164
owner: 37587204@N05
title: Fairy princess in wonderland
originalsecret: null
originalformat: null
o_height: null
o_width: null
datetaken: 2011-11-28 17:42:10
dateupload: 1322742130
tags: horse colors girl children wonder kid colorful child ride princess little mirrors fairy amusementpark wonderland merrygoround bangladesh shahbag ligh 2011 shishupark gettyimagesbangladeshq2 gettyimagesbangladeshq3
license: 0
latitude: 23.7098
longitude: 90.407112
accuracy: 11
views: 161
interestingness: 12 out of 242

photo: 6435495559 19582e536f 7154
owner: 50152666@N02
title: Rice button aster (Symphyotrichum dumosum)
originalsecret: 21596f8040
originalformat: jpg
o_height: 1024
o_width: 1024
datetaken: 2011-11-30 09:46:11
dateupload: 1322732664
tags: ngc asteraceae aster palmbeachcounty nikoncoolpix fleurssauvages symphyotrichumdumosum pineflatwoods macroflowerlovers asterdumosum superbmacroflowers floridawildflowers sweetbaynaturalarea ricebuttonaster symphyotrichumdumosus taxonomy:binomial=asterdumosus
license: 1
latitude: 26.860457
longitude: -80.236394
accuracy: 16
views: 95
interestingness: 13 out of 242

photo: 6433510841 85d75d262c 7020
owner: 21455613@N05
title: Dallas ultra-wide [48/52]
originalsecret: null
originalformat: null
o_height: null
o_width: null
datetaken: 2011-11-30 11:09:58
dateupload: 1322697687
tags: dog sun ontario canada cute home boston puppy lunch bostonterrier dallas nikon little walk ears sudbury fullframe fx bt lay snort d700 tokina1628mm28
license: 0
latitude: 46.41931
longitude: -81.139011
accuracy: 13
views: 148
interestingness: 14 out of 242

photo: 6434422137 56d77d3c63 7164
owner: 7280851@N08
title: Little Monster
originalsecret: null
originalformat: null
o_height: null
o_width: null
datetaken: 2011-11-27 11:46:56
dateupload: 1322711239
tags: family autumn people monochrome japan tokyo ?? ?? ? ookayama m43 ??? olyep3
license: 0
latitude: 35.606265
longitude: 139.683437
accuracy: 15
views: 145
interestingness: 15 out of 242

photo: 6436814663 124ff1ee95 7159
owner: 96706604@N00
title: Leuchtturm / Lighthouse
originalsecret: null
originalformat: null
o_height: null
o_width: null
datetaken: 2011-08-01 00:00:00
dateupload: 1322756053
tags: sea sky lighthouse clouds denmark see image wolken hirtshals d?nemark hdr scandinavian leuchtturm k?ste seefahrt flickraward
license: 0
latitude: 57.590101
longitude: 9.950523
accuracy: 13
views: 90
interestingness: 16 out of 242

photo: 6436534841 a4e7a839cc 7014
owner: 9539502@N02
title: De Kermisman (Fairground worker)
originalsecret: 924128d7e7
originalformat: jpg
o_height: 817
o_width: 1217
datetaken: 2011-10-02 13:59:23
dateupload: 1322752220
tags: photoshop friendship bert flickrmeet kermis minimeet atthefair visualecho aureliozen kermisklant fairgroundworker morrorlikeimages
license: 0
latitude: 52.157288
longitude: 4.486455
accuracy: 15
views: 159
interestingness: 17 out of 242

photo: 6435827625 b6d2b727c4 7028
owner: 40832502@N06
title: Flowers
originalsecret: null
originalformat: null
o_height: null
o_width: null
datetaken: 2011-11-20 15:15:25
dateupload: 1322740137
tags: flowers
license: 0
latitude: 44.416003
longitude: 7.413539
accuracy: 16
views: 130
interestingness: 18 out of 242

photo: 6436337041 83a9109ba3 7035
owner: 31509777@N02
title: Guarrinza
originalsecret: null
originalformat: null
o_height: null
o_width: null
datetaken: 2011-06-30 14:49:08
dateupload: 1322749312
tags: trekking spain aragon caminhada pyrenees gr11 zuriza pireneus
license: 0
latitude: 42.860473
longitude: -0.707343
accuracy: 16
views: 86
interestingness: 19 out of 242

photo: 6437153743 fcf1ceec8c 7010
owner: 40962351@N00
title: leopard leggins in cardiff
originalsecret: null
originalformat: null
o_height: null
o_width: null
datetaken: 2011-11-29 14:22:44
dateupload: 1322760559
tags: street portrait feet girl fashion lady female person beige funny legs pair cardiff cream human leopard matching leggins legins leopardlegins file:name=111129eos5d4459
license: 0
latitude: 51.479044
longitude: -3.178546
accuracy: 16
views: 555
interestingness: 20 out of 242

photo: 6433656643 4eea8bd391 7030
owner: 63567936@N00
title: The Wall
originalsecret: null
originalformat: null
o_height: null
o_width: null
datetaken: 2011-11-30 09:50:58
dateupload: 1322739975
tags: day334 111130 day334365 3652011 365the3211edition
license: 0
latitude: 45.361022
longitude: -76.003621
accuracy: 16
views: 185
interestingness: 21 out of 242

photo: 6434121745 2bb4a75465 7034
owner: 42786185@N06
title: Little Horns ~ Quinta Flower 67
originalsecret: 308c14a258
originalformat: jpg
o_height: 3627
o_width: 2587
datetaken: 2011-11-02 14:52:29
dateupload: 1322706784
tags: orchid flower nature beauty closeup different natural horns exotic grouping aos americanorchidsociety middlefocus delraybeachflorida littlehorns
license: 0
latitude: 26.430036
longitude: -80.154275
accuracy: 15
views: 70
interestingness: 22 out of 242

photo: 6433808887 c55a1d92ae 7035
owner: 49182321@N00
title: Ready for Flight
originalsecret: null
originalformat: null
o_height: null
o_width: null
datetaken: 2011-07-17 16:13:40
dateupload: 1322702215
tags: flowers trees nature water animals river virginia fly spring nikon friend dragonfly wildlife insects theburg hillcity oldcitycemetery lynchburgva paololivornosfriends netdog1103 vincenttcasephotography
license: 0
latitude: 37.414345
longitude: -79.15718
accuracy: 14
views: 82
interestingness: 23 out of 242

photo: 6433934045 a3ba864e55 7163
owner: 54191867@N02
title: Yala into the blue
originalsecret: 6d71fa5985
originalformat: jpg
o_height: 667
o_width: 1000
datetaken: 2011-11-28 12:21:15
dateupload: 1322704088
tags: sunset boat safari sri lanka yala
license: 0
latitude: 6.245521
longitude: 81.366577
accuracy: 9
views: 49
interestingness: 24 out of 242

photo: 6433651443 226b43f358 7150
owner: 54816077@N03
title: The "Cold One" - Explored November 30th, 2011
originalsecret: null
originalformat: null
o_height: null
o_width: null
datetaken: 2011-11-30 12:59:54
dateupload: 1322699874
tags: winter snow blur mexico bokeh explore petawawa selectivefocus closeupview canonef50mmf14 explored alienskinexposure canon60d adobephotoshopcs5 adobelightroom34 thousandwordimages
license: 0
latitude: 45.861563
longitude: -77.254314
accuracy: 11
views: 136
interestingness: 25 out of 242

photo: 6436317329 3f6caa78a7 7165
owner: 56166452@N03
title: Little Red Coat
originalsecret: 8ff5b5befb
originalformat: jpg
o_height: 2586
o_width: 3868
datetaken: 2011-12-01 14:44:24
dateupload: 1322749025
tags: 
license: 0
latitude: 53.349849
longitude: -6.262163
accuracy: 15
views: 246
interestingness: 26 out of 242

photo: 6435893081 4df1195edd 7001
owner: 37256371@N02
title: Little flower - Peque?a flor
originalsecret: null
originalformat: null
o_height: null
o_width: null
datetaken: 2011-11-28 07:15:40
dateupload: 1322741497
tags: flower argentina flor yerba buena tucum?n
license: 0
latitude: -26.809567
longitude: -65.290031
accuracy: 10
views: 99
interestingness: 27 out of 242

photo: 6435566717 7daebac5ab 7142
owner: 61071541@N08
title: 131/365
originalsecret: null
originalformat: null
o_height: null
o_width: null
datetaken: 2011-11-30 14:39:20
dateupload: 1322752465
tags: november naturaleza bird nature argentina grid reja nikon focus day dia diamond sparrow ave frame approach rombo encuadre 2011 gorrion enfoque project365 d3100 monicaetcheverry
license: 0
latitude: -38.0635
longitude: -63.450508
accuracy: 11
views: 108
interestingness: 28 out of 242

photo: 6436474841 108db5e1c8 7007
owner: 41622708@N00
title: Zeila mosque - Somaliland
originalsecret: null
originalformat: null
o_height: null
o_width: null
datetaken: 2011-11-20 17:06:22
dateupload: 1322751331
tags: africa afrika somali somalia somaliland afrique hornofafrica 6298 somalie britishsomaliland zeila somali? saylac ??????? ceylac ?????? szom?lia ??????? ???? soomaaliland ?????????? zeilasaylac
license: 0
latitude: 11.346084
longitude: 43.475646
accuracy: 9
views: 267
interestingness: 29 out of 242

photo: 6433779773 df26d9bf40 7006
owner: 69797303@N04
title: " He didn't notice that the lights had changed... "
originalsecret: null
originalformat: null
o_height: null
o_width: null
datetaken: 2011-11-29 23:47:31
dateupload: 1322701791
tags: 
license: 0
latitude: 85.754219
longitude: 124.804687
accuracy: 1
views: 183
interestingness: 30 out of 242

photo: 6435248537 cfd3885b41 7008
owner: 67413027@N08
title: catch me if you can
originalsecret: null
originalformat: null
o_height: null
o_width: null
datetaken: 2011-11-26 14:53:08
dateupload: 1322726719
tags: christmas street old city family autumn light boy portrait people urban blackandwhite bw woman cute love smile sepia kids youth children square licht town kid essen women child little market candid fast run christmastree stadt laugh nostalgic mischief oldnew
license: 0
latitude: 51.448658
longitude: 6.97134
accuracy: 11
views: 118
interestingness: 31 out of 242

photo: 6436425781 504be44ce2 7168
owner: 7693984@N05
title: fall colors - 3
originalsecret: 8330791dbc
originalformat: jpg
o_height: 600
o_width: 900
datetaken: 2011-11-22 15:44:43
dateupload: 1322750610
tags: above wood city november blue autumn trees sunset red sky panorama orange sun mist mountain green rot fall nature water berg yellow fog clouds turn forest sunrise canon river germany landscape bavaria dawn town flying rocks exposure shadows sonnenuntergang nebel bend dusk herbst himmel gelb filter valley 7d gr?n 1785 paraglider landschaft sonne wald b?ume sonnenaufgang f28 hitech graduated altm?hltal density manfrotto woken drachen fliegen kurve neutral 1755 ingolstadt cokin gnd 40d zpro
license: 3
latitude: 48.990214
longitude: 11.694774
accuracy: 13
views: 123
interestingness: 32 out of 242

photo: 6434259037 f173e9b528 7150
owner: 50473412@N00
title: IMG_9858-Edit II- J Prince.jpg
originalsecret: a966a68cef
originalformat: jpg
o_height: 3456
o_width: 5184
datetaken: 2011-11-30 19:42:40
dateupload: 1322708853
tags: wood pink brown white black cat canon silver cherry toy photo milk bed feline doll soft cookie child purple floor jane action bees alien kitty mat 7d worn backdrop meow weathered pedals tortie sleigh 800 86 props prop plm whitewash actions damask furnature barnwood 2470 floorabella
license: 0
latitude: 30.17604
longitude: -97.616851
accuracy: 16
views: 92
interestingness: 33 out of 242

photo: 6436744663 a199954927 7010
owner: 60351487@N02
title: "The Little House"
originalsecret: c4d2d254b4
originalformat: png
o_height: 800
o_width: 1200
datetaken: 2011-12-01 16:58:46
dateupload: 1322755126
tags: sky france clouds french landscape mac aperture nikon raw ?ledefrance cloudy champs jp nuages tamron maison campagne fran?ais hdr petite francais herbe 1024 photographe cliel d3100 djpig91
license: 0
latitude: 48.704738
longitude: 2.332269
accuracy: 11
views: 172
interestingness: 34 out of 242

photo: 6435738693 ec0241a8be 7162
owner: 52797637@N06
title: What A Night!!
originalsecret: 466fa096c4
originalformat: jpg
o_height: 1443
o_width: 2172
datetaken: 2011-12-01 10:30:12
dateupload: 1322738292
tags: garden buddha decking nikond7000 ourdailychallenge snapseed
license: 0
latitude: 55.493151
longitude: -4.612541
accuracy: 11
views: 79
interestingness: 35 out of 242

photo: 6434206393 0d7510ba88 7167
owner: 26495293@N05
title: ALAMEDA LEAVES
originalsecret: cc17cf6522
originalformat: jpg
o_height: 2048
o_width: 3088
datetaken: 2011-11-30 20:27:32
dateupload: 1322708021
tags: autumn plants newmexico santafe fall film nature leaves 35mm outdoors 1 dof fallcolor kodak bokeh olympus autumnleaves depthoffield analogue shallow om 160vc om1 autumncolor naturalcolors portra160vc goldleaves 50mmmacro 50mmf35macro santafecolors zuikomacro
license: 0
latitude: 35.684271
longitude: -105.933995
accuracy: 16
views: 86
interestingness: 36 out of 242

photo: 6434277271 f832a66fdc 7001
owner: 53323105@N02
title: Last Stand Hill
originalsecret: 473c2db927
originalformat: jpg
o_height: 2376
o_width: 3564
datetaken: 2011-07-14 20:01:25
dateupload: 1322709126
tags: bw cemetery fence gate 33 custer sittingbull littlebighornbattlefieldnationalmonument littlebighornbattlefield roadtour custerhill laststandhill 111picturesin2011 battleforthelittlebighorn
license: 1
latitude: 45.566219
longitude: -107.428379
accuracy: 16
views: 29
interestingness: 37 out of 242

photo: 6435548821 8974937729 7167
owner: 31602258@N07
title: BOOK-OF-ME "Mes touts petits plaisirs de No?l" ?
originalsecret: 7ba475f971
originalformat: jpg
o_height: 905
o_width: 885
datetaken: 2011-12-01 02:06:54
dateupload: 1322734014
tags: christmas xmas red tree art illustration painting notebook book sketch berry paint drawing diary journal decoration craft bretagne sketchbook drawer painter present draw no?l sapin artbook firtree cadeau carnet livredartiste framboisine locqu?nol? framboisineberry carnetdartiste
license: 0
latitude: 48.626696
longitude: -3.862981
accuracy: 13
views: 113
interestingness: 38 out of 242

photo: 6434231917 c2ee4c9fac 7024
owner: 41304880@N05
title: The Night Is Not Over Yet
originalsecret: 368905db48
originalformat: jpg
o_height: 4288
o_width: 2848
datetaken: 2011-11-28 20:35:14
dateupload: 1322708449
tags: portrait girl fashion night model dress x100 nightonearth strobist
license: 0
latitude: 30.249762
longitude: -97.750082
accuracy: 16
views: 348
interestingness: 39 out of 242

photo: 6409738149 7e398a9eb1 7026
owner: 7383661@N08
title: eviction frenzy .....
originalsecret: null
originalformat: null
o_height: null
o_width: null
datetaken: 2011-11-23 02:02:06
dateupload: 1322718032
tags: portrait toronto wednesday lens photography movement downtown library photojournalism police peaceful gazebo beercan yurt stjamespark civildisobedience resistance global socialdocumentary eviction kingst officers thefaceof analeesmith minoltaaf70210mm sonyalphaa33 occupytoronto occupyingtoronto nov23rd2011 metropolitantorontopoliceforce TGAM:photodesk=details
license: 0
latitude: 43.65071
longitude: -79.373023
accuracy: 16
views: 70
interestingness: 40 out of 242

photo: 6436959221 b99af44fe7 7162
owner: 57648711@N02
title: Lost in Her Eyes
originalsecret: null
originalformat: null
o_height: null
o_width: null
datetaken: 2011-12-01 15:50:38
dateupload: 1322757953
tags: bridge sculpture paris france girl statue canon eos 7d pontalexandreiii
license: 0
latitude: 48.864128
longitude: 2.313673
accuracy: 15
views: 77
interestingness: 41 out of 242

photo: 6434558985 9715b1eb65 7035
owner: 90717863@N00
title: 22/30
originalsecret: null
originalformat: null
o_height: null
o_width: null
datetaken: 2011-11-30 20:08:46
dateupload: 1322713249
tags: burgundy nailpolish itsagirlthing littlepleasures girlthings thankfulandgrateful patternpillow tonighttheturnwasforapricotgrapefruitandlillyofthevalley
license: 0
latitude: 14.631589
longitude: -90.550689
accuracy: 11
views: 101
interestingness: 42 out of 242

photo: 6433540133 8be3144324 7031
owner: 27531711@N08
title: Grand Canyon of the Yellowstone
originalsecret: null
originalformat: null
o_height: null
o_width: null
datetaken: 2011-09-22 11:11:27
dateupload: 1322698163
tags: summer usa water rock creek river stream sunny yellowstonenationalpark wyoming yellowstoneriver grandcanyonoftheyellowstone johncothron cothronphotography
license: 0
latitude: 44.726163
longitude: -110.481506
accuracy: 16
views: 93
interestingness: 43 out of 242

photo: 6430970773 405907e7df 7165
owner: 47770928@N08
title: 73 | 365
originalsecret: null
originalformat: null
o_height: null
o_width: null
datetaken: 2011-11-29 10:13:31
dateupload: 1322708399
tags: new light boy summer sky orange naturaleza baby sun color macro reflection verde green art love primavera luz nature argentina colors yellow photography luces photo kid google nikon flickr day foto dof photos bokeh top live colores nov30 explore amarillo reflejo contraste perspectiva jpg 365 proyect geo d?a naranja nueva day30 fot?grafo franco brillo week48 fotograf?a c?mara pring encuadre day332 day333 2011 enfoque nitidez explored nitido rostan i365 proyect365 proyecto365 d3100 nikond3100 francorostan proyect73
license: 0
latitude: -38.085797
longitude: -63.427848
accuracy: 11
views: 159
interestingness: 44 out of 242

photo: 6434167475 3a80cd90cd 7170
owner: 23322134@N02
title: Down In New Orleans
originalsecret: 59db3ec856
originalformat: jpg
o_height: 3360
o_width: 2648
datetaken: 2011-07-10 17:44:36
dateupload: 1322707436
tags: travel light vacation sculpture usa colors statue contrast america hotel orlando nikon warm florida bokeh availablelight neworleans alligator band vivid disney resort bayou theme symbols orangecounty wdw waltdisneyworld mardigras kissimmee themepark goldenhour shallowdepthoffield lakebuenavista baylake reedycreek disneypictures disneyparks expressmonorail nikkor70200mmf28 disneyphotos d3s joepenniston disneyphotography disneyimages disneysportorleansfrenchquarter
license: 3
latitude: 28.380621
longitude: -81.536257
accuracy: 16
views: 242
interestingness: 45 out of 242

photo: 6436108507 a37ddd4cc8 7161
owner: 40693419@N04
title: 01/12/11 - Who you lookin' at?
originalsecret: null
originalformat: null
o_height: null
o_width: null
datetaken: 2011-12-01 11:16:40
dateupload: 1322745519
tags: winter bird robin garden december seat surrey
license: 0
latitude: 51.289083
longitude: -0.424003
accuracy: 11
views: 49
interestingness: 46 out of 242

photo: 6433947933 bc1e5743cc 7021
owner: 63879521@N00
title: Sweet william...I think _DSC0110
originalsecret: 653ab89a55
originalformat: jpg
o_height: 1944
o_width: 2896
datetaken: 2011-11-27 13:41:34
dateupload: 1322704291
tags: sweetwilliam naturemasterclass
license: 3
latitude: 33.753224
longitude: -84.639637
accuracy: 16
views: 38
interestingness: 47 out of 242

photo: 6435604161 da4da84f9f 7004
owner: 11516254@N00
title: Nicole (#13/100)
originalsecret: null
originalformat: null
o_height: null
o_width: null
datetaken: 2011-11-30 11:29:02
dateupload: 1322735430
tags: nicole stranger slough berkshire kevday no13 100strangers
license: 0
latitude: 51.511176
longitude: -0.592231
accuracy: 16
views: 126
interestingness: 48 out of 242

photo: 6436246837 1e5995da15 7024
owner: 44615609@N07
title: Watchet Harbour
originalsecret: null
originalformat: null
o_height: null
o_width: null
datetaken: 2011-08-02 16:36:19
dateupload: 1322747937
tags: light portrait bw dog water boat harbour bulldog cobblestone british watchet thelittledoglaughed timoleon
license: 0
latitude: 51.186875
longitude: -3.332633
accuracy: 11
views: 45
interestingness: 49 out of 242

photo: 6436091181 c59fffddb7 7006
owner: 45124768@N04
title: Spirit Paint
originalsecret: null
originalformat: null
o_height: null
o_width: null
datetaken: 2011-10-14 11:45:02
dateupload: 1322745214
tags: kids canon football spirit rally teens highschool facepaint clowns ef70300mmf456isusm 550d alhs t2i lifelover4 stickneydesign
license: 0
latitude: 37.745639
longitude: -122.479421
accuracy: 16
views: 75
interestingness: 50 out of 242

photo: 6436987647 7552b51b3c 7018
owner: 51351745@N08
title: A Little Christmas Bling
originalsecret: b328479687
originalformat: jpg
o_height: 2809
o_width: 1861
datetaken: 2011-12-01 11:50:02
dateupload: 1322758332
tags: 
license: 0
latitude: 40.870681
longitude: -73.45843
accuracy: 15
views: 64
interestingness: 51 out of 242

photo: 6435765461 b9564a4735 7168
owner: 40297601@N02
title: American Goldfinch...#6
originalsecret: null
originalformat: null
o_height: null
o_width: null
datetaken: 2011-08-14 07:18:17
dateupload: 1322738845
tags: canada birds animals canon winnipeg wildlife manitoba americangoldfinch assiniboinepark 50d canonef400mmf56l avianexcellence assiniboineparkgardens amazingwildlifephotography
license: 0
latitude: 49.874421
longitude: -97.234325
accuracy: 13
views: 47
interestingness: 52 out of 242

photo: 6435749133 48849dbd0d 7148
owner: 43385244@N07
title: fire!
originalsecret: 13b51431be
originalformat: jpg
o_height: 2848
o_width: 4288
datetaken: 2011-11-19 08:08:59
dateupload: 1322738506
tags: fire incoming ringoffire etcetc steelwool spinningfire lightmyfire firedownbelow anyonerememberbeevisandbutthead
license: 0
latitude: 34.479957
longitude: -114.402179
accuracy: 13
views: 70
interestingness: 53 out of 242

photo: 6436808841 bb1a954ecf 7012
owner: 8195639@N07
title: 
originalsecret: null
originalformat: null
o_height: null
o_width: null
datetaken: 2011-11-01 16:40:11
dateupload: 1322755970
tags: ocean november light sunset macro beach landscape spring sand nikon photographer bokeh shell australia nsw seashell centralcoast goldenhour wamberal 105mmf28 2011 beachsand sandmacro daniellekiemel wamberalbeach nikond5000
license: 0
latitude: -33.430478
longitude: 151.448346
accuracy: 16
views: 66
interestingness: 54 out of 242

photo: 6435951837 5ba664f75c 7035
owner: 55039944@N06
title: Paris - Novembre 2011
originalsecret: null
originalformat: null
o_height: null
o_width: null
datetaken: 2011-12-01 12:53:14
dateupload: 1322742678
tags: autumn plants paris self automne holga lomo lomography toycamera scooter faded walls developed murs pavers pav?s littlestreet impasse v?g?tations d?fraichis
license: 0
latitude: 48.885686
longitude: 2.32717
accuracy: 15
views: 37
interestingness: 55 out of 242

photo: 6433722903 b143009c95 7022
owner: 61176154@N00
title: Morning glory
originalsecret: null
originalformat: null
o_height: null
o_width: null
datetaken: 2011-09-20 08:07:32
dateupload: 1322700931
tags: ontario canada sunrise michigan detroit flare windsor span detroitriver bordercrossing notkalvin ambaassadorbridge
license: 0
latitude: 42.313115
longitude: -83.075523
accuracy: 11
views: 52
interestingness: 56 out of 242

photo: 6437028183 37e6c16dc0 7165
owner: 36182750@N00
title: Nairobi, Kenya. 1?Dec.?11
originalsecret: null
originalformat: null
o_height: null
o_width: null
datetaken: 2011-12-01 16:05:24
dateupload: 1322758888
tags: nairobi hijab khimar
license: 0
latitude: -1.2702
longitude: 36.804138
accuracy: 11
views: 49
interestingness: 57 out of 242

photo: 6434289849 efc7fa1aec 7161
owner: 15481483@N06
title: On the Run
originalsecret: b5b9b1c9fd
originalformat: jpg
o_height: 2549
o_width: 4198
datetaken: 2011-11-28 20:07:55
dateupload: 1322709308
tags: 
license: 4
latitude: 43.578509
longitude: -79.650449
accuracy: 14
views: 69
interestingness: 58 out of 242

photo: 6434470315 9b5d673804 7141
owner: 67151314@N03
title: Little Corella Family
originalsecret: 8e4ee964b2
originalformat: jpg
o_height: 1216
o_width: 2216
datetaken: 2011-12-01 12:45:04
dateupload: 1322711943
tags: pink trees bird canon bush bokeh wildlife parrot australia telephoto southcoast amateur nowra corella shoalhaven littlecorella canonef70200mmf28lusm 70200l 40d
license: 0
latitude: -34.880439
longitude: 150.602302
accuracy: 11
views: 35
interestingness: 59 out of 242

photo: 6436868499 29e26f296f 7175
owner: 34546707@N03
title: 
originalsecret: null
originalformat: null
o_height: null
o_width: null
datetaken: 2011-11-16 14:57:10
dateupload: 1322756781
tags: leica bike river 50mm chopper f14 australia harley margaret biker davidson summilux asph prevelly garygraphycom
license: 0
latitude: -33.976959
longitude: 114.993278
accuracy: 11
views: 73
interestingness: 60 out of 242

photo: 6434355573 5da3a0809f 7146
owner: 25272548@N02
title: Down the hatch!
originalsecret: 4072d29ef6
originalformat: jpg
o_height: 816
o_width: 1224
datetaken: 2011-11-20 08:38:26
dateupload: 1322710275
tags: yellowrumpedwarbler riparianpreserveatwaterranch
license: 0
latitude: 33.361426
longitude: -111.732405
accuracy: 16
views: 74
interestingness: 61 out of 242

photo: 6434227107 ca4f54d080 7005
owner: 22010675@N02
title: Green_HoneyCreeper_WEB_0156
originalsecret: null
originalformat: null
o_height: null
o_width: null
datetaken: 2011-03-16 14:28:00
dateupload: 1322708371
tags: red wild green bird nature canon costarica feeding blossom wildlife aves ave ots tanager claudelecours beetonbear greenhoneycreepertanager lascruceswilsonbiologicalstation
license: 0
latitude: 8.764974
longitude: -83.203582
accuracy: 10
views: 29
interestingness: 62 out of 242

photo: 6436820103 6b5891bfb6 7001
owner: 54213307@N08
title: Tetske - Strangers #1
originalsecret: null
originalformat: null
o_height: null
o_width: null
datetaken: 2011-12-01 17:10:11
dateupload: 1322756128
tags: street portrait people white black macro film coffee analog lens maastricht md locals minolta kodak tmax strangers lovers 400 blonde analogue waitress lovely unkown x700 incognito rokkor
license: 0
latitude: 50.846499
longitude: 5.699919
accuracy: 16
views: 87
interestingness: 63 out of 242

photo: 6434696471 a5c9e1925e 7030
owner: 35870491@N02
title: I'm Walking Out that Door...
originalsecret: null
originalformat: null
o_height: null
o_width: null
datetaken: 2011-11-30 14:10:21
dateupload: 1322715332
tags: color feet shoes canvas splash ankles indiekids musicaddicts indiefashion mysexylegs retrofeel seattleeveryday portraitswithoutaface lovelifeandbeauty
license: 0
latitude: 47.601533
longitude: -122.336883
accuracy: 11
views: 75
interestingness: 64 out of 242

photo: 6436130527 0557020b9b 7147
owner: 76033499@N00
title: White-lined tree frog (Phyllomedusa vaillantii)
originalsecret: null
originalformat: null
o_height: null
o_width: null
datetaken: 2011-04-10 20:10:30
dateupload: 1322745907
tags: ecuador yachana lpjc phyllomedusavaillantii
license: 0
latitude: -0.949329
longitude: -77.418251
accuracy: 16
views: 28
interestingness: 65 out of 242

photo: 6434472635 8e7ba61479 7142
owner: 29745219@N06
title: they grow fast.
originalsecret: null
originalformat: null
o_height: null
o_width: null
datetaken: 2011-11-30 20:37:39
dateupload: 1322711978
tags: fence 50mm flowerbed littlegirl growing rainboots taylorauwarter
license: 0
latitude: 40.88611
longitude: -124.082915
accuracy: 15
views: 45
interestingness: 66 out of 242

photo: 6433921301 1496d4d8d9 7009
owner: 26522673@N07
title: Daily Disney - Good night, Disney Hollywood Studios!
originalsecret: 9ddd002e29
originalformat: jpg
o_height: 2412
o_width: 3936
datetaken: 2010-09-01 19:55:53
dateupload: 1322703889
tags: travel sunset vacation clouds canon eos rebel orlando florida dusk entrance disney disneyworld fl wdw dslr waltdisneyworld themepark entry frontgate maingate ticketwindow garyburke hollywoodstudios disneyhollywoodstudios klingon65 t1i canoneosrebelt1i
license: 0
latitude: 28.358431
longitude: -81.558755
accuracy: 16
views: 59
interestingness: 67 out of 242

photo: 6435753109 158d30fb16 7149
owner: 59119714@N06
title: Litlle soldier
originalsecret: 0e313a0b91
originalformat: jpg
o_height: 2592
o_width: 1944
datetaken: 2011-11-17 14:47:01
dateupload: 1322738584
tags: museu lisboa vik ccb berardo
license: 0
latitude: 38.695671
longitude: -9.209192
accuracy: 16
views: 30
interestingness: 68 out of 242

photo: 6434385177 bf28323b12 7148
owner: 27429042@N08
title: Golden Everest
originalsecret: 8d132e567c
originalformat: jpg
o_height: 3074
o_width: 2049
datetaken: 2011-12-01 16:50:57
dateupload: 1322710722
tags: world expedition animal orlando asia florida kingdom disney disneyworld rollercoaster waltdisneyworld walt everest animalkingdom disneysanimalkingdom expeditioneverest disneys disneymountain
license: 0
latitude: 28.358455
longitude: -81.586382
accuracy: 15
views: 54
interestingness: 69 out of 242

photo: 6436810003 874e275089 7165
owner: 54778207@N08
title: Gwylan fechan
originalsecret: 164d3b3d10
originalformat: jpg
o_height: 984
o_width: 984
datetaken: 2011-12-01 14:16:03
dateupload: 1322755988
tags: wood art bois celf val?riane littlegull pren gwyngalch leblond chaux limewash mouettepygm?e gwylanfechan
license: 0
latitude: 52.410482
longitude: -4.097557
accuracy: 11
views: 30
interestingness: 70 out of 242

photo: 6433881879 243a8996c4 7024
owner: 34578976@N00
title: Loon Lake B-23 Isometric
originalsecret: 9f09128d99
originalformat: jpg
o_height: 2934
o_width: 3168
datetaken: 2011-11-30 19:11:18
dateupload: 1322703287
tags: lake 3d model bomber pap loon b23 meshlab hypr3d
license: 0
latitude: 45.15877
longitude: -115.841238
accuracy: 14
views: 95
interestingness: 71 out of 242

photo: 6433825339 8e424da095 7009
owner: 67335628@N06
title: two
originalsecret: 8c4bfc6ecb
originalformat: jpg
o_height: 3744
o_width: 5616
datetaken: 2011-11-30 06:32:12
dateupload: 1322702453
tags: new york moon girl weather sweater 365 365days
license: 0
latitude: 40.717769
longitude: -73.984817
accuracy: 13
views: 27
interestingness: 72 out of 242

photo: 6434209757 7279a167b6 7033
owner: 39104390@N07
title: misstep
originalsecret: null
originalformat: null
o_height: null
o_width: null
datetaken: 2011-11-27 18:05:28
dateupload: 1322708076
tags: ithinkireallyhavetopostsomethingredtomorrow thislittleguywasjusthangingoutonthecardoorandalmostdidntevennotice
license: 0
latitude: 33.953189
longitude: -84.545883
accuracy: 11
views: 24
interestingness: 73 out of 242

photo: 6434787287 acbe3afe61 7031
owner: 17708700@N07
title: Ho Ho Hum
originalsecret: 3d58ee5bcf
originalformat: jpg
o_height: 2778
o_width: 2118
datetaken: 2011-11-27 12:02:02
dateupload: 1322716923
tags: christmas lights depressed unemployed jobless kraynaks hohohum
license: 2
latitude: 41.233973
longitude: -80.462579
accuracy: 16
views: 50
interestingness: 74 out of 242

photo: 6435321247 961307fa67 7154
owner: 60556382@N03
title: Early evening in Bruges
originalsecret: aafb8b2890
originalformat: jpg
o_height: 1648
o_width: 3888
datetaken: 2011-11-27 16:41:51
dateupload: 1322728376
tags: city bridge canon evening canal twilight belgium brugge bruges rebelxs 1000d
license: 0
latitude: 51.207851
longitude: 3.222599
accuracy: 11
views: 150
interestingness: 75 out of 242

photo: 6435016705 0cd2749e5e 7145
owner: 13385037@N00
title: Project365 : 335/365
originalsecret: 24848bbecf
originalformat: jpg
o_height: 3485
o_width: 5227
datetaken: 2011-12-01 13:10:43
dateupload: 1322721482
tags: old shop project quality butcher 365 clunes project365
license: 0
latitude: -37.295171
longitude: 143.786273
accuracy: 14
views: 55
interestingness: 76 out of 242

photo: 6434704485 2e3b9feea5 7154
owner: 7305851@N07
title: Thanksgiving in Troup
originalsecret: null
originalformat: null
o_height: null
o_width: null
datetaken: 2011-11-26 16:02:56
dateupload: 1322708263
tags: ranch fall landscape geotagged texas unitedstates tx thanksgivingweekend hdr lightroom troup 2011 3xp photomatix canonef50mmf18ii tonemapped 2ev tthdr greengrasses realistichdr detailsenhancer canoneos7d fisherranch ?ianaberle geo:lat=32155568 geo:lon=95194178
license: 0
latitude: 32.155568
longitude: -95.194178
accuracy: 14
views: 49
interestingness: 77 out of 242

photo: 6434126027 21431872e0 7162
owner: 30913709@N08
title: ~ Starry Night ~
originalsecret: ac8e736d34
originalformat: jpg
o_height: 2660
o_width: 4001
datetaken: 2008-12-25 07:06:22
dateupload: 1322706845
tags: christmas stars star christmaslights holidaylights
license: 0
latitude: 33.047846
longitude: -97.110857
accuracy: 13
views: 69
interestingness: 78 out of 242

photo: 6435562569 e0b19aacec 7158
owner: 30888227@N08
title: Sheltered and leashed
originalsecret: b2c96e465d
originalformat: jpg
o_height: 1000
o_width: 1333
datetaken: 2011-09-07 14:36:01
dateupload: 1322734365
tags: ocean uk greatbritain sea england beach strand boats coast harbor meer europe cornwall dorf village view unitedkingdom harbour ships shoreline eu boote atlantic aussicht hafen atlanticocean dylanthomas hamlet seaport schiffe englishchannel seacoast ausblick vessels mousehole fishingvillage k?ste cornish penzance atlantik lamanche fischerdorf wellenbrecher breakwaters harbortown fischkutter harbourtown porttown hafenstadt irischesee celticsea dollypentreath ?rmelkanal mount?sbay grosbritannien fishingsmacks navaltown seaporttown tombawcock tombawcockseve fishingcutters fishermen?svillage
license: 0
latitude: 50.083113
longitude: -5.537903
accuracy: 15
views: 27
interestingness: 79 out of 242

photo: 6436715377 c622e9e615 7170
owner: 53608759@N06
title: Water Color
originalsecret: null
originalformat: null
o_height: null
o_width: null
datetaken: 2011-10-05 10:20:10
dateupload: 1322754746
tags: autumn newyork abstract color reflection fall water leaves bubbles foliage flame eternal orchardpark chestnutridge craigcannon
license: 0
latitude: 42.701424
longitude: -78.750643
accuracy: 14
views: 67
interestingness: 80 out of 242

photo: 6433926579 0585a6a3e1 7021
owner: 36013467@N07
title: Pink-footed Goose & Canada Goose
originalsecret: e4eebb0ba2
originalformat: jpg
o_height: 876
o_width: 1314
datetaken: 2011-11-30 08:37:10
dateupload: 1322703974
tags: classavesbirds orderanseriformes canadagoosebrantacanadensis pinerunreservoirbuckscopa familyanatidaeducks pinkfootedgooseanserbrachyrhynchus
license: 0
latitude: 40.309157
longitude: -75.179893
accuracy: 16
views: 297
interestingness: 81 out of 242

photo: 6435562997 637c932256 7156
owner: 30888227@N08
title: Of mice and men
originalsecret: 5ba0248bfc
originalformat: jpg
o_height: 1000
o_width: 1333
datetaken: 2011-09-07 14:32:08
dateupload: 1322734376
tags: ocean uk greatbritain sea england beach strand boats coast harbor meer europe cornwall dorf village view unitedkingdom harbour ships shoreline eu boote atlantic aussicht hafen atlanticocean dylanthomas hamlet seaport schiffe englishchannel seacoast ausblick vessels mousehole fishingvillage k?ste cornish penzance atlantik lamanche fischerdorf wellenbrecher breakwaters harbortown fischkutter harbourtown porttown hafenstadt irischesee celticsea dollypentreath ?rmelkanal mount?sbay grosbritannien fishingsmacks navaltown seaporttown tombawcock tombawcockseve fishingcutters fishermen?svillage
license: 0
latitude: 50.0827
longitude: -5.538117
accuracy: 15
views: 37
interestingness: 82 out of 242

photo: 6436141647 a22c3a7b46 7149
owner: 31888501@N08
title: Ahhhhh, this is the life! :-))
originalsecret: 367ca69ed8
originalformat: jpg
o_height: 800
o_width: 600
datetaken: 2009-07-04 15:17:26
dateupload: 1322754077
tags: hiking funtimes youngman greatoutdoors drinkingcoffee thehillsarealivewiththesoundofjohnny
license: 0
latitude: 56.908814
longitude: -5.297641
accuracy: 11
views: 60
interestingness: 83 out of 242

photo: 6435892767 0c8b37d328 7015
owner: 46819140@N02
title: Little fighter.
originalsecret: null
originalformat: null
o_height: null
o_width: null
datetaken: 2011-12-01 04:11:30
dateupload: 1322741490
tags: 
license: 0
latitude: 46.581428
longitude: 25.05541
accuracy: 11
views: 21
interestingness: 84 out of 242

photo: 6434208793 7c326f68b3 7011
owner: 27418263@N06
title: 38/365: When You Are Old
originalsecret: null
originalformat: null
o_height: null
o_width: null
datetaken: 2011-11-30 18:54:19
dateupload: 1322708059
tags: old square poem sleep squareformat yeats inkwell williambutleryeats totw iphoneography instagramapp uploaded:by=instagram
license: 0
latitude: 37.91495
longitude: -122.307586
accuracy: 9
views: 13
interestingness: 85 out of 242

photo: 6435580787 0cf2721ca6 7153
owner: 46038908@N02
title: Cranford St John
originalsecret: null
originalformat: null
o_height: null
o_width: null
datetaken: 2011-11-30 11:12:02
dateupload: 1322734834
tags: barn churchlane cranfordstjohn
license: 0
latitude: 52.382515
longitude: -0.642356
accuracy: 11
views: 26
interestingness: 86 out of 242

photo: 6435612697 c70c1c0b68 7153
owner: 69505063@N05
title: Louise Stephanie I : The Best of Brussels Luxury Apartments
originalsecret: null
originalformat: null
o_height: null
o_width: null
datetaken: 2011-12-01 04:33:47
dateupload: 1322735627
tags: apartments belgium rentals brusselsluxuryapartments brusselsapartmentrentals apartmentsforrentinbrusselsapartmentsrentalstobelgium
license: 0
latitude: 50.848381
longitude: 4.349679
accuracy: 11
views: 123
interestingness: 87 out of 242

photo: 6436813189 82eaaa146b 7009
owner: 54213307@N08
title: Tetske - Strangers #1
originalsecret: null
originalformat: null
o_height: null
o_width: null
datetaken: 2011-12-01 17:07:12
dateupload: 1322756032
tags: street portrait people white black macro film coffee analog lens maastricht md locals minolta kodak tmax strangers lovers 400 blonde analogue waitress lovely unkown x700 incognito rokkor
license: 0
latitude: 50.846461
longitude: 5.699715
accuracy: 16
views: 63
interestingness: 88 out of 242

photo: 6435819959 4c6d30fb55 7033
owner: 80726501@N00
title: dino
originalsecret: null
originalformat: null
o_height: null
o_width: null
datetaken: 2011-12-01 12:46:13
dateupload: 1322739973
tags: park winter fog children dino swing wildfire htc
license: 3
latitude: 45.238151
longitude: 19.839591
accuracy: 16
views: 35
interestingness: 89 out of 242

photo: 6434647833 504ba9ffb4 7145
owner: 28806363@N05
title: Capadocian valley
originalsecret: null
originalformat: null
o_height: null
o_width: null
datetaken: 2011-06-24 20:20:40
dateupload: 1322714561
tags: sunset mountain rose stone turkey turkiye valley volcanic formations kapadokya capadocia turhia
license: 0
latitude: 38.657096
longitude: 34.849319
accuracy: 10
views: 17
interestingness: 90 out of 242

photo: 6436466559 1659488fdb 7158
owner: 39108915@N07
title: the LeSueur
originalsecret: 62a51b24aa
originalformat: jpg
o_height: 955
o_width: 955
datetaken: 2011-10-03 09:17:19
dateupload: 1322751204
tags: marquee theatre movies mn lesueur
license: 0
latitude: 44.460372
longitude: -93.915853
accuracy: 14
views: 23
interestingness: 91 out of 242

photo: 6435593403 e3386c3761 7034
owner: 42365001@N05
title: "Herring Gull 11"
originalsecret: null
originalformat: null
o_height: null
o_width: null
datetaken: 2011-11-30 22:51:12
dateupload: 1322735161
tags: blackwhite fishingboat leicam3 steinhudermeer kodakprofessionalbw400cn splittoning summicron50mmf20 heringgull
license: 3
latitude: 52.45442
longitude: 9.34973
accuracy: 16
views: 33
interestingness: 92 out of 242

photo: 6435499101 385b17faf2 7023
owner: 20154996@N00
title: cool perch
originalsecret: null
originalformat: null
o_height: null
o_width: null
datetaken: 2011-03-12 08:13:44
dateupload: 1322732750
tags: 
license: 0
latitude: 15.215288
longitude: 145.73141
accuracy: 11
views: 29
interestingness: 93 out of 242

photo: 6435099087 ffd816bc4b 7032
owner: 51231465@N04
title: Little Robin
originalsecret: null
originalformat: null
o_height: null
o_width: null
datetaken: 2011-11-20 09:47:46
dateupload: 1322723308
tags: bird robin colours rspb strumpshawfen
license: 0
latitude: 52.605575
longitude: 1.456246
accuracy: 13
views: 37
interestingness: 94 out of 242

photo: 6433881785 619a1d8cc5 7018
owner: 34578976@N00
title: Loon Lake B-23 Orthographic
originalsecret: 0dbf97ca1d
originalformat: jpg
o_height: 2748
o_width: 4152
datetaken: 2011-11-30 19:09:01
dateupload: 1322703286
tags: lake 3d model bomber pap loon b23 meshlab hypr3d
license: 0
latitude: 45.158861
longitude: -115.84134
accuracy: 16
views: 56
interestingness: 95 out of 242

photo: 6436104723 e70680914d 7013
owner: 49699984@N05
title: Day335 - Brisbane Christmas Tree
originalsecret: null
originalformat: null
o_height: null
o_width: null
datetaken: 2011-12-01 08:48:02
dateupload: 1322745451
tags: christmas tree square george king australia brisbane queensland huge 365 project365
license: 0
latitude: -27.468473
longitude: 153.024015
accuracy: 16
views: 34
interestingness: 96 out of 242

photo: 6436050611 7d066b6295 7018
owner: 11636080@N00
title: Just saved this little guy from the cat. He survived.
originalsecret: null
originalformat: null
o_height: null
o_width: null
datetaken: 2011-12-01 10:29:43
dateupload: 1322744505
tags: bird uruguay puntadeleste alkimia afnikkor50mmf14d
license: 0
latitude: -34.937989
longitude: -54.924726
accuracy: 16
views: 1185
interestingness: 97 out of 242

photo: 6435763117 ac6d79a637 7154
owner: 12280995@N07
title: Pretty {Little} Pouch received
originalsecret: null
originalformat: null
o_height: null
o_width: null
datetaken: 2011-12-01 11:12:32
dateupload: 1322738795
tags: 
license: 0
latitude: 49.458774
longitude: 2.857337
accuracy: 12
views: 62
interestingness: 98 out of 242

photo: 6435318019 598ce10612 7169
owner: 66586377@N04
title: Morning Exercise
originalsecret: null
originalformat: null
o_height: null
o_width: null
datetaken: 2011-11-29 05:06:29
dateupload: 1322728302
tags: 365
license: 0
latitude: -28.097352
longitude: 153.461322
accuracy: 16
views: 19
interestingness: 99 out of 242

photo: 6434992515 6196400fa5 7156
owner: 15969227@N04
title: Traffic Building - 163 West 23rd Street, New York
originalsecret: bbe38a9881
originalformat: jpg
o_height: 3456
o_width: 4608
datetaken: 2011-10-21 09:43:35
dateupload: 1322720940
tags: nyc newyorkcity ny newyork detail building brick architecture chelsea manhattan terracotta
license: 0
latitude: 40.743724
longitude: -73.994567
accuracy: 15
views: 20
interestingness: 100 out of 242

photo: 6435335669 840c760868 7161
owner: 66586377@N04
title: Tallebudgera Sunrise
originalsecret: null
originalformat: null
o_height: null
o_width: null
datetaken: 2011-11-29 05:07:07
dateupload: 1322728762
tags: 365
license: 0
latitude: -28.098029
longitude: 153.461494
accuracy: 13
views: 18
interestingness: 101 out of 242

photo: 6434003949 a9420ea153 7162
owner: 7202153@N03
title: Emery's early iPod - an Edison phonograph - Kolb residence - Grand Canyon Village
originalsecret: 4df07a354a
originalformat: jpg
o_height: 3000
o_width: 4000
datetaken: 2011-11-17 15:28:30
dateupload: 1322705101
tags: park arizona building history home architecture movie studio nationalpark village district grandcanyon south grand photographic canyon historic national residence rim southrim kolb grandcanyonnationalpark nationalhistoricdistrict kolbstudio alhikesaz arizonamemoryproject gc2011 kolbresidence grandcanyonvillagehistoricdistrict
license: 2
latitude: 36.057538
longitude: -112.145744
accuracy: 16
views: 40
interestingness: 102 out of 242

photo: 6435529275 b0760540c9 7171
owner: 24568808@N04
title: Jamiroquai - Lyon, le 30/11/2011
originalsecret: eb40be3f2d
originalformat: jpg
o_height: 1280
o_width: 960
datetaken: 2011-11-30 21:34:13
dateupload: 1322733513
tags: concert lyon jamiroquai halle jaykay tonygarnier spacecowboy littlel 69000
license: 0
latitude: 45.731467
longitude: 4.824886
accuracy: 14
views: 23
interestingness: 103 out of 242

photo: 6435370499 e42b00569b 7144
owner: 48060246@N06
title: H23 (with little wheel)
originalsecret: a96f39418e
originalformat: jpg
o_height: 2848
o_width: 3861
datetaken: 2011-11-06 11:57:58
dateupload: 1322729628
tags: hydrant perron arnhem brandkraan arnhemcs nikkor18105vr
license: 0
latitude: 51.984562
longitude: 5.901718
accuracy: 13
views: 55
interestingness: 104 out of 242

photo: 6435048985 78d8739503 7166
owner: 22198509@N03
title: Towers over Transbay
originalsecret: null
originalformat: null
o_height: null
o_width: null
datetaken: 2011-11-29 17:05:35
dateupload: 1322722199
tags: 
license: 0
latitude: 37.789421
longitude: -122.390699
accuracy: 15
views: 61
interestingness: 105 out of 242

photo: 6434994307 6fa1e32994 7168
owner: 34911734@N07
title: Heather Meal
originalsecret: fe2aa23c67
originalformat: jpg
o_height: 3648
o_width: 2736
datetaken: 2011-09-04 12:23:28
dateupload: 1322720978
tags: westsussex hampshire september rake liphook sussexborderpath
license: 0
latitude: 51.049285
longitude: -0.820004
accuracy: 15
views: 13
interestingness: 106 out of 242

photo: 6436917773 66c86fd2b5 7148
owner: 8254841@N07
title: Today's Wings: pie-billed grebe
originalsecret: null
originalformat: null
o_height: null
o_width: null
datetaken: 2011-11-23 09:34:21
dateupload: 1322757415
tags: cute duck florida grebe brevard piebilled vierawetlands dharpphotos todayswings
license: 0
latitude: 28.222886
longitude: -80.762901
accuracy: 14
views: 37
interestingness: 107 out of 242

photo: 6434091739 9a6bfd732d 7035
owner: 24304517@N02
title: View from Raven's Roost
originalsecret: 274842f997
originalformat: jpg
o_height: 750
o_width: 1000
datetaken: 2011-10-08 14:06:09
dateupload: 1322706358
tags: fall colors virginia view overlook blueridgeparkway ravensroost
license: 0
latitude: 37.944874
longitude: -78.930115
accuracy: 13
views: 26
interestingness: 108 out of 242

photo: 6436809435 8b55afdfa1 7146
owner: 30797788@N03
title: s r - FORD  CAPRI
originalsecret: b3bb4db952
originalformat: jpg
o_height: 1600
o_width: 2400
datetaken: 2011-09-04 15:58:13
dateupload: 1322755979
tags: auto old italy classic cars abandoned car vintage capri automobile italia voiture historic oldtimer scrap fora emiliaromagna vecchio epoca storico vecchia rottame abbandono vecchie fordcapri storiche worldcars
license: 0
latitude: 44.140087
longitude: 12.237396
accuracy: 11
views: 46
interestingness: 109 out of 242

photo: 6436061817 52cf39510c 7010
owner: 43548954@N02
title: Neuschwanstein Castle giggles
originalsecret: null
originalformat: null
o_height: null
o_width: null
datetaken: 2011-11-24 19:59:22
dateupload: 1322744700
tags: cold castle boys kids germany nikon neuschwanstein 1755mmnikkorlens
license: 0
latitude: 47.569381
longitude: 10.698989
accuracy: 11
views: 34
interestingness: 110 out of 242

photo: 6435942815 f280512132 7164
owner: 48359369@N00
title: Red Browed Finch hopping about
originalsecret: 07d4882241
originalformat: jpg
o_height: 800
o_width: 1200
datetaken: 2011-11-15 02:54:47
dateupload: 1322742506
tags: red bird nature canon wildlife sydney australia finch nsw firetail browed
license: 0
latitude: -33.798193
longitude: 151.149038
accuracy: 16
views: 22
interestingness: 111 out of 242

photo: 6434004439 140fc0c172 7173
owner: 7202153@N03
title: Historic Kolb Studio - Grand Canyon - South Rim
originalsecret: 8fbe2c29f8
originalformat: jpg
o_height: 2468
o_width: 3688
datetaken: 2011-11-17 14:22:48
dateupload: 1322705108
tags: park arizona building history home architecture movie studio nationalpark village district flag grandcanyon south americanflag grand photographic canyon historic national american residence rim southrim kolb grandcanyonnationalpark nationalhistoricdistrict kolbstudio alhikesaz arizonamemoryproject gc2011 kolbresidence grandcanyonvillagehistoricdistrict
license: 2
latitude: 36.057538
longitude: -112.145744
accuracy: 16
views: 62
interestingness: 112 out of 242

photo: 6436776007 67aa4e1c11 7029
owner: 30797788@N03
title: s r - FORD  CAPRI
originalsecret: ff2549d759
originalformat: jpg
o_height: 1600
o_width: 2400
datetaken: 2011-09-03 18:24:43
dateupload: 1322755522
tags: auto old italy classic cars abandoned car vintage capri automobile italia voiture historic oldtimer scrap fora emiliaromagna vecchio epoca storico vecchia rottame abbandono vecchie fordcapri storiche worldcars
license: 0
latitude: 44.138969
longitude: 12.23865
accuracy: 11
views: 51
interestingness: 113 out of 242

photo: 6435947113 b23ec4ddda 7145
owner: 44247501@N02
title: Kittlitz?s Plover
originalsecret: null
originalformat: null
o_height: null
o_width: null
datetaken: 2011-11-29 07:17:40
dateupload: 1322742585
tags: plover charadriuspecuarius kittlitz?splover
license: 0
latitude: -34.410963
longitude: 19.158905
accuracy: 13
views: 5
interestingness: 114 out of 242

photo: 6434307565 5454b10b25 7002
owner: 23396421@N05
title: 326/365: Dark and Dreary
originalsecret: e37fec442e
originalformat: jpg
o_height: 1765
o_width: 2353
datetaken: 2011-11-22 07:16:06
dateupload: 1322709573
tags: 365 project365 iphone4s
license: 0
latitude: 41.591166
longitude: -93.626833
accuracy: 16
views: 37
interestingness: 115 out of 242

photo: 6435241151 d60969487a 7020
owner: 49115235@N06
title: Day 41 / 365 - Light Boxes
originalsecret: 5f9454c61c
originalformat: jpg
o_height: 800
o_width: 1200
datetaken: 2011-11-30 17:31:16
dateupload: 1322726541
tags: light urban building night project day little box small cube blocks 365 41
license: 0
latitude: 37.87736
longitude: -122.242469
accuracy: 12
views: 11
interestingness: 116 out of 242

photo: 6435758669 7fd0d9d9d8 7032
owner: 60850520@N05
title: 01102011(007) - Rear end of my black 1992 Saab 900 2.1 hatchback
originalsecret: 0822874b08
originalformat: jpg
o_height: 1200
o_width: 1600
datetaken: 2011-10-01 08:47:47
dateupload: 1322738702
tags: auto door 3 black cute sexy classic car by club dark point automobile king european view 21 pov perspective australian engine kong made turbo vision valve strong 1992 16 product non ems saab 900 axiom klang trolls aero litre hatchback spg insurgent povray persistence scca 16v prestige carlsson kling infidel 3ck dohc c900 trollhattan ecca navar b212 zonavar navarzo navarzo2 navarzo3
license: 0
latitude: -34.139514
longitude: 150.996265
accuracy: 11
views: 20
interestingness: 117 out of 242

photo: 6435375301 879e33ba89 7006
owner: 21270777@N03
title: sweet kiss
originalsecret: null
originalformat: null
o_height: null
o_width: null
datetaken: 2011-08-05 20:03:37
dateupload: 1322729744
tags: blue sea white girl toy sand dress little clown blonde porcelain hears sweetkiss
license: 0
latitude: 43.5872
longitude: 39.722599
accuracy: 11
views: 47
interestingness: 118 out of 242

photo: 6434992861 fc72949db0 7014
owner: 15969227@N04
title: Traffic Building - 163 West 23rd Street, New York
originalsecret: 818cf42eea
originalformat: jpg
o_height: 4608
o_width: 3072
datetaken: 2011-10-21 09:43:43
dateupload: 1322720946
tags: nyc newyorkcity ny newyork detail building brick architecture chelsea manhattan terracotta
license: 0
latitude: 40.743724
longitude: -73.994567
accuracy: 15
views: 10
interestingness: 119 out of 242

photo: 6434348101 bf86af7d8b 7021
owner: 71047115@N05
title: Don't bite me!
originalsecret: null
originalformat: null
o_height: null
o_width: null
datetaken: 2011-04-08 16:02:05
dateupload: 1322710166
tags: dog nature animal photography puppies little perro fotograf?a
license: 0
latitude: -34.470618
longitude: -58.528633
accuracy: 12
views: 11
interestingness: 120 out of 242

photo: 6434245929 68c05ac44b 7016
owner: 20697717@N06
title: Snow in curved space - #333/365
originalsecret: 5eaf98490e
originalformat: jpg
o_height: 1966
o_width: 3305
datetaken: 2011-11-30 12:21:06
dateupload: 1322708656
tags: snow toronto nikon downtown project365 nikond80
license: 1
latitude: 0.000000
longitude: 0.000000
accuracy: 16
views: 39
interestingness: 121 out of 242

photo: 6434116123 6d2bf9780c 7161
owner: 7478014@N07
title: Little Hearts!
originalsecret: null
originalformat: null
o_height: null
o_width: null
datetaken: 2011-07-23 16:11:21
dateupload: 1322706702
tags: flores amigos verde kid boda ni?o petalos
license: 0
latitude: 18.985519
longitude: -99.109039
accuracy: 12
views: 34
interestingness: 122 out of 242

photo: 6433879443 c0db0c9ece 7004
owner: 37749578@N00
title: Scratchin' and Yawnin'
originalsecret: null
originalformat: null
o_height: null
o_width: null
datetaken: 2011-03-24 13:53:45
dateupload: 1322703253
tags: cute washington funny wildlife humor yawn tacoma raccoon scratch tame scratching yawning pointdefiance img0653 img0644 canont2i
license: 0
latitude: 47.317806
longitude: -122.542362
accuracy: 16
views: 18
interestingness: 123 out of 242

photo: 6434274481 c4ace247cc 7164
owner: 57768536@N05
title: TV Cameraman
originalsecret: 01c2f7e7eb
originalformat: jpg
o_height: 2635
o_width: 2448
datetaken: 2011-12-01 12:47:54
dateupload: 1322709084
tags: 
license: 1
latitude: -34.928296
longitude: 138.599957
accuracy: 16
views: 31
interestingness: 124 out of 242

photo: 6433969615 79651f2756 7172
owner: 7818331@N02
title: Merlin-Barnegat Light-11/28/2011
originalsecret: 09ac6a8316
originalformat: jpg
o_height: 954
o_width: 843
datetaken: 2011-11-28 16:06:20
dateupload: 1322704602
tags: autumn bird beach birds raptor falcon barnegatlight newjerseybirds lifebird
license: 0
latitude: 39.757673
longitude: -74.096281
accuracy: 15
views: 30
interestingness: 125 out of 242

photo: 6434337175 d4ced3ca7b 7007
owner: 64482602@N07
title: Goslings foraging
originalsecret: cffbbd11d6
originalformat: jpg
o_height: 862
o_width: 1000
datetaken: 2011-04-21 16:02:49
dateupload: 1322710015
tags: nature birds geese goslings
license: 0
latitude: 37.767152
longitude: -122.4761
accuracy: 13
views: 18
interestingness: 126 out of 242

photo: 6433826253 2323299ba6 7020
owner: 24666388@N07
title: RTMD@ Mission Inn, Riverside, Ca
originalsecret: c9f825d532
originalformat: jpg
o_height: 4272
o_width: 2848
datetaken: 2011-11-27 20:15:28
dateupload: 1322702468
tags: california christmas winter horses holiday tree canon festive religious lights downtown december arch carriage riverside religion arcade columns arches christmastree christmaslights lanterns mission vendor panning crepes missioninn lightroom 2011 concumerism outlawmenacephotography
license: 0
latitude: 33.982873
longitude: -117.37293
accuracy: 16
views: 12
interestingness: 127 out of 242

photo: 6436524821 602af56dca 7172
owner: 16126901@N06
title: closed t.f.n
originalsecret: 8c857443a8
originalformat: jpg
o_height: 2848
o_width: 4288
datetaken: 2011-12-01 12:05:04
dateupload: 1322752072
tags: street windows streets jones streetphotography clarendon shops oxonianclive oxfordnikond300the oxfordurbanlittle copyrightclivejones
license: 0
latitude: 51.758232
longitude: -1.262574
accuracy: 15
views: 21
interestingness: 128 out of 242

photo: 6435671901 013f2b24c1 7172
owner: 13175285@N04
title: Life's little miracles...
originalsecret: null
originalformat: null
o_height: null
o_width: null
datetaken: 2011-11-26 17:49:43
dateupload: 1322736917
tags: sanfrancisco sunset beach night evening clear madison 2011 madisonbeachsunset
license: 0
latitude: 37.619534
longitude: -122.4967
accuracy: 11
views: 47
interestingness: 129 out of 242

photo: 6434438795 0983386266 7167
owner: 8736322@N08
title: Little Peace Tower
originalsecret: null
originalformat: null
o_height: null
o_width: null
datetaken: 2011-11-30 12:52:59
dateupload: 1322711482
tags: ca riverside riversidecalifornia mountrubidoux
license: 0
latitude: 33.984741
longitude: -117.391564
accuracy: 16
views: 66
interestingness: 130 out of 242

photo: 6434294297 89363d7f06 7016
owner: 21374845@N08
title: Canyon Squirrel
originalsecret: c30b564ab9
originalformat: jpg
o_height: 900
o_width: 600
datetaken: 2011-09-17 17:12:42
dateupload: 1322709370
tags: squirrel grandcanyon maricopapoint
license: 0
latitude: 36.07175
longitude: -112.16608
accuracy: 16
views: 12
interestingness: 131 out of 242

photo: 6434194939 f985f5cf19 7157
owner: 53571973@N05
title: Little Flowers in our jungle
originalsecret: null
originalformat: null
o_height: null
o_width: null
datetaken: 2011-12-01 08:42:59
dateupload: 1322707844
tags: flower garden
license: 0
latitude: -37.828779
longitude: 145.253047
accuracy: 14
views: 12
interestingness: 132 out of 242

photo: 6433885013 121fe6aab6 7152
owner: 41665184@N08
title: first roll(s) of Ikonta brothers
originalsecret: 828924ef12
originalformat: jpg
o_height: 2797
o_width: 2048
datetaken: 2011-11-30 23:44:04
dateupload: 1322703333
tags: kobe 6x45 kodakektar100 zeissikonikonta520
license: 0
latitude: 34.648655
longitude: 135.113003
accuracy: 15
views: 18
interestingness: 133 out of 242

photo: 6433749683 a5415cf907 7024
owner: 72098626@N00
title: Central Park Dance Skaters, Oct 2011 - 17
originalsecret: 6ca27a978d
originalformat: jpg
o_height: 3957
o_width: 2639
datetaken: 2011-10-23 15:28:04
dateupload: 1322701338
tags: newyork bottle dancers centralpark manhattan skate centralparkdanceskaters danceskaters
license: 1
latitude: 40.773277
longitude: -73.971356
accuracy: 16
views: 27
interestingness: 134 out of 242

photo: 6435982345 a35a5d71c7 7013
owner: 99799929@N00
title: Constructione
originalsecret: null
originalformat: null
o_height: null
o_width: null
datetaken: 2011-12-01 12:48:31
dateupload: 1322743261
tags: street signs amsterdam construction workinprogress borden mf gps dailylife pentacon manualfocus zeeburg weg straat fietspad verkeersborden
license: 0
latitude: 52.374906
longitude: 4.932845
accuracy: 16
views: 16
interestingness: 135 out of 242

photo: 6435086827 b559ffd91f 7018
owner: 14599003@N06
title: 2011  If I may, just a little sniff.
originalsecret: 1ac61a409a
originalformat: jpg
o_height: 1897
o_width: 2529
datetaken: 2011-06-07 11:47:10
dateupload: 1322723027
tags: bear polarbear churchill sparring capechurchill savethepolarbear
license: 0
latitude: 58.714398
longitude: -93.289031
accuracy: 9
views: 24
interestingness: 136 out of 242

photo: 6433681757 5e86b8b00d 7142
owner: 10168721@N02
title: Chris "Keris" Croughton - Funeral
originalsecret: dd2bd0492e
originalformat: jpg
o_height: 4000
o_width: 3000
datetaken: 2011-11-30 14:40:07
dateupload: 1322700319
tags: funeral keris
license: 0
latitude: 52.173194
longitude: -0.713081
accuracy: 12
views: 145
interestingness: 137 out of 242

photo: 6435299851 c0ab7c1ab9 7174
owner: 82585858@N00
title: Trainspotting
originalsecret: null
originalformat: null
o_height: null
o_width: null
datetaken: 2011-11-09 15:27:40
dateupload: 1322727855
tags: 
license: 0
latitude: 48.877586
longitude: 2.359542
accuracy: 11
views: 7
interestingness: 138 out of 242

photo: 6433677505 a9c6d0d629 7008
owner: 10168721@N02
title: Chris "Keris" Croughton - Funeral
originalsecret: 11f4cf319f
originalformat: jpg
o_height: 3000
o_width: 4000
datetaken: 2011-11-30 14:39:42
dateupload: 1322700259
tags: funeral keris
license: 0
latitude: 52.173194
longitude: -0.713081
accuracy: 12
views: 145
interestingness: 139 out of 242

photo: 6437081345 152bbec22b 7173
owner: 16054928@N07
title: Boscombe Beach
originalsecret: 3823f27f6b
originalformat: jpg
o_height: 1000
o_width: 2555
datetaken: 2010-02-06 20:39:32
dateupload: 1322759610
tags: beach surfing bournemouth regeneration boscombe
license: 0
latitude: 50.72078
longitude: -1.838235
accuracy: 13
views: 36
interestingness: 140 out of 242

photo: 6435768171 6a98ca31e1 7002
owner: 48592979@N06
title: Siskin (Carduelis spinus) feeding on Alder cones
originalsecret: 4e2317478a
originalformat: jpg
o_height: 768
o_width: 1024
datetaken: 2011-11-30 10:48:11
dateupload: 1322738907
tags: york feeding siskin carduelisspinus localnaturereserve stnicholasfields aldercones
license: 0
latitude: 53.957146
longitude: -1.061725
accuracy: 14
views: 10
interestingness: 141 out of 242

photo: 6434871397 debd82e9db 7021
owner: 90686988@N00
title: Unlit Tree
originalsecret: a0d2eb6e6e
originalformat: jpg
o_height: 4928
o_width: 3264
datetaken: 2011-11-29 15:20:15
dateupload: 1322718538
tags: november autumn canada tree calgary fall alberta ??? unlit 11? 2011 ?? ??? ????? shimotsuki ?????? frostmonth j?ichigatsu ??23?
license: 0
latitude: 51.0457
longitude: -114.057859
accuracy: 16
views: 27
interestingness: 142 out of 242

photo: 6436577233 ce59db18af 7159
owner: 36249012@N05
title: Little Egret, SNU
originalsecret: b6c80c8482
originalformat: jpg
o_height: 800
o_width: 800
datetaken: 2011-12-01 10:20:11
dateupload: 1322752832
tags: india bird december sony snu littleegret egrettagarzetta greaternoida 2011 dsch50
license: 0
latitude: 28.525566
longitude: 77.58193
accuracy: 13
views: 2
interestingness: 143 out of 242

photo: 6436560179 db76a2701c 7035
owner: 37159783@N07
title: Trichosurus vulpecula - Brushtail Possum
originalsecret: null
originalformat: null
o_height: null
o_width: null
datetaken: 2011-08-04 19:10:18
dateupload: 1322752578
tags: possum trichosurusvulpecula brushtailpossum porongurup
license: 0
latitude: -34.670346
longitude: 117.885704
accuracy: 11
views: 3
interestingness: 144 out of 242

photo: 6436501727 8d6bfdea48 7005
owner: 54750124@N06
title: Rollright Stone Circle
originalsecret: null
originalformat: null
o_height: null
o_width: null
datetaken: 2006-09-10 16:02:34
dateupload: 1322751747
tags: england english stone mystery circle folklore mysterious legend oxfordshire myth rollright
license: 0
latitude: 51.975879
longitude: -1.568083
accuracy: 14
views: 7
interestingness: 145 out of 242

photo: 6436496453 3e841219fc 7009
owner: 54750124@N06
title: Rollright King Stone
originalsecret: null
originalformat: null
o_height: null
o_width: null
datetaken: 2006-09-08 15:35:22
dateupload: 1322751672
tags: monument stone circle ancient king folklore legend monolith oxfordshire rollright
license: 0
latitude: 51.976778
longitude: -1.568984
accuracy: 14
views: 2
interestingness: 146 out of 242

photo: 6436151827 0323aae5d4 7002
owner: 43662205@N00
title: Cheonggyecheon
originalsecret: b964ec3e02
originalformat: jpg
o_height: 768
o_width: 1024
datetaken: 2011-09-22 13:06:45
dateupload: 1322746283
tags: city urban tree water horizontal asian asia stream day outdoor space nobody korea oasis korean willow seoul southkorea urbanrenewal sunnyday lined cheonggyecheon cloudlesssky cheonggye
license: 1
latitude: 37.5695
longitude: 127.002
accuracy: 16
views: 46
interestingness: 147 out of 242

photo: 6435902261 32e7054c42 7174
owner: 52137138@N04
title: Little Shambles York
originalsecret: null
originalformat: null
o_height: null
o_width: null
datetaken: 2011-11-28 09:21:26
dateupload: 1322741682
tags: york city uk winter england geotagged autum yorkshire shambles yorkcity paulwilliams littleshambles
license: 0
latitude: 53.954458
longitude: -1.084425
accuracy: 16
views: 6
interestingness: 148 out of 242

photo: 6435853981 a18c4782c9 7171
owner: 83311527@N00
title: Sunset over St. Brides from Broad Haven Esplanade
originalsecret: 805bd88f94
originalformat: jpg
o_height: 2587
o_width: 3864
datetaken: 2011-03-22 00:00:05
dateupload: 1322740685
tags: sunset haven pembroke tin 22 march little plate d200 2011
license: 0
latitude: 51.783771
longitude: -5.103149
accuracy: 10
views: 5
interestingness: 149 out of 242

photo: 6435816009 f9070d2cc8 7004
owner: 68195094@N05
title: 'Because sometimes you just have to believe'.
originalsecret: null
originalformat: null
o_height: null
o_width: null
datetaken: 2011-04-26 12:35:49
dateupload: 1322739888
tags: girl field angel child play au australia williamstown annemcneill littlesparrowphotography vicmelb
license: 0
latitude: -37.815954
longitude: 144.969921
accuracy: 16
views: 10
interestingness: 150 out of 242

photo: 6435815739 d9a548b22b 7172
owner: 68195094@N05
title: Angel
originalsecret: null
originalformat: null
o_height: null
o_width: null
datetaken: 2011-04-26 12:50:21
dateupload: 1322739882
tags: cute girl field angel au australia williamstown annemcneill littlesparrowphotography vicmelb
license: 0
latitude: -37.815784
longitude: 144.969491
accuracy: 13
views: 5
interestingness: 151 out of 242

photo: 6435614883 2c6f6e7c98 7029
owner: 54984626@N07
title: No.4
originalsecret: null
originalformat: null
o_height: null
o_width: null
datetaken: 2011-11-30 16:22:29
dateupload: 1322735673
tags: dark toy grey monkey moody egg kinder dash dashboard 365 suprise kinderegg 365challenge
license: 0
latitude: 52.41132
longitude: -2.102851
accuracy: 11
views: 15
interestingness: 152 out of 242

photo: 6435268493 f7138e3a7d 7026
owner: 47937261@N06
title: little egret
originalsecret: 0318d27583
originalformat: jpg
o_height: 724
o_width: 1082
datetaken: 2011-11-30 14:20:58
dateupload: 1322727171
tags: winter nature birds wales coast wildlife cymru gower birdwatching waders welshwildlifebreaks
license: 0
latitude: 51.623665
longitude: -4.163475
accuracy: 11
views: 4
interestingness: 153 out of 242

photo: 6435260955 8de7c78d04 7009
owner: 52809689@N06
title: Street
originalsecret: 210a718a2d
originalformat: jpg
o_height: 1029
o_width: 1575
datetaken: 2011-11-30 21:34:07
dateupload: 1322726999
tags: christmas camera urban tree norway night canon dark lights living town hall scandinavia leif marked b?rum sandvika skandsen
license: 0
latitude: 59.888775
longitude: 10.526533
accuracy: 14
views: 28
interestingness: 154 out of 242

photo: 6434993429 0e053e3e74 7017
owner: 15969227@N04
title: Traffic Building - 163 West 23rd Street, New York
originalsecret: 8a0d30995e
originalformat: jpg
o_height: 4608
o_width: 3456
datetaken: 2011-10-21 09:44:12
dateupload: 1322720959
tags: nyc newyorkcity ny newyork building brick architecture chelsea manhattan terracotta
license: 0
latitude: 40.743724
longitude: -73.994567
accuracy: 15
views: 10
interestingness: 155 out of 242

photo: 6434993151 5337c3312d 7034
owner: 15969227@N04
title: Traffic Building - 163 West 23rd Street, New York
originalsecret: 864f596e41
originalformat: jpg
o_height: 3456
o_width: 4608
datetaken: 2011-10-21 09:43:27
dateupload: 1322720953
tags: nyc newyorkcity ny newyork detail building brick architecture chelsea manhattan terracotta
license: 0
latitude: 40.743724
longitude: -73.994567
accuracy: 15
views: 11
interestingness: 156 out of 242

photo: 6434992041 871584e45e 7008
owner: 15969227@N04
title: Traffic Building - 163 West 23rd Street, New York
originalsecret: 019620377a
originalformat: jpg
o_height: 4608
o_width: 3456
datetaken: 2011-10-21 09:43:49
dateupload: 1322720932
tags: nyc newyorkcity ny newyork detail building brick architecture chelsea manhattan terracotta
license: 0
latitude: 40.743724
longitude: -73.994567
accuracy: 15
views: 7
interestingness: 157 out of 242

photo: 6434921351 06a7073e42 7008
owner: 26596607@N04
title: Little Rockly Bay, Tobago 2010 IMG_4962a
originalsecret: null
originalformat: null
o_height: null
o_width: null
datetaken: 2010-02-02 04:19:37
dateupload: 1322719529
tags: blue sea sun beach boats sand paradise villages tropical waters tobago bay? ?little ?trinidad tobago? rockly
license: 0
latitude: 11.231528
longitude: -60.728919
accuracy: 12
views: 4
interestingness: 158 out of 242

photo: 6434913929 05c0dd45fc 7001
owner: 26596607@N04
title: Little Rockly Bay, Tobago 2010 IMG_4954a
originalsecret: null
originalformat: null
o_height: null
o_width: null
datetaken: 2010-02-02 04:10:36
dateupload: 1322719391
tags: blue sea sun beach boats sand paradise villages tropical waters tobago bay? ?little ?trinidad tobago? rockly
license: 0
latitude: 11.231528
longitude: -60.728919
accuracy: 12
views: 4
interestingness: 159 out of 242

photo: 6434907447 9243fd8299 7156
owner: 26596607@N04
title: Little Rockly Bay, Tobago 2010 IMG_4953a
originalsecret: null
originalformat: null
o_height: null
o_width: null
datetaken: 2010-02-02 04:10:27
dateupload: 1322719261
tags: blue sea sun beach boats sand paradise villages tropical waters tobago bay? ?little ?trinidad tobago? rockly
license: 0
latitude: 11.231528
longitude: -60.728919
accuracy: 12
views: 4
interestingness: 160 out of 242

photo: 6434901945 e003a0863b 7004
owner: 26596607@N04
title: Little Rockly Bay, Tobago 2010 IMG_4948a
originalsecret: null
originalformat: null
o_height: null
o_width: null
datetaken: 2010-02-02 04:09:51
dateupload: 1322719146
tags: blue sea sun beach boats sand paradise villages tropical waters tobago bay? ?little ?trinidad tobago? rockly
license: 0
latitude: 11.231528
longitude: -60.728919
accuracy: 12
views: 4
interestingness: 161 out of 242

photo: 6434808889 04816c1412 7166
owner: 47705525@N06
title: Little Candy Hound-Halloween 2004
originalsecret: null
originalformat: null
o_height: null
o_width: null
datetaken: 2011-11-30 19:29:10
dateupload: 1322717350
tags: family dog holiday halloween 2004 puppy happy hawaii polynesia costume basket candy jeep trickortreat halloweencostume grandson bigisland kona carport reeses kealia peanutbuttercups reesespeanutbuttercups lauhala hawaiicounty southkona hawaiiisland puppycostume damatian barryfackler barronfackler jacquesliquie lauhalabasket
license: 0
latitude: 19.397706
longitude: -155.87781
accuracy: 16
views: 21
interestingness: 162 out of 242

photo: 6434703139 5ff3878de7 7153
owner: 9431556@N04
title: Heavily pregnant.
originalsecret: 0ee75dcd70
originalformat: jpg
o_height: 957
o_width: 1440
datetaken: 2011-12-01 11:18:07
dateupload: 1322715440
tags: bw monochrome vw nikon 28mm pregnant teresa nikkor nex5n jettasports
license: 2
latitude: 1.43204
longitude: 103.799014
accuracy: 16
views: 66
interestingness: 163 out of 242

photo: 6433990643 078c62f665 7142
owner: 21203533@N00
title: DSC27471, Hearst Castle, San Simeon, California, USA
originalsecret: 303b011e4c
originalformat: jpg
o_height: 3648
o_width: 2736
datetaken: 2009-04-13 10:27:20
dateupload: 1322704905
tags: castle sansimeon williamrandolphhearst hearstcastle juliamorgan morgan hearst simeon casagrande williamhearst georgehearst
license: 4
latitude: 35.68557
longitude: -121.167799
accuracy: 16
views: 13
interestingness: 164 out of 242

photo: 6433990325 9bb6305e85 7146
owner: 21203533@N00
title: DSC27455, Hearst Castle, San Simeon, California, USA
originalsecret: 9ae2f6a16b
originalformat: jpg
o_height: 2736
o_width: 3648
datetaken: 2009-04-13 10:20:07
dateupload: 1322704900
tags: castle sansimeon williamrandolphhearst hearstcastle juliamorgan morgan hearst simeon casagrande williamhearst georgehearst
license: 4
latitude: 35.68557
longitude: -121.167799
accuracy: 16
views: 12
interestingness: 165 out of 242

photo: 6433990083 dddc889e4f 7013
owner: 21203533@N00
title: DSC27413, Hearst Castle, San Simeon, California, USA
originalsecret: e22e5a090c
originalformat: jpg
o_height: 2736
o_width: 3648
datetaken: 2009-04-13 10:00:09
dateupload: 1322704896
tags: castle sansimeon williamrandolphhearst hearstcastle juliamorgan morgan hearst simeon casagrande williamhearst georgehearst
license: 4
latitude: 35.68557
longitude: -121.167799
accuracy: 16
views: 13
interestingness: 166 out of 242

photo: 6433989837 24877af020 7174
owner: 21203533@N00
title: DSC27394, Hearst Castle, San Simeon, California, USA
originalsecret: c740976057
originalformat: jpg
o_height: 2736
o_width: 3648
datetaken: 2009-04-13 09:52:17
dateupload: 1322704892
tags: castle sansimeon williamrandolphhearst hearstcastle juliamorgan morgan hearst simeon casagrande williamhearst georgehearst
license: 4
latitude: 35.68557
longitude: -121.167799
accuracy: 16
views: 12
interestingness: 167 out of 242

photo: 6433845275 b794eac3e3 7026
owner: 31203742@N00
title: Black Friday
originalsecret: ee648c32a3
originalformat: jpg
o_height: 664
o_width: 1000
datetaken: 2011-11-25 09:12:37
dateupload: 1322702752
tags: ice canadianpacific franklinpark sd402
license: 0
latitude: 41.934848
longitude: -87.86127
accuracy: 16
views: 17
interestingness: 168 out of 242

photo: 6433839145 899b8381fa 7023
owner: 15459166@N00
title: B&B
originalsecret: 6e49b155fa
originalformat: jpg
o_height: 2775
o_width: 4154
datetaken: 2010-07-08 12:04:56
dateupload: 1322702665
tags: flowers italy window lady breakfast bed little watching elderly frame hostess grip wrinkle trieste grasp pinnie
license: 0
latitude: 45.639511
longitude: 13.7761
accuracy: 11
views: 6
interestingness: 169 out of 242

photo: 6433742125 492e454179 7173
owner: 72098626@N00
title: Central Park Dance Skaters, Oct 2011 - 15
originalsecret: 41a3582004
originalformat: jpg
o_height: 2801
o_width: 4201
datetaken: 2011-10-23 15:26:58
dateupload: 1322701227
tags: newyork dancers mayor centralpark manhattan skate beret centralparkdanceskaters themayor danceskaters
license: 1
latitude: 40.773277
longitude: -73.971356
accuracy: 16
views: 19
interestingness: 170 out of 242

photo: 6433734899 d16df83274 7007
owner: 72098626@N00
title: Central Park Dance Skaters, Oct 2011 - 13
originalsecret: e658419ddd
originalformat: jpg
o_height: 2810
o_width: 4215
datetaken: 2011-10-23 15:24:11
dateupload: 1322701120
tags: newyork sunglasses scarf couple dancers dancing centralpark manhattan skate centralparkdanceskaters danceskaters
license: 1
latitude: 40.773277
longitude: -73.971356
accuracy: 16
views: 43
interestingness: 171 out of 242

photo: 6433724843 40eabba012 7019
owner: 72098626@N00
title: Central Park Dance Skaters, Oct 2011 - 11
originalsecret: 14416ee88c
originalformat: jpg
o_height: 4928
o_width: 3264
datetaken: 2011-10-23 15:19:53
dateupload: 1322700963
tags: newyork sunglasses dancers centralpark manhattan skate yellowshirt centralparkdanceskaters yellowclothes danceskaters
license: 1
latitude: 40.773277
longitude: -73.971356
accuracy: 16
views: 19
interestingness: 172 out of 242

photo: 6433702145 1f3c502b60 7023
owner: 51100442@N08
title: What!?
originalsecret: 4d064d5168
originalformat: jpg
o_height: 1067
o_width: 1600
datetaken: 2011-11-30 19:48:44
dateupload: 1322700608
tags: 2 home strange canon lights funny ipod mark tripod taylor 5d swift taylorswift
license: 0
latitude: 42.450318
longitude: -83.938722
accuracy: 16
views: 6
interestingness: 173 out of 242

photo: 6433686767 f4b6f2414a 7165
owner: 13281029@N00
title: Crazy Little Thing Called Love
originalsecret: a2f10cd9a2
originalformat: jpg
o_height: 1734
o_width: 2602
datetaken: 2011-11-30 18:32:18
dateupload: 1322700389
tags: selfpic msh1111 msh11111
license: 1
latitude: 29.884448
longitude: -97.945497
accuracy: 14
views: 2
interestingness: 174 out of 242

photo: 6436896705 0aea62b13f 7021
owner: 8283610@N08
title: China Cargo Boeing 777-200F at 35,000 Feet, Operating CKK221 from ZSPD-KLAX, Reg. B-2079
originalsecret: null
originalformat: null
o_height: null
o_width: null
datetaken: 2011-12-01 08:28:55
dateupload: 1322757143
tags: contrail contrails 777 b777 777200f b2079 chinacargoboeing777200f
license: 0
latitude: 38.510978
longitude: -122.804992
accuracy: 1
views: 11
interestingness: 175 out of 242

photo: 6436764217 e9a3f61a91 7021
owner: 7630637@N02
title: Day 334 / 11.30.11
originalsecret: 63a769855d
originalformat: jpg
o_height: 2670
o_width: 3931
datetaken: 2011-11-30 20:05:44
dateupload: 1322755369
tags: 
license: 0
latitude: 39.326629
longitude: -116.858262
accuracy: 16
views: 54
interestingness: 176 out of 242

photo: 6435528813 2a1864d165 7001
owner: 24568808@N04
title: Jamiroquai - Lyon, le 30/11/2011
originalsecret: 4525d514b9
originalformat: jpg
o_height: 960
o_width: 1280
datetaken: 2011-11-30 21:34:06
dateupload: 1322733501
tags: concert lyon jamiroquai halle jaykay tonygarnier spacecowboy littlel 69000
license: 0
latitude: 45.731467
longitude: 4.824886
accuracy: 14
views: 18
interestingness: 177 out of 242

photo: 6435528267 0d26b3cdc3 7149
owner: 24568808@N04
title: Jamiroquai - Lyon, le 30/11/2011
originalsecret: 89c64902c4
originalformat: jpg
o_height: 704
o_width: 1280
datetaken: 2011-11-30 21:33:30
dateupload: 1322733487
tags: concert lyon jamiroquai halle jaykay tonygarnier spacecowboy littlel 69000
license: 0
latitude: 45.731467
longitude: 4.824886
accuracy: 14
views: 15
interestingness: 178 out of 242

photo: 6435527839 03800171b5 7159
owner: 24568808@N04
title: Jamiroquai - Lyon, le 30/11/2011
originalsecret: 3246d64a94
originalformat: jpg
o_height: 960
o_width: 1280
datetaken: 2011-11-30 21:32:15
dateupload: 1322733476
tags: concert lyon jamiroquai halle jaykay tonygarnier spacecowboy littlel 69000
license: 0
latitude: 45.731467
longitude: 4.824886
accuracy: 14
views: 18
interestingness: 179 out of 242

photo: 6434597947 12ab438f4c 7172
owner: 81249623@N00
title: Painted Desert AZ
originalsecret: 51ba1a182f
originalformat: jpg
o_height: 1098
o_width: 1600
datetaken: 2011-11-20 12:47:52
dateupload: 1322713814
tags: arizona horse southwest america travels scenery roadtrip painteddesert 2011
license: 3
latitude: 35.294671
longitude: -110.063695
accuracy: 12
views: 25
interestingness: 180 out of 242

photo: 6433886835 213c72ea9f 7024
owner: 41665184@N08
title: first roll(s) of Ikonta brothers
originalsecret: 856c846f32
originalformat: jpg
o_height: 2048
o_width: 2797
datetaken: 2011-11-28 16:39:34
dateupload: 1322703357
tags: kobe 6x45 kodakektar100 zeissikonikonta520
license: 0
latitude: 34.648655
longitude: 135.113003
accuracy: 15
views: 14
interestingness: 181 out of 242

photo: 6433882995 853b713448 7164
owner: 41665184@N08
title: first roll(s) of Ikonta brothers
originalsecret: fe35c4a1f2
originalformat: jpg
o_height: 2797
o_width: 2048
datetaken: 2011-11-30 23:32:00
dateupload: 1322703304
tags: kobe 6x45 kodakektar100 zeissikonikonta520
license: 0
latitude: 34.648655
longitude: 135.113003
accuracy: 15
views: 13
interestingness: 182 out of 242

photo: 6433850907 8c25a66c29 7158
owner: 25895994@N04
title: Sister Cherie
originalsecret: null
originalformat: null
o_height: null
o_width: null
datetaken: 2011-11-30 12:01:23
dateupload: 1322702832
tags: 
license: 0
latitude: 45.520229
longitude: -122.650251
accuracy: 16
views: 21
interestingness: 183 out of 242

photo: 6433706755 920661c3a5 7025
owner: 50878086@N03
title: Pescador / Fisherman
originalsecret: null
originalformat: null
o_height: null
o_width: null
datetaken: 2011-11-29 10:29:20
dateupload: 1322700676
tags: 
license: 0
latitude: 40.571653
longitude: -8.514919
accuracy: 16
views: 14
interestingness: 184 out of 242

photo: 6437144499 bd5f08b234 7146
owner: 35715961@N08
title: River Hipper - towards Lordsmill Street - debris offer !
originalsecret: null
originalformat: null
o_height: null
o_width: null
datetaken: 2011-11-26 13:38:37
dateupload: 1322760444
tags: waterfall dam derbyshire debris ladder chesterfield riverhipper riverhipperselectionqueensparktoriverrother
license: 0
latitude: 53.231317
longitude: -1.423888
accuracy: 14
views: 1
interestingness: 185 out of 242

photo: 6436415075 2ef73cca88 7154
owner: 7759425@N07
title: Advent Calender! (ADAD 2011:334)
originalsecret: 7cac1fbca7
originalformat: jpg
o_height: 2498
o_width: 1899
datetaken: 2011-12-01 13:23:47
dateupload: 1322750451
tags: blythe mrmen littlemiss mbf adventcalender
license: 0
latitude: 57.597759
longitude: -3.626432
accuracy: 14
views: 8
interestingness: 186 out of 242

photo: 6435427891 98eb963631 7164
owner: 90425101@N00
title: Dec 1st - LEGO Star Wars Advent Calendar 2011
originalsecret: 8d11b732df
originalformat: jpg
o_height: 2736
o_width: 3648
datetaken: 2011-12-01 09:05:08
dateupload: 1322731024
tags: starwars advent lego 1stdec day1
license: 2
latitude: 52.408479
longitude: -1.600946
accuracy: 16
views: 99
interestingness: 187 out of 242

photo: 6434871845 de3fdc13d3 7002
owner: 59989559@N03
title: Leonard's_Dodge-070d
originalsecret: 27e699ef59
originalformat: jpg
o_height: 2238
o_width: 3027
datetaken: 2011-11-30 16:11:19
dateupload: 1322718546
tags: winter truck nikon streetscene dodge hdr westyellowstone nikond40x
license: 0
latitude: 44.655695
longitude: -111.101941
accuracy: 16
views: 33
interestingness: 188 out of 242

photo: 6434726753 6811f5b66a 7145
owner: 9914689@N02
title: Capellini. I like every little detail, indulge myself in stylish lifestyle
originalsecret: null
originalformat: null
o_height: null
o_width: null
datetaken: 2011-11-30 21:04:07
dateupload: 1322715847
tags: square cafe kubrick ku amaro capellini iphoneography instagramapp
license: 0
latitude: 22.310736
longitude: 114.168956
accuracy: 16
views: 2
interestingness: 189 out of 242

photo: 6434314949 ee9f28aec2 7164
owner: 57048124@N02
title: 
originalsecret: feb7aa8104
originalformat: jpg
o_height: 3456
o_width: 5184
datetaken: 2011-11-30 14:44:08
dateupload: 1322709685
tags: station boston train t stop 365 boylstonstreet littlebuilding
license: 0
latitude: 42.35245
longitude: -71.06458
accuracy: 16
views: 51
interestingness: 190 out of 242

photo: 6433857179 e197a0425f 7003
owner: 68741939@N05
title: IMG_1653
originalsecret: null
originalformat: null
o_height: null
o_width: null
datetaken: 2011-10-29 18:28:03
dateupload: 1322702924
tags: 
license: 0
latitude: 42.972061
longitude: -81.252661
accuracy: 16
views: 4
interestingness: 191 out of 242

photo: 6433739041 5a775e9e9c 7005
owner: 72098626@N00
title: Central Park Dance Skaters, Oct 2011 - 14
originalsecret: 540197190c
originalformat: jpg
o_height: 4431
o_width: 2795
datetaken: 2011-10-23 15:25:40
dateupload: 1322701181
tags: newyork sunglasses dancers centralpark manhattan skate centralparkdanceskaters danceskaters
license: 1
latitude: 40.773277
longitude: -73.971356
accuracy: 16
views: 18
interestingness: 192 out of 242

photo: 6433730873 42f97a7698 7006
owner: 72098626@N00
title: Central Park Dance Skaters, Oct 2011 - 12
originalsecret: 3951b8671f
originalformat: jpg
o_height: 4928
o_width: 3264
datetaken: 2011-10-23 15:22:43
dateupload: 1322701055
tags: newyork dancers centralpark manhattan helmet skate centralparkdanceskaters danceskaters
license: 1
latitude: 40.773277
longitude: -73.971356
accuracy: 16
views: 26
interestingness: 193 out of 242

photo: 6437081123 f289e2590e 7009
owner: 63339095@N05
title: North American River Otters
originalsecret: e9f540e130
originalformat: jpg
o_height: 2455
o_width: 3682
datetaken: 2011-12-01 09:30:27
dateupload: 1322759607
tags: nature florida otter winterpark riverotter northamericanriverotter meadgardens
license: 3
latitude: 28.584257
longitude: -81.35819
accuracy: 15
views: 12
interestingness: 194 out of 242

photo: 6437046495 ca05d2418d 7021
owner: 92732938@N00
title: Squirrel does a little fine tuning to the camera.
originalsecret: e8a54bfaa0
originalformat: jpg
o_height: 612
o_width: 612
datetaken: 2011-12-01 09:05:42
dateupload: 1322759142
tags: square squareformat amaro iphoneography instagramapp uploaded:by=instagram foursquare:venue=4b7e4a51f964a5207fe82fe3
license: 0
latitude: 32.709687
longitude: -117.231968
accuracy: 16
views: 0
interestingness: 195 out of 242

photo: 6436134743 1e9094a823 7021
owner: 57751235@N06
title: Little India, Singapore
originalsecret: null
originalformat: null
o_height: null
o_width: null
datetaken: 2011-11-01 00:00:00
dateupload: 1322745978
tags: film singapore fujifilm 135 littleindia neopan400 olympusxa2
license: 2
latitude: 1.306476
longitude: 103.851941
accuracy: 16
views: 6
interestingness: 196 out of 242

photo: 6435848417 3400624e95 7027
owner: 8108294@N05
title: Dwarf deciduous bamboo 060111-4516
originalsecret: 586c6544ef
originalformat: jpg
o_height: 1365
o_width: 2048
datetaken: 2006-01-11 12:38:08
dateupload: 1322740575
tags: thailand poaceae khonkaen bamboos gramineae bambuseae phuwiang
license: 1
latitude: 16.68561
longitude: 102.230358
accuracy: 12
views: 2
interestingness: 197 out of 242

photo: 6435847855 109d690214 7157
owner: 8108294@N05
title: Dwarf deciduous bamboo 060111-4497
originalsecret: 5298d6b3e1
originalformat: jpg
o_height: 1365
o_width: 2048
datetaken: 2006-01-11 12:24:54
dateupload: 1322740563
tags: thailand poaceae khonkaen bamboos gramineae bambuseae phuwiang
license: 1
latitude: 16.68561
longitude: 102.230358
accuracy: 12
views: 2
interestingness: 198 out of 242

photo: 6435847541 1da32ea7a7 7007
owner: 8108294@N05
title: Dwarf deciduous bamboo 060111-4496
originalsecret: 000eb1d166
originalformat: jpg
o_height: 1365
o_width: 2048
datetaken: 2006-01-11 12:24:12
dateupload: 1322740556
tags: thailand poaceae khonkaen bamboos gramineae bambuseae phuwiang
license: 1
latitude: 16.68561
longitude: 102.230358
accuracy: 12
views: 1
interestingness: 199 out of 242

photo: 6435847099 eaf0bc6e5c 7153
owner: 8108294@N05
title: Dwarf deciduous bamboo 060111-4495
originalsecret: 2337aa7030
originalformat: jpg
o_height: 1365
o_width: 2048
datetaken: 2006-01-11 12:23:55
dateupload: 1322740546
tags: thailand poaceae khonkaen bamboos gramineae bambuseae phuwiang
license: 1
latitude: 16.68561
longitude: 102.230358
accuracy: 12
views: 1
interestingness: 200 out of 242

photo: 6435846901 abfbde7f83 7001
owner: 8108294@N05
title: Dwarf deciduous bamboo 060111-4494
originalsecret: d4b0e3fc01
originalformat: jpg
o_height: 3072
o_width: 2048
datetaken: 2006-01-11 12:22:48
dateupload: 1322740542
tags: thailand poaceae khonkaen bamboos gramineae bambuseae phuwiang
license: 1
latitude: 16.68561
longitude: 102.230358
accuracy: 12
views: 1
interestingness: 201 out of 242

photo: 6435846505 982f23fc5f 7031
owner: 8108294@N05
title: Dwarf deciduous bamboo 060111-4493
originalsecret: 08ba82db6d
originalformat: jpg
o_height: 2048
o_width: 1365
datetaken: 2006-01-11 12:21:38
dateupload: 1322740532
tags: thailand poaceae khonkaen bamboos gramineae bambuseae phuwiang
license: 1
latitude: 16.68561
longitude: 102.230358
accuracy: 12
views: 1
interestingness: 202 out of 242

photo: 6435080819 2ffb050165 7142
owner: 8432336@N08
title: Cadillac Mountain
originalsecret: 1b176a678c
originalformat: jpg
o_height: 1200
o_width: 1600
datetaken: 2010-08-13 13:54:22
dateupload: 1322722900
tags: maine summervacation 2010 cadillacmountain acadianationalpark mountdesertisle cadillacmountaintrail
license: 0
latitude: 44.35484
longitude: -68.219711
accuracy: 16
views: 5
interestingness: 203 out of 242

photo: 6434498631 4370233671 7015
owner: 57713841@N02
title: A little Christmas cheer around the Complex
originalsecret: null
originalformat: null
o_height: null
o_width: null
datetaken: 2011-11-30 20:06:06
dateupload: 1322712366
tags: square squareformat hefe iphoneography instagramapp uploaded:by=instagram foursquare:venue=4dbd91131e72b351cacd22c1
license: 0
latitude: 47.604491
longitude: -122.309975
accuracy: 16
views: 0
interestingness: 204 out of 242

photo: 6434459317 13b127e88e 7030
owner: 83795895@N00
title: Found a little piece of @StoneBrewingCo in rural Pennsylvania. Awesomeness!
originalsecret: af68d56d92
originalformat: jpg
o_height: 612
o_width: 612
datetaken: 2011-11-30 19:56:15
dateupload: 1322711775
tags: valencia square squareformat iphoneography instagramapp uploaded:by=instagram foursquare:venue=4dc6e68352b1e8f9f7f86647
license: 0
latitude: 40.515907
longitude: -75.523857
accuracy: 16
views: 0
interestingness: 205 out of 242

photo: 6434279383 2047958fdd 7168
owner: 24414018@N05
title: After dinner
originalsecret: 197269936c
originalformat: jpg
o_height: 2304
o_width: 3072
datetaken: 2011-07-17 05:11:35
dateupload: 1322709158
tags: belize homestays stanncreekdistrict mayacentre
license: 0
latitude: 16.868619
longitude: -88.378143
accuracy: 10
views: 3
interestingness: 206 out of 242

photo: 6433746267 f70c548c7a 7026
owner: 72098626@N00
title: Central Park Dance Skaters, Oct 2011 - 16
originalsecret: 0f6f3df13d
originalformat: jpg
o_height: 2711
o_width: 4067
datetaken: 2011-10-23 15:27:50
dateupload: 1322701287
tags: newyork dancers centralpark manhattan skate centralparkdanceskaters danceskaters
license: 1
latitude: 40.773277
longitude: -73.971356
accuracy: 16
views: 27
interestingness: 207 out of 242

photo: 6435902411 7113e0d170 7021
owner: 35337195@N00
title: O Little Town of Bethlehem
originalsecret: a9f90dcccc
originalformat: jpg
o_height: 612
o_width: 612
datetaken: 2011-12-01 12:14:45
dateupload: 1322741685
tags: square squareformat rise iphoneography instagramapp uploaded:by=instagram
license: 1
latitude: 51.39869
longitude: 0.495555
accuracy: 16
views: 12
interestingness: 208 out of 242

photo: 6435614749 ce665f7986 7009
owner: 63453516@N06
title: Little Crab, Venus Bay
originalsecret: null
originalformat: null
o_height: null
o_width: null
datetaken: 2011-12-01 13:18:35
dateupload: 1322735670
tags: bay venus crab australia victoria vbop
license: 0
latitude: -38.649723
longitude: 145.765228
accuracy: 11
views: 10
interestingness: 209 out of 242

photo: 6434459289 795fff1de5 7001
owner: 50924506@N08
title: Wot, no Rudolphs?
originalsecret: 1ee1345238
originalformat: jpg
o_height: 720
o_width: 574
datetaken: 2011-11-30 22:26:39
dateupload: 1322711775
tags: 
license: 0
latitude: 13.303372
longitude: 100.900046
accuracy: 14
views: 3
interestingness: 210 out of 242

photo: 6434331687 8e9f421248 7025
owner: 71047115@N05
title: Axel
originalsecret: null
originalformat: null
o_height: null
o_width: null
datetaken: 2011-11-24 17:10:12
dateupload: 1322709939
tags: 
license: 0
latitude: -34.170482
longitude: -58.960533
accuracy: 12
views: 9
interestingness: 211 out of 242

photo: 6434175377 2356e6e15d 7151
owner: 94528619@N00
title: Meditation For Little People.  #childrensbooks #illustration
originalsecret: null
originalformat: null
o_height: null
o_width: null
datetaken: 2011-11-30 18:45:48
dateupload: 1322707548
tags: square squareformat sutro iphoneography instagramapp uploaded:by=instagram
license: 0
latitude: 45.49667
longitude: -122.6303
accuracy: 16
views: 9
interestingness: 212 out of 242

photo: 6435317195 97d87f2dd4 7017
owner: 50989885@N04
title: Down in the autumn leaves
originalsecret: null
originalformat: null
o_height: null
o_width: null
datetaken: 2011-11-30 11:50:33
dateupload: 1322728282
tags: november autumn trees woods hannah daughter blonde
license: 0
latitude: 51.804209
longitude: -0.583391
accuracy: 13
views: 10
interestingness: 213 out of 242

photo: 6434727087 7925f673e2 7007
owner: 37118157@N00
title: Georgetown - Mango Lassi
originalsecret: null
originalformat: null
o_height: null
o_width: null
datetaken: 2011-12-01 11:58:37
dateupload: 1322715853
tags: georgetown mango malaysia penang
license: 0
latitude: 5.4175
longitude: 100.340833
accuracy: 16
views: 30
interestingness: 214 out of 242

photo: 6433737267 28ce88ac8d 7157
owner: 22224184@N00
title: Comic Land
originalsecret: 3d835572b5
originalformat: jpg
o_height: 2304
o_width: 3072
datetaken: 2011-11-04 12:49:41
dateupload: 1322701154
tags: orlando florida universalstudios islandsofadventure comicland
license: 0
latitude: 28.469625
longitude: -81.471589
accuracy: 16
views: 3
interestingness: 215 out of 242

photo: 6433550081 d2ba08e9f2 7162
owner: 70365083@N05
title: Little Church in Square
originalsecret: null
originalformat: null
o_height: null
o_width: null
datetaken: 2011-08-09 21:28:24
dateupload: 1322698330
tags: barcelona church spain barceloneta 2011
license: 0
latitude: 41.379674
longitude: 2.186729
accuracy: 14
views: 0
interestingness: 216 out of 242

photo: 6437002371 10571ea275 7001
owner: 8970099@N04
title: Matt a little worse for wear after the night
originalsecret: af9814f996
originalformat: jpg
o_height: 604
o_width: 900
datetaken: 1996-06-01 00:00:00
dateupload: 1322758527
tags: matt university leamington warwick
license: 3
latitude: 52.280558
longitude: -1.509622
accuracy: 16
views: 0
interestingness: 217 out of 242

photo: 6436936917 2e9d68948a 7031
owner: 31160848@N06
title: Playing with my new Sony a65 and 2.8 lens
originalsecret: 0fc2a9b89a
originalformat: jpg
o_height: 4000
o_width: 6000
datetaken: 2011-11-28 21:53:41
dateupload: 1322757669
tags: 28 mylittlepony pinkiepie sonya65
license: 0
latitude: 40.604425
longitude: -74.117342
accuracy: 16
views: 34
interestingness: 218 out of 242

photo: 6436818599 e236a01e7b 7172
owner: 26502668@N08
title: #copsinbikelanes nuff said #bikenyc
originalsecret: null
originalformat: null
o_height: null
o_width: null
datetaken: 2011-12-01 11:15:07
dateupload: 1322756107
tags: mobile random snapshots littlediddys
license: 0
latitude: 40.699733
longitude: -73.98117
accuracy: 16
views: 43
interestingness: 219 out of 242

photo: 6436593557 f90887091e 7001
owner: 68387027@N03
title: Ryan Albert - RYNO
originalsecret: 00bd45131f
originalformat: jpg
o_height: 600
o_width: 400
datetaken: 2011-12-01 07:24:42
dateupload: 1322753082
tags: photoshop baseball littleleague nikond200
license: 0
latitude: 32.734223
longitude: -117.067909
accuracy: 15
views: 7
interestingness: 220 out of 242

photo: 6436580747 2c53de9931 7010
owner: 64314700@N08
title: Skillie on the water
originalsecret: null
originalformat: null
o_height: null
o_width: null
datetaken: 2010-02-28 15:53:55
dateupload: 1322752884
tags: orange water swimming minimalism
license: 0
latitude: -29.123373
longitude: 25.290527
accuracy: 6
views: 0
interestingness: 221 out of 242

photo: 6435838985 49116847d9 7011
owner: 83311527@N00
title: Waves along Little and Broad Haven shore
originalsecret: 25fdc7f45b
originalformat: jpg
o_height: 2474
o_width: 3697
datetaken: 2011-03-22 00:00:01
dateupload: 1322740375
tags: 22 march d200 20110
license: 0
latitude: 51.774372
longitude: -5.107097
accuracy: 13
views: 0
interestingness: 222 out of 242

photo: 6435835559 1d2bff00c7 7025
owner: 83311527@N00
title: Little Haven, Pembrokeshire
originalsecret: 092fbd0ff8
originalformat: jpg
o_height: 2592
o_width: 3872
datetaken: 2011-03-22 00:00:00
dateupload: 1322740306
tags: 22 march d200 2011
license: 0
latitude: 51.774877
longitude: -5.107011
accuracy: 13
views: 0
interestingness: 223 out of 242

photo: 6434281953 3784ee3021 7174
owner: 24414018@N05
title: Pop's house from the road
originalsecret: 8014468e92
originalformat: jpg
o_height: 2304
o_width: 3072
datetaken: 2011-07-17 20:37:20
dateupload: 1322709197
tags: belize homestays stanncreekdistrict mayacentre
license: 0
latitude: 16.868619
longitude: -88.378143
accuracy: 10
views: 3
interestingness: 224 out of 242

photo: 6434280693 7b080f15e1 7165
owner: 24414018@N05
title: View from awake in bed
originalsecret: 7dac96a74e
originalformat: jpg
o_height: 2304
o_width: 3072
datetaken: 2011-07-17 05:30:15
dateupload: 1322709178
tags: belize homestays stanncreekdistrict mayacentre
license: 0
latitude: 16.868619
longitude: -88.378143
accuracy: 10
views: 2
interestingness: 225 out of 242

photo: 6434280025 4a103ebaf9 7172
owner: 21374845@N08
title: Raft Ride
originalsecret: e4a1f54520
originalformat: jpg
o_height: 640
o_width: 960
datetaken: 2011-09-17 17:05:00
dateupload: 1322709168
tags: grandcanyon coloradoriver maricopapoint hermitrapids
license: 0
latitude: 36.07175
longitude: -112.16608
accuracy: 16
views: 4
interestingness: 226 out of 242

photo: 6435653475 cc40c35a54 7153
owner: 69168989@N05
title: lost little lady
originalsecret: null
originalformat: null
o_height: null
o_width: null
datetaken: 2011-11-26 22:01:24
dateupload: 1322736542
tags: sexy stockings hair breasts teddy stripey bows neitie
license: 0
latitude: 53.471802
longitude: -2.227821
accuracy: 11
views: 58
interestingness: 227 out of 242

photo: 6435485973 e5b3f9b0ea 7167
owner: 25073901@N07
title: 47844 Crewe Works 30.05.03
originalsecret: null
originalformat: null
o_height: null
o_width: null
datetaken: 2003-05-30 17:06:36
dateupload: 1322732438
tags: 
license: 0
latitude: 53.100388
longitude: -2.462053
accuracy: 13
views: 46
interestingness: 228 out of 242

photo: 6434927811 970173d201 7143
owner: 49959666@N04
title: Grey squirrel - Perth Scotland
originalsecret: d7c81e9009
originalformat: jpg
o_height: 1024
o_width: 1536
datetaken: 2011-11-24 12:05:17
dateupload: 1322719661
tags: nature outdoors squirrel
license: 0
latitude: 56.42374
longitude: -3.468718
accuracy: 14
views: 22
interestingness: 229 out of 242

photo: 6434927503 b6b2cd6a47 7025
owner: 49959666@N04
title: Grey squirrel - Perth Scotland
originalsecret: 92d737c52a
originalformat: jpg
o_height: 1024
o_width: 861
datetaken: 2011-11-24 11:34:02
dateupload: 1322719655
tags: nature outdoors squirrel
license: 0
latitude: 56.423657
longitude: -3.468718
accuracy: 14
views: 26
interestingness: 230 out of 242

