
mintime: 1322697600 maxtime: 1322755185.23
numimgs: 261
total pages: 2
visiting only 2 pages ( up to 500 images)
photo: 6435614991 85f134b9aa 7034
owner: 22437135@N07
title: The break
originalsecret: null
originalformat: null
o_height: null
o_width: null
datetaken: 2011-11-16 10:28:11
dateupload: 1322735676
tags: trees mist france tree fall automne way landscape nikon europe camino bretagne arbres promenade foret brouillard ballade chemin brume matin myst d90 broceliande paimpont plelan beignon foretdebroceliande tremelin monfortsurmeu mygearandme artistoftheyearlevel2 musictomyeyeslevel1 philippemanguin etangdetremelin
license: 0
latitude: 48.093884
longitude: -2.025947
accuracy: 11
views: 337
interestingness: 1 out of 261

photo: 6433941311 e8478a8280 7016
owner: 45206566@N05
title: Fantasy 173 - My version of  "Starry Night".  A tribute to Vincent van Gogh
originalsecret: a7c261f06d
originalformat: jpg
o_height: 1600
o_width: 1280
datetaken: 2011-11-30 23:38:37
dateupload: 1322704198
tags: art love photoshop digitalart photomontage tribute saariysqualitypictures phhotoart
license: 0
latitude: -23.657575
longitude: -46.706199
accuracy: 13
views: 316
interestingness: 2 out of 261

photo: 6433559403 8ec2251135 7010
owner: 39656565@N06
title: Bakantiang Beach, Koh Lanta Yai, Krabi, Thailand # 1
originalsecret: null
originalformat: null
o_height: null
o_width: null
datetaken: 2011-11-17 18:53:03
dateupload: 1322698489
tags: thailand ko koh lanta hdr krabi bakantiangbeach
license: 0
latitude: 7.481006
longitude: 99.08904
accuracy: 14
views: 270
interestingness: 3 out of 261

photo: 6435786143 bf0196959b 7167
owner: 56444370@N07
title: Its Burning!
originalsecret: df3f82cd46
originalformat: jpg
o_height: 930
o_width: 1400
datetaken: 2011-12-01 14:34:53
dateupload: 1322739293
tags: wood old sea green love colors its port lens boat photo wooden nice nikon with very you great royal burning u falcon kuwait lovely miss 18200 hdr doha shah hussain d300 shahbaz
license: 0
latitude: 29.31015
longitude: 47.494449
accuracy: 2
views: 350
interestingness: 4 out of 261

photo: 6435388517 8955d962ec 7148
owner: 64881935@N06
title: The red fence
originalsecret: 0de033879f
originalformat: jpg
o_height: 667
o_width: 1000
datetaken: 2011-10-14 11:15:54
dateupload: 1322730075
tags: red metal canon fence reading dof bokeh depthoffield berkshire hff canon5dmkii 5dmkii fencefriday
license: 0
latitude: 51.456805
longitude: -0.967368
accuracy: 16
views: 322
interestingness: 5 out of 261

photo: 6434660773 b163db9220 7034
owner: 46005412@N05
title: The Winter Awaits
originalsecret: 8222115528
originalformat: jpg
o_height: 1808
o_width: 1200
datetaken: 2011-11-30 15:36:42
dateupload: 1322715599
tags: ny newyork longisland fisheye hdr sandspoint handheldhdr sandspointpreserve bower8mmfisheye
license: 0
latitude: 40.863724
longitude: -73.698788
accuracy: 16
views: 137
interestingness: 6 out of 261

photo: 6435662567 a84968b696 7161
owner: 64376451@N05
title: Moments partag?s.
originalsecret: null
originalformat: null
o_height: null
o_width: null
datetaken: 2011-11-30 15:08:36
dateupload: 1322736731
tags: street people blackandwhite paris love monochrome stairs couple snapshot streetlife lovers
license: 0
latitude: 48.850866
longitude: 2.33397
accuracy: 16
views: 99
interestingness: 7 out of 261

photo: 6435996581 5e17b94110 7029
owner: 24763952@N08
title: Heavenly
originalsecret: null
originalformat: null
o_height: null
o_width: null
datetaken: 2011-12-01 06:01:01
dateupload: 1322743524
tags: sun green nature leaves lens 50mm nikon bokeh malaysia russian 58mm swirly aisha helios sunflare dalila f20 d7000 aishadalila
license: 0
latitude: 3.095839
longitude: 101.646797
accuracy: 11
views: 234
interestingness: 8 out of 261

photo: 6435593419 3b251b6918 7001
owner: 57210431@N02
title: BARCA ALMACEN
originalsecret: 8a9948abaf
originalformat: jpg
o_height: 3400
o_width: 4362
datetaken: 2011-11-26 14:31:17
dateupload: 1322735162
tags: flickrstruereflection1
license: 0
latitude: 40.644828
longitude: 0.689048
accuracy: 11
views: 198
interestingness: 9 out of 261

photo: 6435252549 9bcc6d61d9 7160
owner: 48814374@N00
title: After the Game of Love :))
originalsecret: null
originalformat: null
o_height: null
o_width: null
datetaken: 2011-11-24 15:11:35
dateupload: 1322726809
tags: lighting light sunlight macro nature sunshine butterfly wings dof natural bokeh details insects yellowbutterfly backlighitng b??mb??m blinkagain
license: 0
latitude: 10.787653
longitude: 106.705924
accuracy: 15
views: 125
interestingness: 10 out of 261

photo: 6435756063 b81590da84 7012
owner: 36210834@N06
title: River of light
originalsecret: 35ec392a5c
originalformat: jpg
o_height: 2813
o_width: 4229
datetaken: 2011-02-25 18:25:27
dateupload: 1322738646
tags: city light night nikon exposure traffic osaka rays d3s
license: 0
latitude: 34.573157
longitude: 135.476016
accuracy: 13
views: 654
interestingness: 11 out of 261

photo: 6435382125 ee0d081188 7174
owner: 26982917@N02
title: Aston Martin, ONE-77, Central, Hong Kong
originalsecret: null
originalformat: null
o_height: null
o_width: null
datetaken: 2011-12-01 11:57:28
dateupload: 1322729913
tags: auto china cars car canon hongkong automobile style class 7d british autos limited rare automobiles sar astonmartin 38 admiralty handbuilt 18135mm worldcars one77 t12732
license: 0
latitude: 22.281491
longitude: 114.162433
accuracy: 15
views: 536
interestingness: 12 out of 261

photo: 6433678963 e734b0a21f 7024
owner: 7946579@N08
title: Secrets....
originalsecret: 397bab95e6
originalformat: jpg
o_height: 1585
o_width: 1824
datetaken: 2011-12-18 15:33:05
dateupload: 1322700280
tags: pink texture love rose flora creation
license: 0
latitude: 45.650775
longitude: 0.140891
accuracy: 15
views: 100
interestingness: 13 out of 261

photo: 6436406873 1cfb839d3c 7150
owner: 36704819@N08
title: Historical Vehicle
originalsecret: 3f23fa4d90
originalformat: jpg
o_height: 1000
o_width: 1500
datetaken: 2011-05-28 10:42:30
dateupload: 1322750329
tags: california wood trip usa car america canon geotagged eos us spring kay roadtrip carving vehicle historical oldtimer bone miranda amerika fr?hling staaten 2011 vereinigtestaaten vereinigte 9363 40d worldcars g?nsler gaensler wwwenslerde geo:lat=4023558667 geo:lon=12382440167
license: 1
latitude: 40.235586
longitude: -123.824401
accuracy: 16
views: 135
interestingness: 14 out of 261

photo: 6435951557 63e569d8b7 7163
owner: 21608855@N03
title: I am a boy
originalsecret: 6806d7017c
originalformat: jpg
o_height: 3264
o_width: 2448
datetaken: 2011-11-19 21:50:32
dateupload: 1322742673
tags: old red party portrait fashion hair ginger tv cd mini skirt transgender mature tranny transvestite heels nylon trannie mtf m2f feminized enfemme xdresser tgurl transsisters julieb85
license: 0
latitude: 51.99765
longitude: -0.713274
accuracy: 15
views: 651
interestingness: 15 out of 261

photo: 6435601931 b8a6faac64 7145
owner: 50070022@N08
title: Summertime sunset
originalsecret: 96c4772c24
originalformat: jpg
o_height: 2736
o_width: 3648
datetaken: 2011-06-16 21:28:23
dateupload: 1322735374
tags: trees sunset summer sky gate lancashire hedgerows longridge ribblevalley toplodge bestofblinkwinners blinkagainsuperstars
license: 0
latitude: 53.83824
longitude: -2.588953
accuracy: 15
views: 127
interestingness: 16 out of 261

photo: 6410775323 64c5347bd9 7026
owner: 48036003@N04
title: Lonely in the Dark
originalsecret: dbe135d4c4
originalformat: jpg
o_height: 3456
o_width: 5184
datetaken: 2011-11-24 13:41:14
dateupload: 1322738047
tags: black love me dark king alone heart you best lonely why k2i4n6g8
license: 0
latitude: 21.439697
longitude: 39.837616
accuracy: 16
views: 320
interestingness: 17 out of 261

photo: 6428235583 bec8463703 6055
owner: 25868826@N05
title: Sunset View in HDR
originalsecret: null
originalformat: null
o_height: null
o_width: null
datetaken: 2011-06-04 19:18:38
dateupload: 1322719191
tags: chicago buildings reflections landscapes illinois nikon midwest skyscrapers searstower cities cityscapes sunsets lakemichigan trumptower southloop hdr highdynamicrange pinoy downtownchicago johnhancockbuilding cookcounty chicagoskyline shedaquarium chicagoist cityskylines d90 puddlereflections wetreflections lowpov alderplanetarium handheldshot cityofchicago pseudohdr singlefilehdr solidaritydrive hdrimages aperturef110 iso159 perfectsunsetssunrisesandskys manualmodeexposure willistower setholiver1 1100secondexposure 1024mmtamronuwalens straightenedincamera urbanscspes
license: 0
latitude: 41.86678
longitude: -87.607308
accuracy: 16
views: 222
interestingness: 18 out of 261

photo: 6436256453 eaa24234f5 7170
owner: 15465898@N05
title: New Snow, Grand Tetons
originalsecret: 378a7aa5bd
originalformat: jpg
o_height: 576
o_width: 864
datetaken: 2011-10-10 08:47:23
dateupload: 1322748092
tags: newsnowgrandtetonnationalparkjacksonholewyomingbuckrailfencesagebrush grandtetonsblueskydaryllhunter
license: 0
latitude: 43.770187
longitude: -110.571212
accuracy: 16
views: 229
interestingness: 19 out of 261

photo: 6435448795 69672065e4 7143
owner: 41520324@N06
title: Cloud rising
originalsecret: null
originalformat: null
o_height: null
o_width: null
datetaken: 2010-05-24 17:08:30
dateupload: 1322731517
tags: trees sunset cloud mountain nature branch afternoon gangtok incredibleindia mygearandme
license: 0
latitude: 27.325262
longitude: 88.608169
accuracy: 11
views: 248
interestingness: 20 out of 261

photo: 6436015817 4473037e77 7020
owner: 35623598@N03
title: lovers under an autumn canopy (explored)
originalsecret: 4ed321bc8b
originalformat: jpg
o_height: 1685
o_width: 2515
datetaken: 2011-11-27 12:28:56
dateupload: 1322743879
tags: autumn orange fall love leaves walk korea lovers explore avenue southkorea wow2 treelinedavenue explored mygearandme mygearandmepremium mygearandmebronze mygearandmesilver mygearandmegold dblringexcellence
license: 0
latitude: 34.779407
longitude: 127.103576
accuracy: 9
views: 557
interestingness: 21 out of 261

photo: 6435476283 54e1fba31e 7172
owner: 63862131@N07
title: No reality
originalsecret: f9db611a7c
originalformat: png
o_height: 2692
o_width: 1872
datetaken: 2011-12-01 12:36:30
dateupload: 1322732190
tags: art photography sl similar boon fashio baiastice delmay costaricasims redpoly
license: 0
latitude: 59.952586
longitude: 30.314575
accuracy: 11
views: 133
interestingness: 22 out of 261

photo: 6436566443 5afdaef3f8 7157
owner: 53373444@N05
title: With Love....
originalsecret: null
originalformat: null
o_height: null
o_width: null
datetaken: 2011-11-29 21:26:12
dateupload: 1322752670
tags: birthday colour reflection lights book heart bokeh christmaslights celebration torch canon50mm
license: 0
latitude: 50.137198
longitude: -5.463198
accuracy: 16
views: 148
interestingness: 23 out of 261

photo: 6435838813 be30d4d212 7171
owner: 89555776@N00
title: Tickled pink. Or should I say red?
originalsecret: null
originalformat: null
o_height: null
o_width: null
datetaken: 2011-11-01 19:56:12
dateupload: 1322740851
tags: ocean sanfrancisco california sunset red waves pacific uglydoll bakerbeach wage goldengatesbridge toyintheframethursday htitft althoughthebakerbeachisanudebeachnotethatwagerefusedtotakeoffhisloincloth
license: 0
latitude: 37.779159
longitude: -122.420051
accuracy: 11
views: 99
interestingness: 24 out of 261

photo: 6433582499 3ea828a2bd 7165
owner: 39467669@N04
title: Manhattan To Queens
originalsecret: null
originalformat: null
o_height: null
o_width: null
datetaken: 2011-11-30 19:09:09
dateupload: 1322698854
tags: nyc newyorkcity panorama manhattan queens eastriver queensborobridge canon135mmf2l danlove
license: 0
latitude: 40.736689
longitude: -73.972978
accuracy: 13
views: 201
interestingness: 25 out of 261

photo: 6436230993 de3d91a0dd 7154
owner: 7835668@N04
title: Diamonds are Forever Explored 12/01/2011 #238
originalsecret: 2e737bc77d
originalformat: jpg
o_height: 2848
o_width: 4288
datetaken: 2011-11-21 06:15:33
dateupload: 1322747656
tags: portrait black dogs diamond spoo poodle daddysgirl standardpoodle
license: 0
latitude: 39.134903
longitude: -77.659907
accuracy: 15
views: 206
interestingness: 26 out of 261

photo: 3685674361 bc6ac063a5 2518
owner: 43285282@N00
title: World Financial Center
originalsecret: null
originalformat: null
o_height: null
o_width: null
datetaken: 2009-07-03 20:19:02
dateupload: 1322730004
tags: nyc newyork building manhattan july getty absolutwade 2009 batteryparkcity worldfinancialcenter bpc canoneos30d ?beauwade
license: 0
latitude: 40.71339
longitude: -74.016196
accuracy: 16
views: 269
interestingness: 27 out of 261

photo: 6433817603 d665d0d6d1 7158
owner: 34645744@N03
title: Distagon 50mm test
originalsecret: 5e70a2aba7
originalformat: jpg
o_height: 1993
o_width: 2000
datetaken: 2011-11-30 17:45:59
dateupload: 1322702337
tags: ocean sea seascape landscape mar puertorico paisaje oc?ano hasselblad500cm pi?ones distagon50mm lo?za bocadecangrejos finallysomezeissglass ilovemysinghrayreversendgrad thisisaseriouslysharpglass
license: 0
latitude: 18.460687
longitude: -65.991676
accuracy: 16
views: 144
interestingness: 28 out of 261

photo: 6430825095 7be2b67c6c 7020
owner: 46040323@N08
title: "Happiness resides not in posessions and not in gold; the feeling of happiness dwells in the soul." - Democritus
originalsecret: null
originalformat: null
o_height: null
o_width: null
datetaken: 2011-11-25 11:05:31
dateupload: 1322715599
tags: autumn nature squirrel dof bokeh wildlife sooc hs10 hs11
license: 0
latitude: 42.354262
longitude: -71.069998
accuracy: 15
views: 183
interestingness: 29 out of 261

photo: 6436172857 637ba76446 7034
owner: 35528040@N04
title: Motel Coolness
originalsecret: 056d12aac7
originalformat: jpg
o_height: 1791
o_width: 2697
datetaken: 2011-09-07 11:34:27
dateupload: 1322746655
tags: usa sign architecture america hotel us midwest neon lodging ks motel kansas smalltown toocool motorinn motorlodge pammorris pamspics overnightontheroad lakewaconda septemberroadtrip nikond5000 wacondamotel glenelderkansas
license: 1
latitude: 39.488939
longitude: -98.263092
accuracy: 11
views: 109
interestingness: 30 out of 261

photo: 6433705321 17596fc7b5 7018
owner: 60361763@N05
title: Feliz Navidad - Merry Christmas
originalsecret: null
originalformat: null
o_height: null
o_width: null
datetaken: 2011-11-29 00:35:43
dateupload: 1322700654
tags: 
license: 0
latitude: 38.878129
longitude: -6.969795
accuracy: 15
views: 127
interestingness: 31 out of 261

photo: 6433516835 184e925fbd 7028
owner: 85465967@N00
title: Birds...
originalsecret: 4105f80b16
originalformat: jpg
o_height: 2223
o_width: 3335
datetaken: 2011-10-29 15:18:15
dateupload: 1322697786
tags: birds ??????
license: 3
latitude: 41.101781
longitude: 24.179878
accuracy: 15
views: 149
interestingness: 32 out of 261

photo: 6435424551 a3d0f60c48 7022
owner: 27828335@N04
title: 
originalsecret: null
originalformat: null
o_height: null
o_width: null
datetaken: 2011-12-01 10:15:43
dateupload: 1322730943
tags: love film analog italia 28mm together da fatherandson insieme amore umbria lagotrasimeno pellicola canonat1 analogico padreefiglio sanfeliciano lorenzocherubini allalba giannimaroccolo fujicolorc200 raccontarti
license: 0
latitude: 43.123664
longitude: 12.166843
accuracy: 11
views: 91
interestingness: 33 out of 261

photo: 6435827625 b6d2b727c4 7028
owner: 40832502@N06
title: Flowers
originalsecret: null
originalformat: null
o_height: null
o_width: null
datetaken: 2011-11-20 15:15:25
dateupload: 1322740137
tags: flowers
license: 0
latitude: 44.416003
longitude: 7.413539
accuracy: 16
views: 130
interestingness: 34 out of 261

photo: 6434346453 7d2deeeb2a 7174
owner: 65788104@N08
title: Red Kite.
originalsecret: null
originalformat: null
o_height: null
o_width: null
datetaken: 2011-02-12 16:14:40
dateupload: 1322710141
tags: wales canon sigma redkite milvusmilvus gigrinfarm theredkites
license: 0
latitude: 52.302705
longitude: -3.502578
accuracy: 11
views: 54
interestingness: 35 out of 261

photo: 6436245399 abb2fb5994 7004
owner: 31879658@N00
title: Love this time of year
originalsecret: null
originalformat: null
o_height: null
o_width: null
datetaken: 2011-10-31 09:29:39
dateupload: 1322747911
tags: flickrdiamond
license: 0
latitude: 27.7197
longitude: -82.44255
accuracy: 10
views: 134
interestingness: 36 out of 261

photo: 6432911651 f1eb8e591b 7164
owner: 56583712@N07
title: Cartas de Amor
originalsecret: 7052a46f70
originalformat: jpg
o_height: 2029
o_width: 1227
datetaken: 2011-11-30 22:47:19
dateupload: 1322737200
tags: she street people love calle gente amor ella el letter he carta
license: 0
latitude: 57.841499
longitude: -5.064469
accuracy: 11
views: 123
interestingness: 37 out of 261

photo: 6414916841 eae6b91d91 6052
owner: 30613084@N02
title: Autumn in Lebanon...
originalsecret: 7501390165
originalformat: jpg
o_height: 4504
o_width: 3211
datetaken: 2011-11-22 08:07:12
dateupload: 1322738244
tags: 
license: 0
latitude: 33.872451
longitude: 35.876548
accuracy: 2
views: 291
interestingness: 38 out of 261

photo: 6435912739 557dffd1ef 7151
owner: 57181139@N03
title: Kazma Meteor
originalsecret: 98a045966e
originalformat: jpg
o_height: 664
o_width: 999
datetaken: 2011-11-24 12:31:17
dateupload: 1322741891
tags: mountains star kuwait starts meteor ???? ???? ???? kazma ???? ????? ???? ???? ?????????
license: 1
latitude: 29.449503
longitude: 47.718681
accuracy: 11
views: 154
interestingness: 39 out of 261

photo: 6433920115 b76d4f666c 7027
owner: 40315217@N04
title: I ? JKK - Der junge Kulturkanal: Wir h?ngen f?r euch am Mikro.
originalsecret: b9bb93a206
originalformat: jpg
o_height: 3061
o_width: 4622
datetaken: 2011-11-29 17:24:36
dateupload: 1322703869
tags: new girls friends party portrait people woman sun color cute love girl beautiful beauty smile germany fun photography photo nice model nikon women dress photos sigma freckles frau karlsruhe m?dchen frauen kleid spas sch?n sommersprossen h?bsch jkk junger d7000 kulturkanal
license: 0
latitude: 49.00456
longitude: 8.427157
accuracy: 16
views: 267
interestingness: 40 out of 261

photo: 6433533465 e59b3f1a9d 7014
owner: 45939540@N05
title: Megan - Mamiya C33
originalsecret: 4bbd8c3c97
originalformat: jpg
o_height: 1024
o_width: 1039
datetaken: 2011-11-30 02:01:38
dateupload: 1322698055
tags: 
license: 4
latitude: 45.513203
longitude: -122.676429
accuracy: 11
views: 163
interestingness: 41 out of 261

photo: 6435871015 e7e7cc9091 7174
owner: 61516666@N05
title: Pink Mary
originalsecret: null
originalformat: null
o_height: null
o_width: null
datetaken: 2011-12-01 08:07:09
dateupload: 1322741034
tags: uk longexposure pink light colour sunrise dawn coast north coastal northern northeast whitleybay stmaryslighthouse steveclasper
license: 0
latitude: 55.072863
longitude: -1.447963
accuracy: 11
views: 75
interestingness: 42 out of 261

photo: 6434203719 1b5a5ba904 7017
owner: 16112759@N02
title: December comes, X'mas comes...
originalsecret: null
originalformat: null
o_height: null
o_width: null
datetaken: 2011-11-27 15:22:43
dateupload: 1322707979
tags: christmas hongkong december olympus f18 45mm lightroom 2011 m43 epen mft mzd microfourthirds mzuikodigital epl3
license: 0
latitude: 22.312006
longitude: 114.225518
accuracy: 15
views: 109
interestingness: 43 out of 261

photo: 6433628763 4a6824a01d 7141
owner: 17159262@N00
title: [see it in]
originalsecret: null
originalformat: null
o_height: null
o_width: null
datetaken: 2011-11-25 18:45:33
dateupload: 1322699536
tags: reflection building tower film analog poster exposure olympus om10 double iso 400
license: 0
latitude: 35.223044
longitude: -80.838317
accuracy: 11
views: 112
interestingness: 44 out of 261

photo: 6435419697 6e995ebc7d 7148
owner: 28182844@N07
title: Masjid Putrajaya, Malaysia
originalsecret: null
originalformat: null
o_height: null
o_width: null
datetaken: 2011-12-01 14:06:15
dateupload: 1322730828
tags: life eve blue pakistan red art history love beautiful beauty mystery architecture contrast canon wonderful hope evening amazing cool asia exposure flickr moments alone ray colours peace artistic gorgeous awesome muslim famous bricks extreme joy expressions experiment happiness mosque explore architect experience fancy mysterious even worth around everyone lovely karachi 1224mm worl dazed wonders begining feelings mortal blooming dazzling beauiful astonishing 500d amazaing mywinners concordians archietect
license: 0
latitude: 2.713809
longitude: 101.819915
accuracy: 11
views: 108
interestingness: 45 out of 261

photo: 6433571583 88279af6ab 7034
owner: 39467669@N04
title: Manhattan To Queens B&W
originalsecret: null
originalformat: null
o_height: null
o_width: null
datetaken: 2011-11-30 19:10:54
dateupload: 1322698690
tags: nyc newyorkcity panorama manhattan queens eastriver queensborobridge canon135mmf2l danlove
license: 0
latitude: 40.736722
longitude: -73.972892
accuracy: 13
views: 136
interestingness: 46 out of 261

photo: 6434598695 e1b9413a49 7006
owner: 96863354@N00
title: Texas sky....Going west ....
originalsecret: f16bf1b9ef
originalformat: jpg
o_height: 1200
o_width: 1200
datetaken: 2011-08-16 23:30:24
dateupload: 1322749464
tags: 
license: 0
latitude: 30.996445
longitude: -103.139648
accuracy: 5
views: 90
interestingness: 47 out of 261

photo: 6436202665 82a8ab981c 7011
owner: 9094440@N04
title: dicembre (eu sem voc?)
originalsecret: null
originalformat: null
o_height: null
o_width: null
datetaken: 2011-11-21 13:13:59
dateupload: 1322747174
tags: love lost leaf december
license: 0
latitude: 40.637925
longitude: 15.814819
accuracy: 9
views: 92
interestingness: 48 out of 261

photo: 6435459267 6155fd160c 7026
owner: 52384182@N05
title: WaterColors
originalsecret: 4d9a87700e
originalformat: jpg
o_height: 672
o_width: 889
datetaken: 2011-10-09 09:57:18
dateupload: 1322731771
tags: 
license: 0
latitude: 42.940339
longitude: 13.942748
accuracy: 5
views: 196
interestingness: 49 out of 261

photo: 6436150803 e9b21db2ae 7144
owner: 64829840@N00
title: Man loves company even if it is only that of a small burning candle.  ~Georg Christoph Lichtenberg [Explore]
originalsecret: dd31e96565
originalformat: jpg
o_height: 1929
o_width: 2772
datetaken: 2011-11-17 00:02:17
dateupload: 1322746264
tags: abstract man digital photography solitude shadows ladybird walls minimalism canonpowershot coccinella
license: 3
latitude: 45.44823
longitude: 10.07686
accuracy: 11
views: 65
interestingness: 50 out of 261

photo: 6435161897 176428f9d3 7021
owner: 50068870@N08
title: 
originalsecret: null
originalformat: null
o_height: null
o_width: null
datetaken: 2011-11-24 13:18:50
dateupload: 1322724659
tags: 
license: 0
latitude: 21.051501
longitude: 106.759643
accuracy: 11
views: 40
interestingness: 51 out of 261

photo: 6435248537 cfd3885b41 7008
owner: 67413027@N08
title: catch me if you can
originalsecret: null
originalformat: null
o_height: null
o_width: null
datetaken: 2011-11-26 14:53:08
dateupload: 1322726719
tags: christmas street old city family autumn light boy portrait people urban blackandwhite bw woman cute love smile sepia kids youth children square licht town kid essen women child little market candid fast run christmastree stadt laugh nostalgic mischief oldnew
license: 0
latitude: 51.448658
longitude: 6.97134
accuracy: 11
views: 118
interestingness: 52 out of 261

photo: 6435419693 8f48d81fbf 7174
owner: 28182844@N07
title: Seri Wawasan Bridge, Putrajaya
originalsecret: null
originalformat: null
o_height: null
o_width: null
datetaken: 2011-12-01 13:54:08
dateupload: 1322730828
tags: world life travel bridge friends pakistan sky art history love nature colors beautiful beauty canon landscape hope amazing ray peace natural artistic awesome joy scenic sigma happiness scene malaysia thankful lovely karachi 1224mm feelings 500d kaulalumpur visiit happinesss concordians utrajaya mygearandme
license: 0
latitude: 2.957629
longitude: 101.684516
accuracy: 11
views: 86
interestingness: 53 out of 261

photo: 6435910049 c253bc1884 7174
owner: 41346951@N05
title: Sharing a passion...
originalsecret: f1a9a57cdb
originalformat: jpg
o_height: 4000
o_width: 2672
datetaken: 2011-06-05 00:07:07
dateupload: 1322741835
tags: 
license: 4
latitude: 40.71455
longitude: -74.007118
accuracy: 11
views: 286
interestingness: 54 out of 261

photo: 6436244715 bec2859422 7031
owner: 50964738@N07
title: 330/365.
originalsecret: null
originalformat: null
o_height: null
o_width: null
datetaken: 2011-11-26 15:35:28
dateupload: 1322747899
tags: blackandwhite sparkles eyes mask bokeh
license: 0
latitude: 31.233793
longitude: 121.428108
accuracy: 11
views: 57
interestingness: 55 out of 261

photo: 6436130765 f4c4cd09e0 7018
owner: 41288529@N00
title: The Windows of heaven are open.
originalsecret: c1c88a59ab
originalformat: jpg
o_height: 3872
o_width: 2592
datetaken: 2011-11-26 18:39:34
dateupload: 1322745912
tags: blue sky white reflection blanco window glass azul clouds ventana leon cielo nubes cristal reflejos
license: 0
latitude: 42.60207
longitude: -5.579627
accuracy: 16
views: 74
interestingness: 56 out of 261

photo: 6436312315 f291991101 7147
owner: 62619762@N07
title: taste life in the sweet side [ EXPLORE # 374 / 1 Dec.2011 ] thank you all !!!
originalsecret: 658d00dec2
originalformat: jpg
o_height: 1944
o_width: 2592
datetaken: 2011-11-18 13:10:36
dateupload: 1322748951
tags: world life christmas blue winter red 2 two people food white color colour love home cup kitchen cookies bag dessert greek happy design nokia friend holidays europe december alone peace tea sweet handmade cinnamon stripes walnuts olive hellas lifestyle happiness plate athens sugar explore greece honey oil mug bite taste tradition vacations miele farine dimitra hellenic x6 explored ????? ?????? ???????????? ???????????? ??? ???? ????? ???????? ??????? ???????????? milaiou ???????
license: 0
latitude: 37.975766
longitude: 23.751025
accuracy: 14
views: 228
interestingness: 57 out of 261

photo: 6435565245 6d0be5e8cb 7001
owner: 27244689@N07
title: Muted Skies
originalsecret: caa2e6c955
originalformat: jpg
o_height: 2390
o_width: 3585
datetaken: 2011-11-25 19:12:13
dateupload: 1322734428
tags: pink sunset clouds jetty australia southaustralia henleybeach greyreflections
license: 0
latitude: -34.917818
longitude: 138.492536
accuracy: 16
views: 49
interestingness: 58 out of 261

photo: 6437385065 644cb78be0 7154
owner: 66150034@N07
title: Shoot Twice
originalsecret: 064e8b6648
originalformat: jpg
o_height: 1997
o_width: 4000
datetaken: 2011-07-24 19:19:08
dateupload: 1322699160
tags: street boy love girl night nikon kissing candid flash cologne k?ln dating strobist d3x sigma50mm14
license: 0
latitude: 50.929953
longitude: 6.939303
accuracy: 13
views: 119
interestingness: 59 out of 261

photo: 6430970773 405907e7df 7165
owner: 47770928@N08
title: 73 | 365
originalsecret: null
originalformat: null
o_height: null
o_width: null
datetaken: 2011-11-29 10:13:31
dateupload: 1322708399
tags: new light boy summer sky orange naturaleza baby sun color macro reflection verde green art love primavera luz nature argentina colors yellow photography luces photo kid google nikon flickr day foto dof photos bokeh top live colores nov30 explore amarillo reflejo contraste perspectiva jpg 365 proyect geo d?a naranja nueva day30 fot?grafo franco brillo week48 fotograf?a c?mara pring encuadre day332 day333 2011 enfoque nitidez explored nitido rostan i365 proyect365 proyecto365 d3100 nikond3100 francorostan proyect73
license: 0
latitude: -38.085797
longitude: -63.427848
accuracy: 11
views: 159
interestingness: 60 out of 261

photo: 6435928513 b1f86395e0 7011
owner: 58545720@N03
title: Just for u :*
originalsecret: null
originalformat: null
o_height: null
o_width: null
datetaken: 2011-12-01 04:23:25
dateupload: 1322742205
tags: 
license: 0
latitude: 12.244901
longitude: 109.179039
accuracy: 11
views: 75
interestingness: 61 out of 261

photo: 6435943055 b2113fe16b 7157
owner: 30517065@N00
title: Laurette Victoria
originalsecret: 6794f86cdd
originalformat: jpg
o_height: 709
o_width: 575
datetaken: 2011-11-25 20:32:10
dateupload: 1322742510
tags: autumn lake tree wisconsin pose outside outdoors tv cd skirt jacket milwaukee greenfieldpark laurette laurettevictoria
license: 0
latitude: 43.008256
longitude: -88.061084
accuracy: 13
views: 60
interestingness: 62 out of 261

photo: 6434995611 e976e613d5 7027
owner: 51178269@N02
title: Don't look at my skinny Legs!...
originalsecret: null
originalformat: null
o_height: null
o_width: null
datetaken: 2011-12-01 06:30:07
dateupload: 1322721007
tags: lighting sky green birds closeup female forest reflections garden skinny colours legs bright bokeh crane wildlife great feathers marsh unusual
license: 0
latitude: 51.886859
longitude: -1.76142
accuracy: 11
views: 43
interestingness: 63 out of 261

photo: 6433925939 899a9d0e67 7173
owner: 90684505@N00
title: chain of fools
originalsecret: 71e8327c91
originalformat: jpg
o_height: 427
o_width: 640
datetaken: 2011-11-25 11:01:51
dateupload: 1322703964
tags: old bridge blur love bike bicycle canon germany deutschland eos town europe glare bokeh pastel centre flash north grain eu cologne k?ln center chain locks mk2 5d fools rhine altstadt koln sergei westfalen nordrhein westphalia hohenzollern hohenzollernbr?cke yahchybekov serhio
license: 0
latitude: 50.941461
longitude: 6.965578
accuracy: 16
views: 97
interestingness: 64 out of 261

photo: 6433905013 8bff189421 7152
owner: 54601956@N04
title: Paz
originalsecret: null
originalformat: null
o_height: null
o_width: null
datetaken: 2007-01-01 12:01:13
dateupload: 1322703626
tags: origami tessellation teselado
license: 0
latitude: 10.232491
longitude: -67.576904
accuracy: 11
views: 190
interestingness: 65 out of 261

photo: 6435977561 9bb829c821 7158
owner: 42741680@N05
title: Construction Composition
originalsecret: eb3dedcea5
originalformat: jpg
o_height: 2008
o_width: 2668
datetaken: 2011-11-30 14:00:52
dateupload: 1322745720
tags: construction va dcist rosslyn dcmetro flipmode79
license: 0
latitude: 38.893279
longitude: -77.074778
accuracy: 15
views: 70
interestingness: 66 out of 261

photo: 6436354111 d0b595da95 7166
owner: 54601956@N04
title: PAZ
originalsecret: null
originalformat: null
o_height: null
o_width: null
datetaken: 2007-01-01 12:12:18
dateupload: 1322749557
tags: origami tessellation
license: 0
latitude: 10.232491
longitude: -67.575359
accuracy: 11
views: 124
interestingness: 67 out of 261

photo: 6435604161 da4da84f9f 7004
owner: 11516254@N00
title: Nicole (#13/100)
originalsecret: null
originalformat: null
o_height: null
o_width: null
datetaken: 2011-11-30 11:29:02
dateupload: 1322735430
tags: nicole stranger slough berkshire kevday no13 100strangers
license: 0
latitude: 51.511176
longitude: -0.592231
accuracy: 16
views: 126
interestingness: 68 out of 261

photo: 6434679723 3707186ac9 7026
owner: 28182844@N07
title: A rainy day
originalsecret: null
originalformat: null
o_height: null
o_width: null
datetaken: 2011-11-30 14:12:51
dateupload: 1322715056
tags: world life travel pakistan sky art love colors beautiful beauty canon hope amazing ray peace natural artistic awesome joy sigma happiness malaysia lovely 1224mm lumpur kaula 500d concordians
license: 0
latitude: 2.789767
longitude: 101.77494
accuracy: 11
views: 86
interestingness: 69 out of 261

photo: 6435982355 a29925ab85 7001
owner: 48538984@N07
title: Yellow Leaf Road
originalsecret: null
originalformat: null
o_height: null
o_width: null
datetaken: 2011-11-23 15:33:45
dateupload: 1322743261
tags: road autumn trees portrait fall love nature beautiful yellow japan canon season outdoors temple happy golden leaf couple shrine tripod 7d romantic shimane aki bestfriend soulmate izumo soulmates yellowbrickroad ?? ?? gakuenji ?? ???
license: 0
latitude: 35.420601
longitude: 132.746171
accuracy: 16
views: 261
interestingness: 70 out of 261

photo: 6434982875 565ee88365 7009
owner: 76672675@N00
title: photographers' daughters
originalsecret: null
originalformat: null
o_height: null
o_width: null
datetaken: 2011-07-05 12:23:42
dateupload: 1322720736
tags: girls friends summer archives flickrmeetup instantphoto
license: 0
latitude: 39.968618
longitude: -75.184657
accuracy: 14
views: 121
interestingness: 71 out of 261

photo: 6434741975 febd6197ca 7016
owner: 23448498@N02
title: Winter Coat
originalsecret: b63ee1214d
originalformat: jpg
o_height: 4330
o_width: 3250
datetaken: 2011-11-30 16:41:57
dateupload: 1322716134
tags: trees winter sky house snow nature beauty pinetree nikon zoom branches wintercoat limbs needles freshsnow davidsmith calgaryalbertacanada
license: 0
latitude: 50.946396
longitude: -114.010384
accuracy: 14
views: 46
interestingness: 72 out of 261

photo: 6435998973 a24a3082d4 7145
owner: 8692813@N06
title: Presenting Heather
originalsecret: a4e9810b6f
originalformat: jpg
o_height: 3056
o_width: 4592
datetaken: 2011-11-27 14:35:55
dateupload: 1322743568
tags: portrait smile georgia heather wife mcdonough week48 themeportrait henrycounty thesussman sonyalphadslra550 52of2011
license: 3
latitude: 33.445561
longitude: -84.142448
accuracy: 16
views: 56
interestingness: 73 out of 261

photo: 6434928779 f0660c7654 7168
owner: 53400759@N06
title: WHEN LOVE FINDS YOU ... IT MIGHT BE IN PARIS
originalsecret: 4cca7dc30d
originalformat: jpg
o_height: 521
o_width: 530
datetaken: 2011-12-01 01:05:46
dateupload: 1322719681
tags: wedding favorite texture lady blessing squarecrop azraviolet9
license: 0
latitude: 48.856918
longitude: 2.341209
accuracy: 11
views: 29
interestingness: 74 out of 261

photo: 6435419703 a5ee8abf68 7175
owner: 28182844@N07
title: Skyscrapers in KL Malaysia
originalsecret: null
originalformat: null
o_height: null
o_width: null
datetaken: 2011-12-01 13:16:13
dateupload: 1322730828
tags: travel pakistan travelling history love beautiful beauty rain canon happy hope ray peace artistic awesome peaceful happiness visit loveit historical serene theunforgettablepictures
license: 0
latitude: 2.716209
longitude: 101.818885
accuracy: 11
views: 32
interestingness: 75 out of 261

photo: 6435621073 4597db0baa 7161
owner: 47911087@N02
title: Day 174 / 365 - @shadez #TAD365
originalsecret: null
originalformat: null
o_height: null
o_width: null
datetaken: 2011-11-30 18:02:16
dateupload: 1322735807
tags: tech sameer bandra shadez afaqs tad365 tweeteraday365
license: 0
latitude: 19.064429
longitude: 72.836179
accuracy: 13
views: 1030
interestingness: 76 out of 261

photo: 6434202615 ac13becbdd 7172
owner: 26495293@N05
title: SANTA FE BRONZE
originalsecret: ebb5f25bee
originalformat: jpg
o_height: 1942
o_width: 2961
datetaken: 2011-11-30 18:12:44
dateupload: 1322707964
tags: autumn plants newmexico santafe fall film nature grass leaves bronze 35mm outdoors 1 dof fallcolor kodak bokeh olympus depthoffield copper analogue shallow om 160vc om1 autumncolor naturalcolors portra160vc grassflowers 50mmmacro 50mmf35macro santafecolors zuikomacro bronzegrasses
license: 0
latitude: 35.686036
longitude: -105.930476
accuracy: 16
views: 63
interestingness: 77 out of 261

photo: 6433624665 6e2cf96cce 7153
owner: 34369012@N04
title: Central Library | 333/365
originalsecret: 9b7e2016d6
originalformat: jpg
o_height: 4899
o_width: 3266
datetaken: 2011-11-29 19:48:39
dateupload: 1322699476
tags: urban night downtown library desmoines 2011yip 3652011 2011inphotos
license: 1
latitude: 41.586094
longitude: -93.630924
accuracy: 14
views: 86
interestingness: 78 out of 261

photo: 6434063993 df343af119 7023
owner: 33000705@N02
title: A gentle sway
originalsecret: 78f90226b8
originalformat: jpg
o_height: 817
o_width: 1200
datetaken: 2011-03-23 08:50:29
dateupload: 1322705963
tags: motion boats boat harbour australia western yachts sorrento hillarys nd110
license: 0
latitude: -31.825684
longitude: 115.739078
accuracy: 13
views: 106
interestingness: 79 out of 261

photo: 6433909901 2c8c73193c 7173
owner: 96153722@N00
title: Thinking about you...
originalsecret: null
originalformat: null
o_height: null
o_width: null
datetaken: 2011-07-31 12:20:00
dateupload: 1322703703
tags: love 50mm madisonwi olbrichgardens missingsummer lollygagging canon50d summer2011 dogdaysofsummeraregone justanotherconeflower
license: 0
latitude: 43.072948
longitude: -89.386688
accuracy: 11
views: 30
interestingness: 80 out of 261

photo: 6435368241 fdde15b37d 7020
owner: 11169788@N03
title: 
originalsecret: null
originalformat: null
o_height: null
o_width: null
datetaken: 2011-12-01 10:30:18
dateupload: 1322729574
tags: 
license: 0
latitude: 45.460491
longitude: 9.187431
accuracy: 11
views: 103
interestingness: 81 out of 261

photo: 6434205233 ccacc2f5ef 7003
owner: 26495293@N05
title: SPANISH BROOM
originalsecret: 78c7931b4b
originalformat: jpg
o_height: 2048
o_width: 3088
datetaken: 2011-11-30 20:28:35
dateupload: 1322708003
tags: autumn plants newmexico santafe fall film nature leaves 35mm outdoors 1 dof fallcolor kodak bokeh olympus depthoffield analogue shallow om 160vc om1 autumncolor naturalcolors portra160vc desertbroom spanishbroom 50mmmacro 50mmf35macro santafecolors zuikomacro nativeplantnewmexico newmexicanplant
license: 0
latitude: 35.686036
longitude: -105.930476
accuracy: 16
views: 62
interestingness: 82 out of 261

photo: 6433552497 1bc78c8d9f 7019
owner: 64482733@N02
title: Elizabeth
originalsecret: null
originalformat: null
o_height: null
o_width: null
datetaken: 2010-11-08 14:35:32
dateupload: 1322698371
tags: life california hot sexy love beautiful 50mm nikon bokeh gorgeous malibu intelligent fianc? d700
license: 0
latitude: 34.035306
longitude: -118.696632
accuracy: 11
views: 80
interestingness: 83 out of 261

photo: 6435871977 98075f08bd 7014
owner: 55333053@N03
title: SOCIAL NETWORK....
originalsecret: null
originalformat: null
o_height: null
o_width: null
datetaken: 2011-11-21 10:25:33
dateupload: 1322741055
tags: macro leaves closeup lens leaf network reverse
license: 0
latitude: 28.378563
longitude: 75.608811
accuracy: 14
views: 34
interestingness: 84 out of 261

photo: 6434355957 ea2709cbbf 7149
owner: 25272548@N02
title: Northern Cardinal at the Riparian
originalsecret: d3e0aa74c3
originalformat: jpg
o_height: 1224
o_width: 816
datetaken: 2011-11-20 09:01:22
dateupload: 1322710280
tags: northerncardinal riparianpreserveatwaterranch
license: 0
latitude: 33.360104
longitude: -111.732416
accuracy: 16
views: 91
interestingness: 85 out of 261

photo: 6433908735 ed0e564127 7173
owner: 54601956@N04
title: Paz
originalsecret: null
originalformat: null
o_height: null
o_width: null
datetaken: 2007-01-01 12:01:33
dateupload: 1322703684
tags: origami tessellation teselado
license: 0
latitude: 10.23266
longitude: -67.575874
accuracy: 11
views: 120
interestingness: 86 out of 261

photo: 6430970731 4673776dd6 7025
owner: 47770928@N08
title: Del otro lado...
originalsecret: null
originalformat: null
o_height: null
o_width: null
datetaken: 2011-11-27 19:00:35
dateupload: 1322708398
tags: new light summer sky orange naturaleza sun color macro reflection verde green art love primavera luz nature argentina colors yellow photography luces photo google nikon flickr day foto dof photos bokeh top live colores nov30 explore amarillo reflejo contraste perspectiva jpg 365 proyect geo d?a naranja nueva day30 fot?grafo franco brillo week48 fotograf?a c?mara pring encuadre day332 day333 2011 enfoque nitidez explored nitido rostan i365 proyect365 proyecto365 d3100 nikond3100 francorostan load333
license: 0
latitude: -38.084175
longitude: -63.430938
accuracy: 11
views: 106
interestingness: 87 out of 261

photo: 6434696471 a5c9e1925e 7030
owner: 35870491@N02
title: I'm Walking Out that Door...
originalsecret: null
originalformat: null
o_height: null
o_width: null
datetaken: 2011-11-30 14:10:21
dateupload: 1322715332
tags: color feet shoes canvas splash ankles indiekids musicaddicts indiefashion mysexylegs retrofeel seattleeveryday portraitswithoutaface lovelifeandbeauty
license: 0
latitude: 47.601533
longitude: -122.336883
accuracy: 11
views: 75
interestingness: 88 out of 261

photo: 6434596561 b9652873c0 7021
owner: 58036240@N04
title: Shrimp and tomato with linguine
originalsecret: null
originalformat: null
o_height: null
o_width: null
datetaken: 2011-11-15 21:06:54
dateupload: 1322713795
tags: 
license: 0
latitude: 35.069037
longitude: 136.744251
accuracy: 15
views: 48
interestingness: 89 out of 261

photo: 6433759339 cf5cd02e20 7017
owner: 47850033@N08
title: une statue antique
originalsecret: 4d43c9258a
originalformat: jpg
o_height: 3508
o_width: 2480
datetaken: 2011-11-24 21:20:23
dateupload: 1322701485
tags: statue antique antiqueshop
license: 0
latitude: 11.93202
longitude: 79.808979
accuracy: 11
views: 56
interestingness: 90 out of 261

photo: 6435080441 639440c23d 7146
owner: 21402632@N03
title: ~ I stand by you ~
originalsecret: null
originalformat: null
o_height: null
o_width: null
datetaken: 2011-11-19 11:57:46
dateupload: 1322722892
tags: wedding people love beauty nikon flickr hand sydney australia romance nikkor allegro 2470mmf28 d700 kenhurst
license: 0
latitude: -33.655429
longitude: 151.004837
accuracy: 16
views: 55
interestingness: 91 out of 261

photo: 6433784609 1a3cd0c0f3 7023
owner: 37651373@N05
title: 12
originalsecret: 5d267ccdb1
originalformat: jpg
o_height: 2018
o_width: 3823
datetaken: 2011-11-30 09:01:07
dateupload: 1322701860
tags: 365 gabriella romeojuliet direstraits clarabelle project365 12365 oneobject365daysproject 11302011 romeoandjulietorjulietandjuliet
license: 0
latitude: 39.368544
longitude: -76.704483
accuracy: 11
views: 37
interestingness: 92 out of 261

photo: 6434697217 70fa5814f1 7006
owner: 35870491@N02
title: What a Swanky Life
originalsecret: null
originalformat: null
o_height: null
o_width: null
datetaken: 2011-11-30 20:50:48
dateupload: 1322715345
tags: color feet collage shoes canvas splash ankles indiekids musicaddicts indiefashion mysexylegs retrofeel seattleeveryday portraitswithoutaface lovelifeandbeauty
license: 0
latitude: 47.601301
longitude: -122.33551
accuracy: 11
views: 94
interestingness: 93 out of 261

photo: 6435611111 bb6dab866c 7175
owner: 85387952@N00
title: Fan-tailed warbler (Cisticola juncidis)
originalsecret: null
originalformat: null
o_height: null
o_width: null
datetaken: 2011-10-20 08:33:16
dateupload: 1322735594
tags: bird nature birds spain europe cadiz ornithology tarifa martinparr fantailedwarbler cisticolajuncidis zittingcisticola martindparr mdparr
license: 0
latitude: 36.085869
longitude: -5.614528
accuracy: 12
views: 92
interestingness: 94 out of 261

photo: 6436352505 f9a319ef27 7172
owner: 8307945@N02
title: A bit of Processing fun
originalsecret: 851517f484
originalformat: jpg
o_height: 2672
o_width: 3562
datetaken: 2011-11-29 13:00:31
dateupload: 1322749535
tags: red black fall texture fun berries granite
license: 0
latitude: 47.697971
longitude: -65.765846
accuracy: 11
views: 50
interestingness: 95 out of 261

photo: 6434212323 b369c9d7cd 7003
owner: 43749513@N08
title: My Love.....I owe so much to You!
originalsecret: f09d9587ef
originalformat: jpg
o_height: 4840
o_width: 3300
datetaken: 2011-11-26 12:49:39
dateupload: 1322708118
tags: cat blackcat feline bella
license: 0
latitude: 40.205448
longitude: -75.100067
accuracy: 11
views: 36
interestingness: 96 out of 261

photo: 6434696875 17387f720c 7167
owner: 35870491@N02
title: Tongue Tied
originalsecret: null
originalformat: null
o_height: null
o_width: null
datetaken: 2011-11-30 19:51:55
dateupload: 1322715338
tags: selfportrait color feet fun lyrics shoes floor legs angles canvas splash dailyphoto ankles indiekids musicaddicts imemine indiefashion blipfoto mysexylegs retrofeel seattleeveryday showusyourbest portraitswithoutaface lovelifeandbeauty tonguetiedbygrouplove
license: 0
latitude: 47.601417
longitude: -122.334823
accuracy: 11
views: 97
interestingness: 97 out of 261

photo: 6436445303 1c5ce0f532 7175
owner: 55561654@N03
title: ( passion ) Highlanders soldiers homecoming parade
originalsecret: null
originalformat: null
o_height: null
o_width: null
datetaken: 2011-12-01 13:52:51
dateupload: 1322750902
tags: city uk slr love reunion scotland aberdeenshire sony north parade highland homecoming aberdeen passion soldiers alpha dslr slt a77 highlanders dslt alpha77 sonya77 slta77v
license: 0
latitude: 57.14828
longitude: -2.092423
accuracy: 16
views: 126
interestingness: 98 out of 261

photo: 6435157949 c5538fd819 7146
owner: 60089367@N05
title: Fruit of the Palm
originalsecret: 86874275e0
originalformat: jpg
o_height: 2347
o_width: 3582
datetaken: 2011-11-30 12:28:26
dateupload: 1322724574
tags: 
license: 0
latitude: 20.627643
longitude: -87.055664
accuracy: 16
views: 16
interestingness: 99 out of 261

photo: 6435035551 4e38d21d15 7015
owner: 63565933@N04
title: sony a77 w/30mm macro.
originalsecret: null
originalformat: null
o_height: null
o_width: null
datetaken: 2011-11-30 20:13:18
dateupload: 1322721898
tags: 
license: 0
latitude: 26.364971
longitude: -80.134041
accuracy: 16
views: 85
interestingness: 100 out of 261

photo: 6434927441 07e941e4da 7006
owner: 88077630@N00
title: SF City Hall/Skyline at Night/with Madonna, HDR Montage
originalsecret: null
originalformat: null
o_height: null
o_width: null
datetaken: 2010-08-07 21:01:51
dateupload: 1322719654
tags: sanfrancisco california pink blue light red orange white black color green art beauty television yellow collage fog night clouds photoshop canon landscape gold screenshot neon glow cityscape spire dome sfbayarea diva highrises topaz photomatix picturesofthetelevision tonemapping canonxti televisionshot topazadjust
license: 0
latitude: 37.76599
longitude: -122.426612
accuracy: 15
views: 56
interestingness: 101 out of 261

photo: 6435459807 bf7f51b1b1 7160
owner: 25937668@N08
title: I Felt You And I Know You Loved Me
originalsecret: daf2a1a53a
originalformat: jpg
o_height: 3315
o_width: 3077
datetaken: 2011-11-26 10:35:38
dateupload: 1322731784
tags: uk england art window liverpool cathedral britain stainedglass merseyside liverpoolcathedral tracyemin ifeltyouandiknowyoulovedme canong12 img5238edwm
license: 0
latitude: 53.397468
longitude: -2.973303
accuracy: 14
views: 87
interestingness: 102 out of 261

photo: 6436440961 87d1e19ff1 7020
owner: 55561654@N03
title: ( Smile ) Highlanders soldiers homecoming parade
originalsecret: null
originalformat: null
o_height: null
o_width: null
datetaken: 2011-12-01 13:58:35
dateupload: 1322750838
tags: city uk family slr love reunion smile kids scotland kid aberdeenshire sony north parade highland homecoming aberdeen soldiers alpha dslr slt a77 highlanders dslt alpha77 sonya77 slta77v
license: 0
latitude: 57.148262
longitude: -2.092691
accuracy: 16
views: 136
interestingness: 103 out of 261

photo: 6430183565 6dc74838f1 7033
owner: 94398465@N00
title: Sous bois...
originalsecret: 29c9650ec9
originalformat: jpg
o_height: 1200
o_width: 1800
datetaken: 2011-11-27 14:01:21
dateupload: 1322723740
tags: femme gimp commune chapelle for?t bois randonn?e effet sousbois dr?me rh?nealpes v?ronne chapellesaintchristophe malibellule
license: 0
latitude: 44.736978
longitude: 5.195503
accuracy: 12
views: 49
interestingness: 104 out of 261

photo: 6435016705 0cd2749e5e 7145
owner: 13385037@N00
title: Project365 : 335/365
originalsecret: 24848bbecf
originalformat: jpg
o_height: 3485
o_width: 5227
datetaken: 2011-12-01 13:10:43
dateupload: 1322721482
tags: old shop project quality butcher 365 clunes project365
license: 0
latitude: -37.295171
longitude: 143.786273
accuracy: 14
views: 55
interestingness: 105 out of 261

photo: 6434311787 e156a1f040 7153
owner: 71047115@N05
title: Party love!
originalsecret: null
originalformat: null
o_height: null
o_width: null
datetaken: 2011-09-25 23:20:13
dateupload: 1322709636
tags: 
license: 0
latitude: -41.136391
longitude: -71.315002
accuracy: 12
views: 17
interestingness: 106 out of 261

photo: 4970679884 19ec48ea01 4092
owner: 38837659@N06
title: A Spy Like You
originalsecret: 608cf6a129
originalformat: jpg
o_height: 4217
o_width: 3441
datetaken: 2010-08-30 11:15:21
dateupload: 1322735670
tags: china city original light portrait people blackandwhite bw italy baby white black hot cute sexy art love girl beautiful beauty fashion pen pencil ink comics painting hair paper fun toy james sketch war europe paint gun artist comic italia peace dress symbol artistic drawing iraq babe east jacket strip short pistol painter spy bond draw brunette lovely middle iraqi hotty
license: 3
latitude: 43.771361
longitude: 11.25428
accuracy: 16
views: 128
interestingness: 107 out of 261

photo: 6434637443 dd7203ecbc 7156
owner: 45939540@N05
title: Megan Take 2 - Mamiya C33
originalsecret: 3ed1dab054
originalformat: jpg
o_height: 1024
o_width: 1039
datetaken: 2011-11-30 02:01:09
dateupload: 1322714398
tags: 
license: 4
latitude: 45.518857
longitude: -122.678146
accuracy: 11
views: 96
interestingness: 108 out of 261

photo: 6433732349 92bff9841e 7148
owner: 30966697@N08
title: Bunny Ears
originalsecret: fc8a4076f9
originalformat: jpg
o_height: 3072
o_width: 4608
datetaken: 2011-11-30 17:52:16
dateupload: 1322701081
tags: dog ear imallears curvedline 111picturesin2011 dogchal
license: 0
latitude: 40.799
longitude: -89.196506
accuracy: 16
views: 45
interestingness: 109 out of 261

photo: 6433678493 65d15e12f5 7148
owner: 34576387@N05
title: Vi?a Concha y Toro
originalsecret: null
originalformat: null
o_height: null
o_width: null
datetaken: 2011-07-29 12:06:05
dateupload: 1322700274
tags: chile santiago santiagodechile scl rm conchaytoro stgo accesosur vi?aconchaytoro regi?nmetropolitana puentealto gransantiago regi?nmetropolitanadesantiago comunadepuentealto autopistaaccesosur accesosurasantiago provinciadesantiago municipalidaddepuentealto provinciacordillera
license: 0
latitude: -33.615768
longitude: -70.569648
accuracy: 11
views: 37
interestingness: 110 out of 261

photo: 6434157385 d6034488df 7028
owner: 86544988@N00
title: heart of stones in the woods
originalsecret: null
originalformat: null
o_height: null
o_width: null
datetaken: 2011-11-27 15:31:49
dateupload: 1322707290
tags: park city autumn urban brown art fall love nature strange leaves stone contrast found outside outdoors woods shadows place heart shaped stones maryland ground spot baltimore graves surprise mysterious manmade blocks shape gravestones installed arranged laidout druidhill woodberry druidhillpark
license: 0
latitude: 39.32926
longitude: -76.647073
accuracy: 15
views: 22
interestingness: 111 out of 261

photo: 6435053305 06b896dbb2 7149
owner: 36959168@N05
title: Amber doing what she does best..
originalsecret: e30627e5de
originalformat: jpg
o_height: 511
o_width: 1024
datetaken: 2011-11-30 10:45:58
dateupload: 1322722303
tags: park autumn fall beauty leaves fun laughter brunette
license: 0
latitude: 33.82801
longitude: -118.198677
accuracy: 1
views: 452
interestingness: 112 out of 261

photo: 6434654077 fa80ce368d 7151
owner: 57706322@N05
title: Mundane-2487
originalsecret: null
originalformat: null
o_height: null
o_width: null
datetaken: 2011-11-30 02:19:21
dateupload: 1322714659
tags: nightphotography blur colors night canon chirstmas bokhe
license: 0
latitude: 41.884151
longitude: -87.632408
accuracy: 11
views: 42
interestingness: 113 out of 261

photo: 6434208793 7c326f68b3 7011
owner: 27418263@N06
title: 38/365: When You Are Old
originalsecret: null
originalformat: null
o_height: null
o_width: null
datetaken: 2011-11-30 18:54:19
dateupload: 1322708059
tags: old square poem sleep squareformat yeats inkwell williambutleryeats totw iphoneography instagramapp uploaded:by=instagram
license: 0
latitude: 37.91495
longitude: -122.307586
accuracy: 9
views: 13
interestingness: 114 out of 261

photo: 6435445013 4a5a352b83 7144
owner: 60027749@N08
title: Rach loves Gary... 2011.
originalsecret: a366a6405e
originalformat: jpg
o_height: 4012
o_width: 3012
datetaken: 2011-10-23 12:22:59
dateupload: 1322731426
tags: yellow moss pavement rails graffito cobbles
license: 0
latitude: 53.738362
longitude: -0.336745
accuracy: 15
views: 19
interestingness: 115 out of 261

photo: 6436062401 57a10b8608 7159
owner: 52857121@N06
title: Day 1 : Danny Au Pays Des Merveilles
originalsecret: null
originalformat: null
o_height: null
o_width: null
datetaken: 2011-12-01 13:36:29
dateupload: 1322744710
tags: mannequin rose flash jardin danny parc pays lapin merveille project365 link?s
license: 0
latitude: 49.741233
longitude: 0.333023
accuracy: 11
views: 78
interestingness: 116 out of 261

photo: 6434815389 f65fb4f889 7013
owner: 28482906@N08
title: by the side of the road
originalsecret: null
originalformat: null
o_height: null
o_width: null
datetaken: 2011-11-30 23:56:38
dateupload: 1322717473
tags: abandoned mediumformat forgotten mamiya645 dufferingrove 80mm leftbehind thrownaway kodakportra400 idontloveyouanymore mamiya645pro epsonv500
license: 0
latitude: 43.656539
longitude: -79.432096
accuracy: 13
views: 70
interestingness: 117 out of 261

photo: 6436446223 7715f68913 7155
owner: 55561654@N03
title: ( Hug ) Highlanders soldiers homecoming parade
originalsecret: null
originalformat: null
o_height: null
o_width: null
datetaken: 2011-12-01 14:01:53
dateupload: 1322750915
tags: city uk family slr love reunion scotland hug aberdeenshire sony north parade highland homecoming aberdeen soldiers alpha dslr slt a77 highlanders dslt alpha77 sonya77 slta77v
license: 0
latitude: 57.148317
longitude: -2.092691
accuracy: 16
views: 97
interestingness: 118 out of 261

photo: 6434787923 bc6f80ef11 7158
owner: 64488174@N06
title: Eagle landing in tree
originalsecret: 4d23807502
originalformat: jpg
o_height: 3264
o_width: 4928
datetaken: 2011-11-30 14:31:40
dateupload: 1322716936
tags: eagle
license: 0
latitude: 49.250999
longitude: -121.951675
accuracy: 11
views: 42
interestingness: 119 out of 261

photo: 6434429937 8eb4bcdf8e 7144
owner: 24395354@N02
title: Day 334 - Ahhhh?.I Love this Place?.
originalsecret: 96505d2d68
originalformat: jpg
o_height: 471
o_width: 640
datetaken: 2011-11-30 12:44:15
dateupload: 1322711355
tags: water plane flickr photoaday burrardinlet 365 northvancouver iphone 2011 project365 365days 365challenge 365community
license: 0
latitude: 49.29
longitude: -123.119
accuracy: 16
views: 38
interestingness: 120 out of 261

photo: 6436727459 0b96981a5f 7005
owner: 61243758@N08
title: DSC03921
originalsecret: null
originalformat: null
o_height: null
o_width: null
datetaken: 2011-12-01 00:08:34
dateupload: 1322754902
tags: sony muslim haram makkah sal1855 slta55v refelemon
license: 0
latitude: 21.422429
longitude: 39.826555
accuracy: 14
views: 54
interestingness: 121 out of 261

photo: 6435763117 ac6d79a637 7154
owner: 12280995@N07
title: Pretty {Little} Pouch received
originalsecret: null
originalformat: null
o_height: null
o_width: null
datetaken: 2011-12-01 11:12:32
dateupload: 1322738795
tags: 
license: 0
latitude: 49.458774
longitude: 2.857337
accuracy: 12
views: 62
interestingness: 122 out of 261

photo: 6435296123 08f6f2a8b6 7034
owner: 25857074@N03
title: UNHCR News Story: 16 Days of Activism: Couples in the Congo stand up to the stigma of rape
originalsecret: null
originalformat: null
o_height: null
o_width: null
datetaken: 2010-11-10 11:37:35
dateupload: 1322727768
tags: africa camp news women hiv rape greatlakes help aid health conflict congo shelter camps information firewood assistance unhcr victims trauma drc flee displacement newsstory idps idp humanitarianaid woma sexualviolence democraticrepublicofthecongo internallydisplacedpeople southkivu genderbasedviolence fdlr forceddisplacement internallydisplaced unrefugeeagency kavumu highcommissionerforrefugees forciblydisplaced violenceagainstwoman theinterahamwe hutumilitia psychosocialandmedicalassistancecentre
license: 0
latitude: -4.03479
longitude: 21.756269
accuracy: 2
views: 108
interestingness: 123 out of 261

photo: 6434077169 0eaba47cf7 7149
owner: 51531976@N00
title: 069
originalsecret: 4878bea310
originalformat: jpg
o_height: 1936
o_width: 2592
datetaken: 2011-11-30 08:15:24
dateupload: 1322706153
tags: 
license: 0
latitude: 44.976333
longitude: -93.2715
accuracy: 16
views: 26
interestingness: 124 out of 261

photo: 6433815181 ae2db8229b 7160
owner: 64026994@N04
title: Up
originalsecret: null
originalformat: null
o_height: null
o_width: null
datetaken: 2011-12-01 08:04:08
dateupload: 1322702305
tags: female beautylove
license: 0
latitude: -6.26
longitude: 106.78833
accuracy: 13
views: 42
interestingness: 125 out of 261

photo: 6436726633 34681e5eea 7162
owner: 60396880@N06
title: I would love a chip!
originalsecret: 22342ddb98
originalformat: jpg
o_height: 2848
o_width: 4288
datetaken: 2011-12-01 14:15:25
dateupload: 1322754891
tags: gateshead quayside turnerprize thebaltic newcastlequayside gatesheadmillenniumbridge tynesidepentax
license: 0
latitude: 54.968549
longitude: -1.615161
accuracy: 11
views: 22
interestingness: 126 out of 261

photo: 6436465463 95532f15db 7008
owner: 46079256@N04
title: My USB desktop Christmas Tree
originalsecret: 0bba424e45
originalformat: jpg
o_height: 2574
o_width: 1860
datetaken: 2011-12-01 14:10:26
dateupload: 1322751188
tags: tree lights christmastree sparkle december1st picnik iphone advent1 iphoneography
license: 0
latitude: 53.764166
longitude: -2.708
accuracy: 16
views: 21
interestingness: 127 out of 261

photo: 6435735255 08808d4bb9 7146
owner: 45788501@N02
title: " NO TITLE "
originalsecret: c897d27b07
originalformat: jpg
o_height: 2178
o_width: 3267
datetaken: 2011-11-08 12:51:46
dateupload: 1322738214
tags: 
license: 0
latitude: 5.815147
longitude: 102.576599
accuracy: 10
views: 10
interestingness: 128 out of 261

photo: 6436516771 b9c67166a7 7010
owner: 53367223@N04
title: Christmas is coming
originalsecret: f9c388c286
originalformat: jpg
o_height: 2736
o_width: 3648
datetaken: 2010-12-25 12:05:05
dateupload: 1322751953
tags: christmas cat memorial feline ricoh cx3
license: 0
latitude: 50.357947
longitude: -4.693565
accuracy: 11
views: 31
interestingness: 129 out of 261

photo: 6435317883 e09101d7ba 7154
owner: 21044393@N02
title: Love...
originalsecret: null
originalformat: null
o_height: null
o_width: null
datetaken: 2011-10-30 11:57:48
dateupload: 1322728299
tags: berlin love germany bench couple
license: 0
latitude: 52.502286
longitude: 13.343281
accuracy: 14
views: 54
interestingness: 130 out of 261

photo: 6435505541 640d880ba2 7011
owner: 11503988@N03
title: Love these colors and leaves
originalsecret: null
originalformat: null
o_height: null
o_width: null
datetaken: 2011-11-30 15:59:26
dateupload: 1322732910
tags: autumn orange tree fall leaves flag santaclarita classymis americanbeautyclassics
license: 0
latitude: 34.41432
longitude: -118.482628
accuracy: 16
views: 49
interestingness: 131 out of 261

photo: 6434307495 e09e019bec 7173
owner: 7388762@N03
title: A Victim of A Railroad Accident At Rest In the Payson Pioneer Cemetery In Payson, Arizona
originalsecret: faedfbb484
originalformat: jpg
o_height: 2866
o_width: 1995
datetaken: 2011-11-19 15:55:43
dateupload: 1322709572
tags: railroad arizona graveyard train headstone tombstone tragedy rancher payson burialground ranching finalrestingplace decapitation americansouthwest accidentaldeath gilacounty paysonpioneercemetery
license: 0
latitude: 34.266402
longitude: -111.276741
accuracy: 15
views: 10
interestingness: 132 out of 261

photo: 6436101237 ef80f6e4c3 7027
owner: 64895534@N02
title: Happy Bad-Ass Post-Apocalyptic Lesbian Love with Cake and Refreshments
originalsecret: fee728136e
originalformat: jpg
o_height: 1120
o_width: 1680
datetaken: 2011-10-30 13:30:02
dateupload: 1322745387
tags: feet strange cake metal tattoo lesbian spread blood kiss finger strangers australia melbourne victoria cupcake 32 canonef2470mmf28lusm thebird entwined happyfeet canon580exii camera:make=canon exif:make=canon exif:focal_length=43mm exif:iso_speed=400 canoneos5dmarkii messyeating geo:city=melbourne geo:state=victoria camera:model=canoneos5dmarkii gavowen exif:lens=ef2470mmf28lusm exif:model=canoneos5dmarkii geo:countrys=australia exif:aperture=?40 geo:lon=14496916145378 geo:lat=37808522677131
license: 0
latitude: -37.808522
longitude: 144.969161
accuracy: 16
views: 115
interestingness: 133 out of 261

photo: 6434511335 1f4c4de97d 7169
owner: 40142450@N00
title: Rust, Essex Dock
originalsecret: c7127b476c
originalformat: jpg
o_height: 1680
o_width: 1113
datetaken: 2011-11-26 13:50:07
dateupload: 1322712540
tags: club rust yacht connecticut essex segal rjseg1
license: 0
latitude: 41.349092
longitude: -72.384581
accuracy: 16
views: 8
interestingness: 134 out of 261

photo: 6435872943 337b7c5a33 7022
owner: 31637729@N07
title: *
originalsecret: null
originalformat: null
o_height: null
o_width: null
datetaken: 2010-08-25 19:49:05
dateupload: 1322741078
tags: old sea love mar couple time pareja together future infinito calma endless tiempo ancianos contempla
license: 0
latitude: 28.865749
longitude: -13.83078
accuracy: 11
views: 61
interestingness: 135 out of 261

photo: 6434656441 d9e204a7dc 7023
owner: 88895358@N00
title: Hello Kitty
originalsecret: null
originalformat: null
o_height: null
o_width: null
datetaken: 2011-09-17 23:44:56
dateupload: 1322714696
tags: kittenonthekeys 3570mmf28d nikkor3570mmf28d talloolahlove nikond700 neworleansburlesquefestival
license: 0
latitude: 29.950156
longitude: -90.06551
accuracy: 16
views: 39
interestingness: 136 out of 261

photo: 6436469939 368d53f565 7169
owner: 51035555243@N01
title: I Love You Pretty Baby But I Always Take the Long Way Home
originalsecret: 5b800d2b8e
originalformat: jpg
o_height: 1365
o_width: 2048
datetaken: 2010-07-18 09:06:46
dateupload: 1322751255
tags: fish atlantis bahamas paradiseisland thebahamas atlantisparadiseisland
license: 2
latitude: 25.085402
longitude: -77.318478
accuracy: 16
views: 36
interestingness: 137 out of 261

photo: 6435262819 fe8f72fe72 7022
owner: 9274198@N04
title: WhiteRose from Tokyo
originalsecret: null
originalformat: null
o_height: null
o_width: null
datetaken: 2009-07-11 12:54:02
dateupload: 1322727041
tags: flower love rose closeup nikon peace dove 1855 whiterose d60
license: 0
latitude: 35.684629
longitude: 139.709186
accuracy: 11
views: 17
interestingness: 138 out of 261

photo: 6436742723 4945ee0a5a 7158
owner: 27191306@N04
title: Titanium Lorus Watch
originalsecret: null
originalformat: null
o_height: null
o_width: null
datetaken: 2011-12-01 16:38:52
dateupload: 1322755101
tags: camera blue silver titanium timekeeping canon85mmf18 newpurchase 5dmkii canon5dmk2 loruswatch
license: 0
latitude: 51.503052
longitude: -0.857019
accuracy: 14
views: 48
interestingness: 139 out of 261

photo: 6435763119 829d8f5165 7002
owner: 8531291@N02
title: Easy love...
originalsecret: d15f1f3518
originalformat: jpg
o_height: 2382
o_width: 2382
datetaken: 2011-09-24 16:28:54
dateupload: 1322738795
tags: boy blackandwhite bw man guy tattoo square dude
license: 0
latitude: 18.052759
longitude: -66.506828
accuracy: 11
views: 4
interestingness: 140 out of 261

photo: 6434239445 35fe687ffe 7008
owner: 82335642@N00
title: please do not climb on the big noodle sculpture
originalsecret: null
originalformat: null
o_height: null
o_width: null
datetaken: 2011-11-30 16:33:45
dateupload: 1322708563
tags: park sculpture love philadelphia noodle
license: 0
latitude: 39.95389
longitude: -75.165485
accuracy: 16
views: 24
interestingness: 141 out of 261

photo: 6435908761 245decc715 7020
owner: 49777488@N08
title: Cockatoo Island & Blackhawks
originalsecret: null
originalformat: null
o_height: null
o_width: null
datetaken: 2011-11-28 15:55:23
dateupload: 1322741808
tags: helicopter blackhawk sydneyharbour shipbuilding cockatooisland
license: 0
latitude: -33.848641
longitude: 151.170158
accuracy: 13
views: 10
interestingness: 142 out of 261

photo: 6435322673 5cea951573 7145
owner: 48985223@N04
title: "The Girl I Left Behind Me" by Eastman Johnson (Detail)
originalsecret: null
originalformat: null
o_height: null
o_width: null
datetaken: 2011-11-28 01:53:14
dateupload: 1322728413
tags: detail me girl by johnson behind eastman left the i
license: 0
latitude: 38.897792
longitude: -77.022947
accuracy: 16
views: 11
interestingness: 143 out of 261

photo: 6434404645 c6fafe9b3b 7162
owner: 37424391@N07
title: The Legend of Broken hand Fitzpatrick,.9 of 9
originalsecret: null
originalformat: null
o_height: null
o_width: null
datetaken: 2011-11-30 22:43:09
dateupload: 1322710989
tags: pictures life new york wild fish news bird love nature birds john jack island fly long peace pics hawk conservation prey laurie fowl devlin foul hawks fitzpatrick migrating sigel migrate a leisen mcnaulty whatsupcom httpwwwflickrcomphotosjackleisen jackleisengmailcom httpwwwyoutubecomjackleisen mcnolte
license: 0
latitude: 42.81958
longitude: -108.03955
accuracy: 5
views: 15
interestingness: 144 out of 261

photo: 6436630477 032bfd0797 7010
owner: 22154104@N00
title: Pakkekalender
originalsecret: 88312513fd
originalformat: jpg
o_height: 1727
o_width: 2303
datetaken: 2011-12-01 09:37:32
dateupload: 1322753606
tags: christmas beer denmark december calendar kalender adventcalendar ?l pakkekalender
license: 1
latitude: 55.672165
longitude: 12.557667
accuracy: 16
views: 88
interestingness: 145 out of 261

photo: 6434310427 efbd1bdf39 7007
owner: 53055958@N00
title: night lights skimming on the river
originalsecret: null
originalformat: null
o_height: null
o_width: null
datetaken: 2011-11-22 21:01:59
dateupload: 1322709616
tags: city november urban black blur southwest west water skyline architecture modern night skyscraper work buildings austin river boats lights office nikon texas south austintexas silence citylights coloradoriver dslr slowshutterspeed congressbridge 2011 d80 nikond80 jensphotography ladybirdriver
license: 0
latitude: 30.262347
longitude: -97.74506
accuracy: 14
views: 15
interestingness: 146 out of 261

photo: 6436095231 784790bea3 7023
owner: 23525093@N07
title: Prayers of Abandonment
originalsecret: 4d45c4fb0c
originalformat: jpg
o_height: 683
o_width: 1024
datetaken: 2011-12-01 04:24:56
dateupload: 1322745282
tags: ocean longexposure blue beach bluehour reverebeach twighlight thebluehour
license: 0
latitude: 42.420225
longitude: -70.985927
accuracy: 13
views: 17
interestingness: 147 out of 261

photo: 6434962757 b08511d60b 7154
owner: 30446790@N07
title: Ke'e Beach Stroll
originalsecret: null
originalformat: null
o_height: null
o_width: null
datetaken: 2011-11-30 20:16:56
dateupload: 1322720341
tags: ocean beach water grey hawaii coast sand waves gloomy pacific walk north lagoon cliffs shore promenade kauai layers pali stroll napali kee
license: 0
latitude: 22.222186
longitude: -159.582638
accuracy: 16
views: 97
interestingness: 148 out of 261

photo: 6434942373 aaa7dc3b5c 7024
owner: 49736367@N03
title: Loneliness @Mahapalipuram Rock
originalsecret: null
originalformat: null
o_height: null
o_width: null
datetaken: 2011-11-20 16:50:45
dateupload: 1322719947
tags: temple goat tamilnadu mahapalipuram
license: 0
latitude: 12.619799
longitude: 80.190246
accuracy: 11
views: 14
interestingness: 149 out of 261

photo: 6433832829 3d26638e45 7018
owner: 64026994@N04
title: Pretty love
originalsecret: null
originalformat: null
o_height: null
o_width: null
datetaken: 2011-12-01 08:16:14
dateupload: 1322702571
tags: female potrait
license: 0
latitude: -6.25673
longitude: 106.788182
accuracy: 13
views: 29
interestingness: 150 out of 261

photo: 6433677505 a9c6d0d629 7008
owner: 10168721@N02
title: Chris "Keris" Croughton - Funeral
originalsecret: 11f4cf319f
originalformat: jpg
o_height: 3000
o_width: 4000
datetaken: 2011-11-30 14:39:42
dateupload: 1322700259
tags: funeral keris
license: 0
latitude: 52.173194
longitude: -0.713081
accuracy: 12
views: 145
interestingness: 151 out of 261

photo: 6436543163 47f2bdc72e 7164
owner: 55819973@N05
title: Santa Claus 1881
originalsecret: b0e747a65e
originalformat: jpg
o_height: 300
o_width: 214
datetaken: 2011-12-01 10:12:21
dateupload: 1322752341
tags: santa old man love boston illustration hair toys eyes poem victorian clipart claus poets missed connections fashioned lovelorn
license: 4
latitude: 42.312561
longitude: -71.088676
accuracy: 11
views: 2
interestingness: 152 out of 261

photo: 6436442383 2ae5356814 7166
owner: 62214407@N04
title: Cuore
originalsecret: null
originalformat: null
o_height: null
o_width: null
datetaken: 2011-05-25 14:49:56
dateupload: 1322750859
tags: door italy milan love italia heart milano porta cuore amore
license: 0
latitude: 45.470063
longitude: 9.179248
accuracy: 12
views: 0
interestingness: 153 out of 261

photo: 6436368339 83248057df 7155
owner: 62214407@N04
title: Luce
originalsecret: null
originalformat: null
o_height: null
o_width: null
datetaken: 2011-10-11 15:31:55
dateupload: 1322749761
tags: flowers love cemetery graveyard statue dead death sadness pain scary heaven tears milano prayer religion hell statues graves morte angels horror inferno despair gloom lantern angelo cry melancholy fiori tear monuments desperation monumenti amore malinconia prayers lanterna paradiso morto tombe tristezza cimitero angeli dolore preghiera lacrima religione paura lacrime morti disperazione piangere preghiere cimiteromonumentaledimilano
license: 0
latitude: 45.470063
longitude: 9.179248
accuracy: 12
views: 10
interestingness: 154 out of 261

photo: 6436352953 f82cf8cd28 7007
owner: 62214407@N04
title: Fiori appassiti
originalsecret: null
originalformat: null
o_height: null
o_width: null
datetaken: 2011-10-12 12:45:01
dateupload: 1322749540
tags: flowers love cemetery graveyard statue dead death sadness pain scary wings heaven tears milano prayer religion hell statues graves ali morte angels horror inferno despair gloom angelo cry melancholy fiori tear monuments desperation monumenti amore malinconia prayers paradiso morto tombe tristezza cimitero angeli dolore preghiera lacrima religione paura lacrime morti disperazione piangere preghiere cimiteromonumentaledimilano
license: 0
latitude: 45.470063
longitude: 9.179248
accuracy: 12
views: 12
interestingness: 155 out of 261

photo: 6436328763 902e9900a4 7141
owner: 62214407@N04
title: Amore
originalsecret: null
originalformat: null
o_height: null
o_width: null
datetaken: 2011-10-11 15:05:40
dateupload: 1322749193
tags: flowers love cemetery graveyard statue dead death sadness pain scary wings heaven tears milano prayer religion hell statues graves ali morte angels horror inferno despair gloom angelo cry melancholy fiori tear monuments desperation monumenti amore malinconia prayers paradiso morto tombe tristezza cimitero angeli dolore preghiera lacrima religione paura lacrime morti disperazione piangere preghiere cimiteromonumentaledimilano
license: 0
latitude: 45.470063
longitude: 9.179248
accuracy: 12
views: 12
interestingness: 156 out of 261

photo: 6436251647 c2d644bcc3 7026
owner: 21652490@N06
title: Faces of Lucy
originalsecret: null
originalformat: null
o_height: null
o_width: null
datetaken: 2011-06-01 00:00:00
dateupload: 1322748015
tags: shop silver lucy orlando florida screen hollywood ricardo column universal studios universalstudios themepark collectibles ilovelucy universalorlando universalstudiosflorida vitameatavegamin lucyricardo silverscreencollectibles
license: 0
latitude: 28.478046
longitude: -81.467185
accuracy: 14
views: 9
interestingness: 157 out of 261

photo: 6435779783 65b0c59585 7162
owner: 73439432@N00
title: The Balloon Bender
originalsecret: 36681940d0
originalformat: jpg
o_height: 3264
o_width: 4928
datetaken: 2011-10-29 14:10:27
dateupload: 1322739156
tags: kids balloons stroller shows 18200mmf3556gvr so camera:lens=18200mmf3556gvr d7000 camera:camera=d7000 ?
license: 0
latitude: 25.04165
longitude: 121.563
accuracy: 16
views: 23
interestingness: 158 out of 261

photo: 6435758675 b7e9e722e0 7171
owner: 60850520@N05
title: 01102011(010) - Sunraysia style wheel with Bridgestone 604V tyre fitted.
originalsecret: 8613535d40
originalformat: jpg
o_height: 1200
o_width: 1600
datetaken: 2011-10-01 08:50:31
dateupload: 1322738702
tags: park family house love home point king view hole box pov pussy perspective royal tunnel kong vision national toyota vagina what oh series feeling shire product 80 sutherland pandora landcruiser twat axiom klang humble abode insurgent povray persistence pandoras kling infidel navar sutho zonavar navarzo navarzo2 navarzo3
license: 0
latitude: -34.13525
longitude: 150.994216
accuracy: 11
views: 9
interestingness: 159 out of 261

photo: 6435548067 25405b3142 7028
owner: 43743101@N02
title: MY Joy
originalsecret: null
originalformat: null
o_height: null
o_width: null
datetaken: 2011-05-29 13:07:31
dateupload: 1322733996
tags: ocean woman sun man love water smile couple thai laugh phiphiislands mylifemystory
license: 0
latitude: 7.766443
longitude: 98.776359
accuracy: 11
views: 28
interestingness: 160 out of 261

photo: 6435526209 57615a6139 7170
owner: 65509306@N03
title: Day 107: "Decline of the West" by Conor Harrington
originalsecret: null
originalformat: null
o_height: null
o_width: null
datetaken: 2011-12-01 09:57:15
dateupload: 1322733435
tags: streetart square mural squareformat brannan e1 manonhorse declineofthewest postgrafitti conorharrington shoreditchart iphoneography instagramapp uploaded:by=instagram fashionstreetgrafitti
license: 0
latitude: 51.518397
longitude: -0.073871
accuracy: 15
views: 36
interestingness: 161 out of 261

photo: 6435449659 4c62670186 7031
owner: 27135543@N07
title: 0026_21A_30072009_19082009_?rg?p - T?rkiye
originalsecret: null
originalformat: null
o_height: null
o_width: null
datetaken: 2011-11-18 17:39:43
dateupload: 1322731536
tags: bw turkey blackwhite t?rkiye bn biancoenero massimo cappadocia anatolia g?reme turchia nev?ehir lovevalley g?remenationalpark unescu g?rememilliparklar rocksitesofcappadocia valledellamore marmugimassimo marmugi g?remenationalparkandtherocksitesofcappadocia ?????? anatoliacentrale parconazionaledig?reme massimomarmugiworkshop massimomarmugi ?rg?pt?rkiye g?remelovevalley valledellamoredigoreme
license: 0
latitude: 38.653075
longitude: 34.82872
accuracy: 10
views: 11
interestingness: 162 out of 261

photo: 6435445517 b84d2cd72a 7171
owner: 27135543@N07
title: 0026_6A_30072009_19082009_?rg?p - T?rkiye
originalsecret: null
originalformat: null
o_height: null
o_width: null
datetaken: 2011-11-18 17:36:52
dateupload: 1322731438
tags: bw turkey blackwhite t?rkiye bn massimo cappadocia anatolia g?reme turchia nev?ehir lovevalley g?remenationalpark unescu g?rememilliparklar rocksitesofcappadocia valledellamore marmugimassimo marmugi g?remenationalparkandtherocksitesofcappadocia ?????? anatoliacentrale parconazionaledig?reme massimomarmugiworkshop massimomarmugi ?rg?pt?rkiye g?remelovevalley valledellamoredigoreme
license: 0
latitude: 38.631401
longitude: 34.913101
accuracy: 11
views: 10
interestingness: 163 out of 261

photo: 6435442839 3c0e81e532 7141
owner: 27135543@N07
title: 0026_5A_30072009_19082009_?rg?p - T?rkiye
originalsecret: null
originalformat: null
o_height: null
o_width: null
datetaken: 2011-11-18 17:35:53
dateupload: 1322731373
tags: bw turkey blackwhite t?rkiye bn massimo cappadocia anatolia g?reme turchia nev?ehir lovevalley g?remenationalpark unescu g?rememilliparklar rocksitesofcappadocia valledellamore marmugimassimo marmugi g?remenationalparkandtherocksitesofcappadocia ?????? anatoliacentrale parconazionaledig?reme massimomarmugiworkshop massimomarmugi ?rg?pt?rkiye g?remelovevalley valledellamoredigoreme
license: 0
latitude: 38.628136
longitude: 34.91043
accuracy: 11
views: 8
interestingness: 164 out of 261

photo: 6435428669 0f1b481dd8 7174
owner: 66815408@N08
title: Kalkidan se d?tend
originalsecret: null
originalformat: null
o_height: null
o_width: null
datetaken: 2011-09-21 17:28:35
dateupload: 1322731041
tags: africa color colour net beauty computer geotagged tanzania lumix bed neon room zanzibar lit chambre fen?tre couleur mylove afrique eastafrica miamor tanzanie africanwoman monamour leicalens compactdigitalcamera ethiopianwoman afriquedelest femmeafricaine zador kalkidan ?thiopienne panasonicdmczr3
license: 0
latitude: -6.163339
longitude: 39.190893
accuracy: 16
views: 20
interestingness: 165 out of 261

photo: 6435379529 7372f3b928 7008
owner: 70809628@N08
title: Vlad & Julia
originalsecret: null
originalformat: null
o_height: null
o_width: null
datetaken: 2011-08-14 14:27:29
dateupload: 1322729845
tags: summer love photo couple photos russia lovestory feelings potography maxicam canoneos60d amigomaxlistru
license: 0
latitude: 56.089014
longitude: 37.738852
accuracy: 14
views: 20
interestingness: 166 out of 261

photo: 6435379377 3c6341e3f6 7025
owner: 70809628@N08
title: Vlad & Julia
originalsecret: null
originalformat: null
o_height: null
o_width: null
datetaken: 2011-08-14 14:24:47
dateupload: 1322729841
tags: summer love photo couple photos russia lovestory feelings potography maxicam canoneos60d amigomaxlistru
license: 0
latitude: 56.091157
longitude: 37.73735
accuracy: 14
views: 19
interestingness: 167 out of 261

photo: 6435379067 423971fb65 7157
owner: 70809628@N08
title: Vlad & Julia
originalsecret: null
originalformat: null
o_height: null
o_width: null
datetaken: 2011-08-14 14:21:45
dateupload: 1322729833
tags: summer love photo couple photos russia lovestory feelings potography maxicam canoneos60d amigomaxlistru
license: 0
latitude: 56.089972
longitude: 37.738251
accuracy: 14
views: 21
interestingness: 168 out of 261

photo: 6435378731 298f12c84c 7169
owner: 70809628@N08
title: Vlad & Julia
originalsecret: null
originalformat: null
o_height: null
o_width: null
datetaken: 2011-08-14 14:14:08
dateupload: 1322729825
tags: summer love photo couple photos russia lovestory feelings potography maxicam canoneos60d amigomaxlistru
license: 0
latitude: 56.090175
longitude: 37.738251
accuracy: 14
views: 15
interestingness: 169 out of 261

photo: 6435081129 031d398cd9 7172
owner: 34325628@N05
title: Cowboy and Girlfriend on the Boardwalk, Atlantic City NJ
originalsecret: 769ceffce2
originalformat: jpg
o_height: 2455
o_width: 3814
datetaken: 2011-11-26 16:37:10
dateupload: 1322722906
tags: city people urban love newjersey walks forsale nj couples lovers posters atlanticcity jersey romantic holdinghands ac jerseyshore bookcovers albumcovers tunnelvision boardwalks cowbows jerze chrisgoldberg
license: 2
latitude: 39.356035
longitude: -74.429905
accuracy: 15
views: 20
interestingness: 170 out of 261

photo: 6434942941 4f7233ece1 7034
owner: 21738253@N03
title: Reminds of the 1950s
originalsecret: 6b4954af3d
originalformat: jpg
o_height: 3600
o_width: 2400
datetaken: 2011-04-10 14:00:03
dateupload: 1322719959
tags: urban holland netherlands dutch amsterdam blackwhite architechture oudezijdsvoorburgwal 2011 renaissancearchitecture dutchgoldenage brickrowhouse
license: 1
latitude: 52.375064
longitude: 4.899985
accuracy: 15
views: 1
interestingness: 171 out of 261

photo: 6434939439 4e50d72b82 7009
owner: 21738253@N03
title: 11 Oudezijds Voorburgwal
originalsecret: f9a5205d9d
originalformat: jpg
o_height: 3888
o_width: 2592
datetaken: 2011-04-10 14:00:04
dateupload: 1322719886
tags: urban holland brick netherlands dutch amsterdam architechture rowhouse oudezijdsvoorburgwal 2011 renaissancearchitecture dutchgoldenage
license: 1
latitude: 52.375064
longitude: 4.899985
accuracy: 15
views: 0
interestingness: 172 out of 261

photo: 6434818773 e43d4e023d 7166
owner: 18091126@N00
title: Biscuit Rock
originalsecret: null
originalformat: null
o_height: null
o_width: null
datetaken: 2011-10-29 18:42:09
dateupload: 1322717536
tags: sunset grand wash capitolreefnationalpark
license: 0
latitude: 38.263641
longitude: -111.215929
accuracy: 14
views: 13
interestingness: 173 out of 261

photo: 6434400121 c99d815c98 7010
owner: 37424391@N07
title: The Legend of Broken hand Fitzpatrick,.8 of 9
originalsecret: null
originalformat: null
o_height: null
o_width: null
datetaken: 2011-11-30 22:42:10
dateupload: 1322710930
tags: pictures life new york wild fish news bird love nature birds john jack island fly long peace pics hawk conservation prey laurie fowl devlin foul hawks fitzpatrick migrating sigel migrate a leisen mcnaulty whatsupcom httpwwwflickrcomphotosjackleisen jackleisengmailcom httpwwwyoutubecomjackleisen mcnolte
license: 0
latitude: 42.875964
longitude: -107.929687
accuracy: 5
views: 13
interestingness: 174 out of 261

photo: 6434391621 4793d07952 7022
owner: 37424391@N07
title: The Legend of Broken hand Fitzpatrick,.7 of 9
originalsecret: null
originalformat: null
o_height: null
o_width: null
datetaken: 2011-11-30 22:40:17
dateupload: 1322710817
tags: pictures life new york wild fish news bird love nature birds john jack island fly long peace pics hawk conservation prey laurie fowl devlin foul hawks fitzpatrick migrating sigel migrate a leisen mcnaulty whatsupcom httpwwwflickrcomphotosjackleisen jackleisengmailcom httpwwwyoutubecomjackleisen mcnolte
license: 0
latitude: 42.859859
longitude: -108.28125
accuracy: 5
views: 8
interestingness: 175 out of 261

photo: 6434383241 ca7d10cac7 7002
owner: 37424391@N07
title: The Legend of Broken hand Fitzpatrick,.6 of 9
originalsecret: null
originalformat: null
o_height: null
o_width: null
datetaken: 2011-11-30 22:38:11
dateupload: 1322710691
tags: pictures life new york wild fish news bird love nature birds john jack island fly long peace pics hawk conservation prey laurie fowl devlin foul hawks fitzpatrick migrating sigel migrate a leisen mcnaulty whatsupcom httpwwwflickrcomphotosjackleisen jackleisengmailcom httpwwwyoutubecomjackleisen mcnolte
license: 0
latitude: 42.835695
longitude: -107.973632
accuracy: 5
views: 9
interestingness: 176 out of 261

photo: 6434376161 9e6a074100 7143
owner: 37424391@N07
title: The Legend of Broken hand Fitzpatrick,.5 of 9
originalsecret: null
originalformat: null
o_height: null
o_width: null
datetaken: 2011-11-30 22:36:26
dateupload: 1322710586
tags: pictures life new york wild fish news bird love nature birds john jack island fly long peace pics hawk conservation prey laurie fowl devlin foul hawks fitzpatrick migrating sigel migrate a leisen mcnaulty whatsupcom httpwwwflickrcomphotosjackleisen jackleisengmailcom httpwwwyoutubecomjackleisen mcnolte
license: 0
latitude: 42.892064
longitude: -108.083496
accuracy: 5
views: 7
interestingness: 177 out of 261

photo: 6434328775 4bddce4a31 7016
owner: 37424391@N07
title: The Legend of Broken hand Fitzpatrick,.4 of 9
originalsecret: null
originalformat: null
o_height: null
o_width: null
datetaken: 2011-11-30 22:24:58
dateupload: 1322709898
tags: pictures life new york wild fish news bird love nature birds john jack island fly long peace pics hawk conservation prey laurie fowl devlin foul hawks fitzpatrick migrating sigel migrate a leisen mcnaulty whatsupcom httpwwwflickrcomphotosjackleisen jackleisengmailcom httpwwwyoutubecomjackleisen mcnolte
license: 0
latitude: 42.851806
longitude: -108.017578
accuracy: 5
views: 13
interestingness: 178 out of 261

photo: 6434318003 4f148967ec 7173
owner: 37424391@N07
title: The Legend of Broken hand Fitzpatrick,.3 of 9
originalsecret: null
originalformat: null
o_height: null
o_width: null
datetaken: 2011-11-30 22:22:14
dateupload: 1322709734
tags: pictures life new york wild fish news bird love nature birds john jack island fly long peace pics hawk conservation prey laurie fowl devlin foul hawks fitzpatrick migrating sigel migrate a leisen mcnaulty whatsupcom httpwwwflickrcomphotosjackleisen jackleisengmailcom httpwwwyoutubecomjackleisen mcnolte
license: 0
latitude: 42.90816
longitude: -108.105468
accuracy: 5
views: 10
interestingness: 179 out of 261

photo: 6434291431 1f0cfa1220 7171
owner: 37424391@N07
title: The Legend of Broken hand Fitzpatrick,.2 of 9
originalsecret: null
originalformat: null
o_height: null
o_width: null
datetaken: 2011-11-30 22:15:30
dateupload: 1322709330
tags: pictures life new york wild fish news bird love nature birds john jack island fly long peace pics hawk conservation prey laurie fowl devlin foul hawks fitzpatrick migrating sigel migrate a leisen mcnaulty whatsupcom httpwwwflickrcomphotosjackleisen jackleisengmailcom httpwwwyoutubecomjackleisen mcnolte
license: 0
latitude: 42.916206
longitude: -107.95166
accuracy: 5
views: 10
interestingness: 180 out of 261

photo: 6434223315 3b56f9e5fe 7170
owner: 37424391@N07
title: The Legend of Broken hand Fitzpatrick,.1 of 9
originalsecret: null
originalformat: null
o_height: null
o_width: null
datetaken: 2011-11-30 19:02:43
dateupload: 1322708311
tags: pictures life new york wild fish news bird love nature birds john jack island fly long peace pics hawk conservation prey laurie fowl devlin foul hawks fitzpatrick migrating sigel migrate a leisen mcnaulty whatsupcom httpwwwflickrcomphotosjackleisen jackleisengmailcom httpwwwyoutubecomjackleisen mcnolte
license: 0
latitude: 43.000289
longitude: -107.554046
accuracy: 5
views: 8
interestingness: 181 out of 261

photo: 6433686767 f4b6f2414a 7165
owner: 13281029@N00
title: Crazy Little Thing Called Love
originalsecret: a2f10cd9a2
originalformat: jpg
o_height: 1734
o_width: 2602
datetaken: 2011-11-30 18:32:18
dateupload: 1322700389
tags: selfpic msh1111 msh11111
license: 1
latitude: 29.884448
longitude: -97.945497
accuracy: 14
views: 2
interestingness: 182 out of 261

photo: 6436246631 edb3edc05c 7027
owner: 60041410@N06
title: Tree
originalsecret: null
originalformat: null
o_height: null
o_width: null
datetaken: 2011-11-20 12:46:08
dateupload: 1322747933
tags: tree amsterdam mists
license: 0
latitude: 52.359981
longitude: 4.947051
accuracy: 11
views: 19
interestingness: 183 out of 261

photo: 6435709737 c8a32a0a70 7017
owner: 55771175@N08
title: Seen in the Upper Peninsular Michigan USA 8
originalsecret: null
originalformat: null
o_height: null
o_width: null
datetaken: 2011-09-28 10:00:08
dateupload: 1322737681
tags: ithink ijustcouldntresistthissetofphotostheymademesmilesomuchanditwassounexpectedtoseethemasiwasdrivingthroughmichigansupperpeninsularobviouslyaguywithasenseofhumourallmade fromoldcarpartsandbitsofscrapingeneralespeciallylovethedeerheadithasteeth
license: 0
latitude: 46.124652
longitude: -85.385742
accuracy: 7
views: 4
interestingness: 184 out of 261

photo: 6435708999 c7270380e0 7016
owner: 55771175@N08
title: Seen in the Upper Peninsular Michigan USA 5
originalsecret: null
originalformat: null
o_height: null
o_width: null
datetaken: 2011-09-28 10:00:04
dateupload: 1322737666
tags: ithink ijustcouldntresistthissetofphotostheymademesmilesomuchanditwassounexpectedtoseethemasiwasdrivingthroughmichigansupperpeninsularobviouslyaguywithasenseofhumourallmade fromoldcarpartsandbitsofscrapingeneralespeciallylovethedeerheadithasteeth
license: 0
latitude: 46.109421
longitude: -85.369262
accuracy: 7
views: 6
interestingness: 185 out of 261

photo: 6435673551 0b307d1377 7144
owner: 13175285@N04
title: Quiet Moment
originalsecret: null
originalformat: null
o_height: null
o_width: null
datetaken: 2011-11-26 18:03:01
dateupload: 1322736951
tags: sanfrancisco sunset beach night evening clear madison 2011 madisonbeachsunset
license: 0
latitude: 37.619806
longitude: -122.497043
accuracy: 11
views: 13
interestingness: 186 out of 261

photo: 6433723915 076df66855 7157
owner: 49193077@N03
title: Love Me Some Fabulous Boots 157/365-11/30/11
originalsecret: 79edc2a405
originalformat: jpg
o_height: 600
o_width: 600
datetaken: 2011-11-30 16:55:18
dateupload: 1322700948
tags: brown love fashion shoes boots vincecamuto hipstamatic inas1935film hornbeckerlens
license: 0
latitude: 33.701333
longitude: -117.767334
accuracy: 16
views: 19
interestingness: 187 out of 261

photo: 6436077481 951788dd2b 7033
owner: 69323676@N08
title: kokettieren flirten
originalsecret: 6b33d9abed
originalformat: jpg
o_height: 640
o_width: 1024
datetaken: 2010-06-03 16:59:33
dateupload: 1322744981
tags: bird flirt vogel amselturdusmerulablackbird kokettiert
license: 0
latitude: 52.20353
longitude: 10.513057
accuracy: 13
views: 2
interestingness: 188 out of 261

photo: 6435427891 98eb963631 7164
owner: 90425101@N00
title: Dec 1st - LEGO Star Wars Advent Calendar 2011
originalsecret: 8d11b732df
originalformat: jpg
o_height: 2736
o_width: 3648
datetaken: 2011-12-01 09:05:08
dateupload: 1322731024
tags: starwars advent lego 1stdec day1
license: 2
latitude: 52.408479
longitude: -1.600946
accuracy: 16
views: 99
interestingness: 189 out of 261

photo: 6434893403 12f7abcc22 7035
owner: 22482729@N06
title: WEEK 22
originalsecret: null
originalformat: null
o_height: null
o_width: null
datetaken: 2011-12-01 17:05:11
dateupload: 1322718968
tags: newzealand auckland manukau aucklandcity markryan canon7d nzlensman rahimmryan
license: 0
latitude: -36.953981
longitude: 174.873279
accuracy: 15
views: 21
interestingness: 190 out of 261

photo: 6434332823 30cf35616a 7028
owner: 71047115@N05
title: Book love
originalsecret: null
originalformat: null
o_height: null
o_width: null
datetaken: 2009-03-05 18:24:21
dateupload: 1322709954
tags: 
license: 0
latitude: -34.470618
longitude: -58.528633
accuracy: 12
views: 3
interestingness: 191 out of 261

photo: 6433791339 d6aa26f24e 7007
owner: 64746955@N00
title: Love & Rememberance ~ 17412
originalsecret: null
originalformat: null
o_height: null
o_width: null
datetaken: 2011-11-24 14:21:29
dateupload: 1322701957
tags: 
license: 0
latitude: 40.708173
longitude: -74.012231
accuracy: 15
views: 23
interestingness: 192 out of 261

photo: 6436486249 5737f8c672 7031
owner: 56328823@N00
title: Wearing on my scrubs today. I love this pin.
originalsecret: c90f318909
originalformat: jpg
o_height: 612
o_width: 612
datetaken: 2011-12-01 09:58:25
dateupload: 1322751505
tags: square squareformat hudson iphoneography instagramapp uploaded:by=instagram foursquare:venue=4bae898cf964a5201dbe3be3
license: 0
latitude: 40.017207
longitude: -75.149021
accuracy: 16
views: 2
interestingness: 193 out of 261

photo: 6436012687 24d12421fc 7002
owner: 36001761@N02
title: I love this place...
originalsecret: 715227185f
originalformat: jpg
o_height: 612
o_width: 612
datetaken: 2011-12-01 13:50:19
dateupload: 1322743819
tags: square squareformat iphoneography instagramapp xproii uploaded:by=instagram foursquare:venue=4e3ee92e45dd68e3274d2210
license: 1
latitude: 40.340265
longitude: -3.731532
accuracy: 16
views: 1
interestingness: 194 out of 261

photo: 6435782781 1d981129f9 7142
owner: 28435713@N07
title: First Flowers of the Christmas Cactus
originalsecret: null
originalformat: null
o_height: null
o_width: null
datetaken: 2011-11-29 13:17:28
dateupload: 1322739222
tags: pink flower macro texture christmascactus flowering shimmer
license: 0
latitude: 54.593151
longitude: -1.315956
accuracy: 11
views: 3
interestingness: 195 out of 261

photo: 6435711907 26c59b60cb 7149
owner: 88713127@N00
title: Silver Birch!  329/365   24/11/2011
originalsecret: null
originalformat: null
o_height: null
o_width: null
datetaken: 2011-11-24 14:26:33
dateupload: 1322737725
tags: scotland edinburgh 365 2011 nov365 d7000 3652011
license: 0
latitude: 55.950179
longitude: -3.19922
accuracy: 15
views: 4
interestingness: 196 out of 261

photo: 6435516721 a03825f479 7168
owner: 68435899@N02
title: Fremantle
originalsecret: null
originalformat: null
o_height: null
o_width: null
datetaken: 2011-11-28 21:40:06
dateupload: 1322733207
tags: perth fremantle
license: 0
latitude: -32.05286
longitude: 115.748237
accuracy: 13
views: 3
interestingness: 197 out of 261

photo: 6435459955 a841329c0e 7034
owner: 63968630@N05
title: I love a good building number. Here's one I found the other day.   #antinorm's#abstractmybuilding#abstract#building#numbermystreet#iphone#photooftheday#instamood#got_talent#jj#igoftheday#photooftheday#populagram#instagramhub#IgersAustralia#IgersBrisbane#B
originalsecret: null
originalformat: null
o_height: null
o_width: null
datetaken: 2011-12-01 19:29:48
dateupload: 1322731788
tags: square squareformat earlybird iphoneography instagramapp uploaded:by=instagram foursquare:venue=4d077ecba2685481f202c7bd
license: 0
latitude: -27.465745
longitude: 153.050939
accuracy: 16
views: 0
interestingness: 198 out of 261

photo: 6435440797 257e081731 7141
owner: 71136231@N03
title: A view to love
originalsecret: null
originalformat: null
o_height: null
o_width: null
datetaken: 2011-10-20 11:31:55
dateupload: 1322731326
tags: sensethecity
license: 0
latitude: 51.507833
longitude: -0.125834
accuracy: 16
views: 26
interestingness: 199 out of 261

photo: 6435323231 134aae5ed2 7033
owner: 66463213@N00
title: Love these boys.
originalsecret: null
originalformat: null
o_height: null
o_width: null
datetaken: 2011-12-01 08:33:46
dateupload: 1322728426
tags: square squareformat walden iphoneography instagramapp uploaded:by=instagram foursquare:venue=43f0ed34f964a520802f1fe3
license: 0
latitude: 37.287895
longitude: -121.934037
accuracy: 16
views: 2
interestingness: 200 out of 261

photo: 6434918615 b268b8af70 7017
owner: 21738253@N03
title: Big Red Bus
originalsecret: e0a47f1c81
originalformat: jpg
o_height: 2592
o_width: 3888
datetaken: 2011-04-10 14:00:00
dateupload: 1322719473
tags: urban holland netherlands dutch amsterdam redbus 2011
license: 1
latitude: 52.378009
longitude: 4.896908
accuracy: 16
views: 0
interestingness: 201 out of 261

photo: 6434850367 be2ce85075 7005
owner: 90577354@N00
title: Love Cappuchino
originalsecret: null
originalformat: null
o_height: null
o_width: null
datetaken: 2011-11-30 21:42:28
dateupload: 1322718148
tags: square squareformat normal iphoneography instagramapp uploaded:by=instagram foursquare:venue=4bd282a077b29c74bd048f82
license: 0
latitude: 40.60752
longitude: 140.479938
accuracy: 16
views: 0
interestingness: 202 out of 261

photo: 6434623899 ed3993101c 7160
owner: 95071949@N00
title: Alfredo Saves a Life
originalsecret: 597696a9eb
originalformat: jpg
o_height: 450
o_width: 800
datetaken: 2011-11-22 16:14:46
dateupload: 1322714199
tags: snow mountains peru clouds landscape altitude salkantaytrail
license: 1
latitude: -10.395974
longitude: -74.047851
accuracy: 6
views: 13
interestingness: 203 out of 261

photo: 6434604817 e30874942e 7005
owner: 57804393@N02
title: Mark Anthony.
originalsecret: null
originalformat: null
o_height: null
o_width: null
datetaken: 2011-11-30 20:31:51
dateupload: 1322713911
tags: square squareformat rise iphoneography instagramapp uploaded:by=instagram foursquare:venue=45f412e6f964a520f6431fe3
license: 0
latitude: 45.589071
longitude: -122.593281
accuracy: 16
views: 0
interestingness: 204 out of 261

photo: 6434433171 8e90a6fb9f 7020
owner: 7797218@N08
title: tree lighting
originalsecret: 03f24f523a
originalformat: jpg
o_height: 1536
o_width: 2048
datetaken: 2011-11-30 20:59:22
dateupload: 1322711401
tags: lighting christmas holiday tree center rockefeller 30rock
license: 0
latitude: 40.758196
longitude: -73.979265
accuracy: 15
views: 23
interestingness: 205 out of 261

photo: 6434278551 4b3209d1f2 7024
owner: 24414018@N05
title: Youngest Pop
originalsecret: 5d40ab21f6
originalformat: jpg
o_height: 2304
o_width: 3072
datetaken: 2011-07-17 04:37:03
dateupload: 1322709145
tags: belize homestays stanncreekdistrict mayacentre
license: 0
latitude: 16.868619
longitude: -88.378143
accuracy: 10
views: 2
interestingness: 206 out of 261

photo: 6433637619 23d635f9ee 7144
owner: 25218275@N07
title: 331: Footy
originalsecret: null
originalformat: null
o_height: null
o_width: null
datetaken: 2011-11-27 17:16:19
dateupload: 1322699659
tags: liverpool football pub projector screen firstnational 3652011
license: 0
latitude: 53.405133
longitude: -2.991292
accuracy: 16
views: 8
interestingness: 207 out of 261

photo: 6435860933 2dac55dae9 7010
owner: 36113961@N06
title: Love those fascinators !
originalsecret: null
originalformat: null
o_height: null
o_width: null
datetaken: 2011-06-09 18:03:14
dateupload: 1322740825
tags: accessories accessory formaldress fascinator fascinators nfweddingorchardleighhouseweddingfamilyukenglandjune20112011junejuneweddings
license: 0
latitude: 51.251279
longitude: -2.346868
accuracy: 13
views: 1
interestingness: 208 out of 261

photo: 6435792631 a1f01631fd 7019
owner: 58927525@N08
title: panoramic view - hotel milano alpen resort
originalsecret: 7c15e22521
originalformat: jpg
o_height: 478
o_width: 720
datetaken: 2011-12-01 12:37:08
dateupload: 1322739428
tags: hotel meeting resort alpen spa wellness
license: 0
latitude: 45.927035
longitude: 10.052146
accuracy: 10
views: 4
interestingness: 209 out of 261

photo: 6435709495 def7505519 7154
owner: 55771175@N08
title: Seen in the Upper Peninsular Michigan USA 7a
originalsecret: null
originalformat: null
o_height: null
o_width: null
datetaken: 2011-09-28 10:00:07
dateupload: 1322737677
tags: ithink ijustcouldntresistthissetofphotostheymademesmilesomuchanditwassounexpectedtoseethemasiwasdrivingthroughmichigansupperpeninsularobviouslyaguywithasenseofhumourallmade fromoldcarpartsandbitsofscrapingeneralespeciallylovethedeerheadithasteeth
license: 0
latitude: 46.111325
longitude: -85.380249
accuracy: 7
views: 7
interestingness: 210 out of 261

photo: 6435709191 a05dd1f34a 7034
owner: 55771175@N08
title: Seen in the Upper Peninsular Michigan USA 6
originalsecret: null
originalformat: null
o_height: null
o_width: null
datetaken: 2011-09-28 10:00:05
dateupload: 1322737670
tags: ithink ijustcouldntresistthissetofphotostheymademesmilesomuchanditwassounexpectedtoseethemasiwasdrivingthroughmichigansupperpeninsularobviouslyaguywithasenseofhumourallmade fromoldcarpartsandbitsofscrapingeneralespeciallylovethedeerheadithasteeth
license: 0
latitude: 46.111325
longitude: -85.369262
accuracy: 7
views: 4
interestingness: 211 out of 261

photo: 6435544601 eb0f32e37b 7006
owner: 10758109@N04
title: Joseph LOUGH, undertaker amongst other things, & his wife Eliza
originalsecret: null
originalformat: null
o_height: null
o_width: null
datetaken: 2011-02-20 11:27:40
dateupload: 1322733907
tags: lough oxford undertaker wheelwright 20february2011 oxfordcanterbury
license: 0
latitude: -43.529687
longitude: 172.683191
accuracy: 15
views: 32
interestingness: 212 out of 261

photo: 6435544429 bbc146dc08 7004
owner: 10758109@N04
title: Joseph LOUGH, undertaker amongst other things, & his wife Eliza
originalsecret: null
originalformat: null
o_height: null
o_width: null
datetaken: 2011-02-20 11:27:29
dateupload: 1322733903
tags: lough oxford undertaker wheelwright 20february2011 oxfordcanterbury
license: 0
latitude: -43.529291
longitude: 172.683062
accuracy: 15
views: 3
interestingness: 213 out of 261

photo: 6435498811 98cc5690f4 7166
owner: 35445140@N03
title: Soldino
originalsecret: null
originalformat: null
o_height: null
o_width: null
datetaken: 2011-12-01 10:45:43
dateupload: 1322732743
tags: square squareformat iphoneography instagramapp xproii uploaded:by=instagram
license: 0
latitude: 44.292462
longitude: 11.869955
accuracy: 14
views: 4
interestingness: 214 out of 261

photo: 6435348421 9a0631312f 7150
owner: 32845923@N00
title: Love
originalsecret: null
originalformat: null
o_height: null
o_width: null
datetaken: 2011-12-01 00:44:58
dateupload: 1322729098
tags: square squareformat amaro iphoneography instagramapp uploaded:by=instagram
license: 0
latitude: 51.22817
longitude: 6.770667
accuracy: 16
views: 0
interestingness: 215 out of 261

photo: 6434987951 a8a3c1278a 7174
owner: 10856465@N07
title: 11-30-2011~Christmas Decorating At Mom's
originalsecret: null
originalformat: null
o_height: null
o_width: null
datetaken: 2011-11-30 21:00:24
dateupload: 1322720848
tags: holiday lights christmastree decorating christmasballs bows
license: 0
latitude: 47.748211
longitude: -116.752738
accuracy: 11
views: 16
interestingness: 216 out of 261

photo: 6434401269 944a1ee9c6 7162
owner: 25679342@N00
title: Eleonore, with Margaux waiting
originalsecret: null
originalformat: null
o_height: null
o_width: null
datetaken: 2011-11-25 15:43:57
dateupload: 1322710944
tags: 
license: 0
latitude: 41.466666
longitude: -90.574834
accuracy: 16
views: 22
interestingness: 217 out of 261

