
mintime: 1322697600 maxtime: 1322728192.27
numimgs: 200
total pages: 1
visiting only 1 pages ( up to 250 images)
photo: 6418504171 decfc0c1ab 7168
owner: 47669904@N06
title: Wakko
originalsecret: null
originalformat: null
o_height: null
o_width: null
datetaken: 2011-11-26 16:12:01
dateupload: 1322703900
tags: light brazil music luz paran? rock brasil canon underground moda pb modelo curitiba musica urbana fotografia photograpy externa edi??o vitoraugusto
license: 0
latitude: -25.438624
longitude: -49.275398
accuracy: 11
views: 282
interestingness: 1 out of 200

photo: 6416869063 523b8aab95 7012
owner: 7383661@N08
title: 'grunge' gathering .....
originalsecret: null
originalformat: null
o_height: null
o_width: null
datetaken: 2011-11-23 17:18:08
dateupload: 1322719500
tags: portrait toronto wednesday lens photography movement downtown library photojournalism police peaceful gazebo beercan yurt stjamespark civildisobedience resistance global socialdocumentary eviction kingst officers thefaceof analeesmith minoltaaf70210mm sonyalphaa33 occupytoronto occupyingtoronto nov23rd2011 metropolitantorontopoliceforce TGAM:photodesk=details
license: 0
latitude: 43.650737
longitude: -79.373055
accuracy: 16
views: 121
interestingness: 2 out of 200

photo: 6435257809 939ea3e952 7157
owner: 44103481@N00
title: Staples
originalsecret: null
originalformat: null
o_height: null
o_width: null
datetaken: 2011-11-29 21:31:11
dateupload: 1322726929
tags: usa austin geotagged nikon texas gig livemusic posters staples stubbs austinist stubbsbbq stevehopson d700 nikond700
license: 0
latitude: 30.268607
longitude: -97.736313
accuracy: 16
views: 86
interestingness: 3 out of 200

photo: 6434696471 a5c9e1925e 7030
owner: 35870491@N02
title: I'm Walking Out that Door...
originalsecret: null
originalformat: null
o_height: null
o_width: null
datetaken: 2011-11-30 14:10:21
dateupload: 1322715332
tags: color feet shoes canvas splash ankles indiekids musicaddicts indiefashion mysexylegs retrofeel seattleeveryday portraitswithoutaface lovelifeandbeauty
license: 0
latitude: 47.601533
longitude: -122.336883
accuracy: 11
views: 75
interestingness: 4 out of 200

photo: 6433563903 c47806cbe6 7172
owner: 94512892@N00
title: Lisa Hannigan @ Shepherd's Bush Empire
originalsecret: 26772caa3b
originalformat: jpg
o_height: 3264
o_width: 4928
datetaken: 2011-11-30 23:32:01
dateupload: 1322698568
tags: music london bush nikon guitar live gig o2 lisa empire hannigan shepherds lisahannigan f14g d5100 lastfm:event=2066691
license: 0
latitude: 51.50362
longitude: -0.224366
accuracy: 16
views: 83
interestingness: 5 out of 200

photo: 6433552871 11b4248b83 7029
owner: 94512892@N00
title: Lisa Hannigan @ Shepherd's Bush Empire
originalsecret: 1f912242f6
originalformat: jpg
o_height: 3264
o_width: 4928
datetaken: 2011-11-30 23:33:37
dateupload: 1322698377
tags: nikon d5100 f14g live music gig guitar lisahannigan lisa hannigan o2 shepherds bush empire london lastfm:event=2066691 bw blackandwhite blackwhite black white monochrome colourless colorless
license: 0
latitude: 51.50362
longitude: -0.224366
accuracy: 16
views: 51
interestingness: 6 out of 200

photo: 6434697217 70fa5814f1 7006
owner: 35870491@N02
title: What a Swanky Life
originalsecret: null
originalformat: null
o_height: null
o_width: null
datetaken: 2011-11-30 20:50:48
dateupload: 1322715345
tags: color feet collage shoes canvas splash ankles indiekids musicaddicts indiefashion mysexylegs retrofeel seattleeveryday portraitswithoutaface lovelifeandbeauty
license: 0
latitude: 47.601301
longitude: -122.33551
accuracy: 11
views: 94
interestingness: 7 out of 200

photo: 6435285347 c22035d495 7168
owner: 25457585@N07
title: le public de Place Klezmer
originalsecret: null
originalformat: null
o_height: null
o_width: null
datetaken: 2011-07-10 16:26:01
dateupload: 1322727535
tags: street summer music woman girl smile festival ?t? rue sourire auvergne musique thiers pamparina musiquetrad
license: 0
latitude: 45.856781
longitude: 3.54515
accuracy: 11
views: 37
interestingness: 8 out of 200

photo: 6434696875 17387f720c 7167
owner: 35870491@N02
title: Tongue Tied
originalsecret: null
originalformat: null
o_height: null
o_width: null
datetaken: 2011-11-30 19:51:55
dateupload: 1322715338
tags: selfportrait color feet fun lyrics shoes floor legs angles canvas splash dailyphoto ankles indiekids musicaddicts imemine indiefashion blipfoto mysexylegs retrofeel seattleeveryday showusyourbest portraitswithoutaface lovelifeandbeauty tonguetiedbygrouplove
license: 0
latitude: 47.601417
longitude: -122.334823
accuracy: 11
views: 97
interestingness: 9 out of 200

photo: 6433630417 b434a6f5dc 7147
owner: 94512892@N00
title: Lisa Hannigan @ Shepherd's Bush Empire
originalsecret: c52548be0e
originalformat: jpg
o_height: 3264
o_width: 4928
datetaken: 2011-11-30 22:09:15
dateupload: 1322699560
tags: music london bush nikon guitar live gig o2 lisa empire hannigan shepherds lisahannigan f14g d5100 lastfm:event=2066691
license: 0
latitude: 51.50362
longitude: -0.224366
accuracy: 16
views: 74
interestingness: 10 out of 200

photo: 6433593817 680bb51eaf 7011
owner: 94512892@N00
title: Lisa Hannigan @ Shepherd's Bush Empire
originalsecret: dbc4ffdb9c
originalformat: jpg
o_height: 3264
o_width: 4928
datetaken: 2011-11-30 23:03:45
dateupload: 1322699018
tags: blackandwhite bw music white black london monochrome blackwhite bush nikon guitar live gig o2 lisa empire colorless hannigan colourless shepherds lisahannigan f14g d5100 lastfm:event=2066691
license: 0
latitude: 51.50362
longitude: -0.224366
accuracy: 16
views: 69
interestingness: 11 out of 200

photo: 6434747719 15706ed8fd 7156
owner: 48948896@N04
title: Bob Dylan.
originalsecret: null
originalformat: null
o_height: null
o_width: null
datetaken: 2011-11-30 23:03:15
dateupload: 1322716238
tags: music art peace graphic folk text adobe bobdylan font type hippie illustrator beka highway61revisited desolationrow vapaus typographyportrait
license: 0
latitude: 39.196534
longitude: -94.666442
accuracy: 16
views: 30
interestingness: 12 out of 200

photo: 6433543545 cabd0e2d06 7005
owner: 67968452@N00
title: PhotonQ-John Bohannon Dance Your Ph.D
originalsecret: ccf271a5c9
originalformat: jpg
o_height: 684
o_width: 912
datetaken: 2011-12-01 01:10:20
dateupload: 1322698400
tags: brussels ted black john fun creativity dance movement europe belgium belgique label bruxelles danse your conference vs phd powerpoint bohannon palaisdesbeauxarts bozar 2011 photonquantique tedx danceyourphd johnbohannon
license: 3
latitude: 50.843982
longitude: 4.358519
accuracy: 16
views: 98
interestingness: 13 out of 200

photo: 6435171385 d8c4bdf1a8 7008
owner: 79513962@N00
title: Preston from the Ordinary Boys at the Juice New Music Night at the Green Door Store
originalsecret: null
originalformat: null
o_height: null
o_width: null
datetaken: 2011-11-30 22:34:01
dateupload: 1322724870
tags: door new music green boys store brighton juice preston ordinary canon200mm28l
license: 0
latitude: 50.828937
longitude: -0.140258
accuracy: 16
views: 124
interestingness: 14 out of 200

photo: 6434049717 0065a33235 7164
owner: 51035555243@N01
title: Junior
originalsecret: 17d030a374
originalformat: jpg
o_height: 2087
o_width: 3130
datetaken: 2010-01-16 20:43:40
dateupload: 1322705744
tags: usa unitedstates nashville guitar tennessee unitedstatesofamerica livemusic opry grandoleopry rymanauditorium ryman grandoldopry rymantheater grandoldopryhouse uniongospeltabernacle
license: 2
latitude: 36.16173
longitude: -86.777595
accuracy: 16
views: 119
interestingness: 15 out of 200

photo: 6435074661 169cc1299d 7152
owner: 31998658@N06
title: DSC_4308
originalsecret: 322b108255
originalformat: jpg
o_height: 3264
o_width: 4928
datetaken: 2011-11-26 21:45:49
dateupload: 1322722766
tags: birthday mike nikon f 28 mm nikkor koreatown 2470 d7000
license: 6
latitude: 34.057689
longitude: -118.30619
accuracy: 15
views: 16
interestingness: 16 out of 200

photo: 6434555583 263b381bea 7150
owner: 42450712@N06
title: We Came As Romans (2)
originalsecret: null
originalformat: null
o_height: null
o_width: null
datetaken: 2011-11-17 19:55:16
dateupload: 1322713202
tags: canon orlando concert florida livemusic 7d citywalk hardrocklive hrl wecameasromans wwwtheconcertshootercom
license: 0
latitude: 28.473755
longitude: -81.467689
accuracy: 16
views: 17
interestingness: 17 out of 200

photo: 6433580375 58649fa59b 7162
owner: 94512892@N00
title: Lisa Hannigan @ Shepherd's Bush Empire
originalsecret: 42041895db
originalformat: jpg
o_height: 3264
o_width: 4928
datetaken: 2011-11-30 23:14:04
dateupload: 1322698824
tags: music london bush nikon guitar live gig o2 lisa empire hannigan shepherds lisahannigan f14g d5100 lastfm:event=2066691
license: 0
latitude: 51.50362
longitude: -0.224366
accuracy: 16
views: 52
interestingness: 18 out of 200

photo: 6434661663 8a699cfae9 7174
owner: 31787751@N02
title: 
originalsecret: null
originalformat: null
o_height: null
o_width: null
datetaken: 2011-11-28 05:59:48
dateupload: 1322714780
tags: winter bw music male portraits dj taylor 2011
license: 0
latitude: 42.279579
longitude: -83.734059
accuracy: 15
views: 32
interestingness: 19 out of 200

photo: 6434256477 fa5fff9545 7019
owner: 49128203@N08
title: Polypheme
originalsecret: e94175059a
originalformat: jpg
o_height: 776
o_width: 1200
datetaken: 2011-11-30 18:09:17
dateupload: 1322708814
tags: autumn sculpture music white black france castle art statue sepia automne square concrete marine brittany noir ship jean fort navy jardin bretagne muse violin brest artdeco raymond chateau deco fortress parc blanc cours beton musique finistere violon academie beateau cras dajot delamarre
license: 0
latitude: 48.382257
longitude: -4.491144
accuracy: 15
views: 32
interestingness: 20 out of 200

photo: 6434455433 c8561fe59f 7152
owner: 31787751@N02
title: 
originalsecret: null
originalformat: null
o_height: null
o_width: null
datetaken: 2011-11-28 06:03:09
dateupload: 1322711718
tags: winter music male portraits dj taylor 2011
license: 0
latitude: 42.279634
longitude: -83.73378
accuracy: 15
views: 95
interestingness: 21 out of 200

photo: 6434724049 280a672d9c 7026
owner: 49128203@N08
title: La Mer
originalsecret: e1e4d5d3fb
originalformat: jpg
o_height: 806
o_width: 1200
datetaken: 2011-12-01 06:00:39
dateupload: 1322715801
tags: autumn sculpture music white black france art statue sepia automne square concrete marine brittany noir ship jean navy jardin bretagne muse violin brest artdeco raymond deco parc blanc cours beton musique finistere violon academie beateau cras dajot delamarre
license: 0
latitude: 48.382257
longitude: -4.491144
accuracy: 15
views: 19
interestingness: 22 out of 200

photo: 6433612309 7b319074b6 7146
owner: 94512892@N00
title: Lisa Hannigan @ Shepherd's Bush Empire
originalsecret: 952ebe1a86
originalformat: jpg
o_height: 3175
o_width: 4723
datetaken: 2011-11-30 22:08:36
dateupload: 1322699291
tags: music london bush nikon guitar live gig o2 lisa empire hannigan shepherds lisahannigan f14g d5100 lastfm:event=2066691
license: 0
latitude: 51.50362
longitude: -0.224366
accuracy: 16
views: 36
interestingness: 23 out of 200

photo: 6433749683 a5415cf907 7024
owner: 72098626@N00
title: Central Park Dance Skaters, Oct 2011 - 17
originalsecret: 6ca27a978d
originalformat: jpg
o_height: 3957
o_width: 2639
datetaken: 2011-10-23 15:28:04
dateupload: 1322701338
tags: newyork bottle dancers centralpark manhattan skate centralparkdanceskaters danceskaters
license: 1
latitude: 40.773277
longitude: -73.971356
accuracy: 16
views: 27
interestingness: 24 out of 200

photo: 6433882491 6df3d34a9e 7148
owner: 45676477@N07
title: HC4B7616.JPG
originalsecret: null
originalformat: null
o_height: null
o_width: null
datetaken: 2011-11-30 21:20:21
dateupload: 1322703296
tags: worship praise eucharisticadoration eyefi bostoncatholic
license: 0
latitude: 42.19041
longitude: -71.058448
accuracy: 14
views: 67
interestingness: 25 out of 200

photo: 6435255741 58bc5d0e32 7005
owner: 47387415@N08
title: vegetarian argument
originalsecret: ca21ef983b
originalformat: jpg
o_height: 1080
o_width: 720
datetaken: 2010-07-25 12:49:04
dateupload: 1322726884
tags: music festival finland faces ethnic troubadour 2010 etnofestival raseborg facesetnofestival facesfestival grumnas grumn?s wwwfacesfi
license: 0
latitude: 59.966439
longitude: 23.437786
accuracy: 12
views: 51
interestingness: 26 out of 200

photo: 6435255605 7e224a45bd 7012
owner: 47387415@N08
title: faces bazard regular
originalsecret: 27fe825aec
originalformat: jpg
o_height: 1080
o_width: 720
datetaken: 2010-07-25 12:21:37
dateupload: 1322726881
tags: music festival finland faces ethnic 2010 etnofestival raseborg facesetnofestival facesfestival grumnas grumn?s wwwfacesfi
license: 0
latitude: 59.966439
longitude: 23.437786
accuracy: 12
views: 25
interestingness: 27 out of 200

photo: 6435255457 863016e2d7 7003
owner: 47387415@N08
title: going throu life with a smile on
originalsecret: e011039578
originalformat: jpg
o_height: 1080
o_width: 720
datetaken: 2010-07-25 12:14:17
dateupload: 1322726878
tags: music festival finland faces ethnic 2010 etnofestival raseborg facesetnofestival facesfestival grumnas grumn?s wwwfacesfi
license: 0
latitude: 59.966439
longitude: 23.437786
accuracy: 12
views: 26
interestingness: 28 out of 200

photo: 6435255315 a3b7f01ecb 7003
owner: 47387415@N08
title: waiting for Taika
originalsecret: cd4df3d035
originalformat: jpg
o_height: 1080
o_width: 1620
datetaken: 2010-07-25 12:13:17
dateupload: 1322726875
tags: music festival finland faces ethnic 2010 etnofestival raseborg facesetnofestival facesfestival grumnas grumn?s wwwfacesfi
license: 0
latitude: 59.966439
longitude: 23.437786
accuracy: 12
views: 37
interestingness: 29 out of 200

photo: 6435255131 4ea2bdaa22 7159
owner: 47387415@N08
title: Faces forever
originalsecret: 5de74b6441
originalformat: jpg
o_height: 1080
o_width: 720
datetaken: 2010-07-24 13:08:49
dateupload: 1322726870
tags: music festival finland faces ethnic 2010 etnofestival raseborg facesetnofestival facesfestival grumnas grumn?s wwwfacesfi
license: 0
latitude: 59.966439
longitude: 23.437786
accuracy: 12
views: 87
interestingness: 30 out of 200

photo: 6435181509 36e3cbe5d5 7009
owner: 35034347485@N01
title: Concert posters for shows at The Uptown
originalsecret: 16a59ed28c
originalformat: jpg
o_height: 1920
o_width: 2560
datetaken: 2011-11-29 16:17:14
dateupload: 1322725108
tags: christmas music oakland livemusic uptown supersuckers theuptown uglysweater mclars mcfrontalot theblasters
license: 6
latitude: 37.802458
longitude: -122.253643
accuracy: 16
views: 8
interestingness: 31 out of 200

photo: 6435113883 6e7b8381a7 7142
owner: 44901507@N00
title: I Need To Get Out More Often
originalsecret: 7a3cec25a4
originalformat: jpg
o_height: 2040
o_width: 1381
datetaken: 2011-11-30 21:08:44
dateupload: 1322723630
tags: orange crazy hillbilly countrymusic dixie houseofblues hob obnoxious wednesdaynight chicagoil hellbilly hankiii hankwilliamsiii cuntry marchingpowder sheltonwilliams
license: 0
latitude: 41.88824
longitude: -87.629508
accuracy: 16
views: 44
interestingness: 32 out of 200

photo: 6435107265 3ac4e82e16 7004
owner: 12422456@N07
title: Hamburg 2011 / Elbphilharmonie
originalsecret: 3d7e570b71
originalformat: jpg
o_height: 2136
o_width: 3216
datetaken: 2011-11-27 13:47:00
dateupload: 1322723484
tags: november music building germany harbor big harbour crane hamburg finish 2011 elbphilharmonie elphi
license: 0
latitude: 53.53995
longitude: 9.983739
accuracy: 13
views: 13
interestingness: 33 out of 200

photo: 6435080191 a21b2b2d5a 7004
owner: 34325628@N05
title: Music Man on the Atlantic City Boardwalk
originalsecret: 539acefbfe
originalformat: jpg
o_height: 2436
o_width: 3260
datetaken: 2011-11-26 16:34:49
dateupload: 1322722888
tags: people music men musicians portraits newjersey forsale candid homeless nj elderly posters beaches atlanticcity jersey characters ac jerseyshore bookcovers albumcovers boardwalks jerze chrisgoldberg
license: 2
latitude: 39.356035
longitude: -74.429905
accuracy: 15
views: 18
interestingness: 34 out of 200

photo: 6435058631 b55f7d2eac 7161
owner: 34325628@N05
title: Jazz Musician at Chelsea Prime - Chelsea Hotel Atlantic City, NJ
originalsecret: c19bea18d6
originalformat: jpg
o_height: 1608
o_width: 2144
datetaken: 2011-11-25 21:41:56
dateupload: 1322722415
tags: people music musicians lights newjersey bars forsale nj restaurants jazz posters atlanticcity jersey singers shows concerts hotels ac performers jerseyshore bookcovers albumcovers eater chelseahotel hotelchatter jerze chelseaprime chrisgoldberg chelseahotelac
license: 2
latitude: 39.352053
longitude: -74.447457
accuracy: 15
views: 20
interestingness: 35 out of 200

photo: 6434919615 8276f113e0 7171
owner: 87791108@N00
title: 20111102_1801 Station pianist at Gympie
originalsecret: 7c5a91cbb0
originalformat: jpg
o_height: 2355
o_width: 1982
datetaken: 2011-11-02 09:02:22
dateupload: 1322719494
tags: music train piano loco australia player steam queensland gympie maryvalley thevalleyrattler
license: 0
latitude: -26.185894
longitude: 152.67256
accuracy: 15
views: 13
interestingness: 36 out of 200

photo: 6434723651 955b4635b1 7030
owner: 49128203@N08
title: La Musique
originalsecret: e5a28c98db
originalformat: jpg
o_height: 900
o_width: 586
datetaken: 2009-05-20 18:06:48
dateupload: 1322715795
tags: autumn sculpture music white black france art statue sepia automne square concrete marine brittany noir ship jean navy jardin bretagne muse violin brest artdeco raymond deco parc blanc cours beton musique finistere violon academie beateau cras dajot delamarre
license: 0
latitude: 48.382257
longitude: -4.491144
accuracy: 15
views: 18
interestingness: 37 out of 200

photo: 6434723219 2f2c6bc328 7158
owner: 49128203@N08
title: Monument ? Jean Cras (1879-1932), Contre-Amiral & Compositeur Brestois.
originalsecret: 3c809cfc15
originalformat: jpg
o_height: 748
o_width: 800
datetaken: 2008-10-09 11:03:17
dateupload: 1322715788
tags: autumn sculpture music white black france art statue sepia automne square concrete marine brittany noir ship jean navy jardin bretagne muse violin brest artdeco raymond deco parc blanc cours beton musique finistere violon academie beateau cras dajot delamarre
license: 0
latitude: 48.382257
longitude: -4.491144
accuracy: 15
views: 13
interestingness: 38 out of 200

photo: 6434591453 2ac02a683a 7012
owner: 42450712@N06
title: Korn (16)
originalsecret: null
originalformat: null
o_height: null
o_width: null
datetaken: 2011-11-10 23:13:15
dateupload: 1322713722
tags: canon orlando concert florida livemusic 7d korn citywalk hardrocklive 2011 hrl wwwtheconcertshootercom
license: 0
latitude: 28.473755
longitude: -81.467689
accuracy: 16
views: 24
interestingness: 39 out of 200

photo: 6434591239 1796e3e925 7150
owner: 42450712@N06
title: Korn (15)
originalsecret: null
originalformat: null
o_height: null
o_width: null
datetaken: 2011-11-10 23:13:04
dateupload: 1322713719
tags: canon orlando concert florida livemusic 7d korn citywalk hardrocklive 2011 hrl wwwtheconcertshootercom
license: 0
latitude: 28.473755
longitude: -81.467689
accuracy: 16
views: 4
interestingness: 40 out of 200

photo: 6434591133 6074703b9f 7149
owner: 42450712@N06
title: Korn (14)
originalsecret: null
originalformat: null
o_height: null
o_width: null
datetaken: 2011-11-10 23:12:21
dateupload: 1322713717
tags: canon orlando concert florida livemusic 7d korn citywalk hardrocklive 2011 hrl wwwtheconcertshootercom
license: 0
latitude: 28.473755
longitude: -81.467689
accuracy: 16
views: 4
interestingness: 41 out of 200

photo: 6434590879 2fa2a70d59 7035
owner: 42450712@N06
title: Korn (13)
originalsecret: null
originalformat: null
o_height: null
o_width: null
datetaken: 2011-11-10 23:10:05
dateupload: 1322713714
tags: canon orlando concert florida livemusic 7d korn citywalk hardrocklive 2011 hrl wwwtheconcertshootercom
license: 0
latitude: 28.473755
longitude: -81.467689
accuracy: 16
views: 1
interestingness: 42 out of 200

photo: 6434590697 6acd596705 7034
owner: 42450712@N06
title: Korn (12)
originalsecret: null
originalformat: null
o_height: null
o_width: null
datetaken: 2011-11-10 23:09:41
dateupload: 1322713710
tags: canon orlando concert florida livemusic 7d korn citywalk hardrocklive 2011 hrl wwwtheconcertshootercom
license: 0
latitude: 28.473755
longitude: -81.467689
accuracy: 16
views: 17
interestingness: 43 out of 200

photo: 6434590477 9ef30c0508 7007
owner: 42450712@N06
title: Korn (11)
originalsecret: null
originalformat: null
o_height: null
o_width: null
datetaken: 2011-11-10 23:08:54
dateupload: 1322713707
tags: canon orlando concert florida livemusic 7d korn citywalk hardrocklive 2011 hrl wwwtheconcertshootercom
license: 0
latitude: 28.473755
longitude: -81.467689
accuracy: 16
views: 203
interestingness: 44 out of 200

photo: 6434590219 08da59173e 7019
owner: 42450712@N06
title: Korn (10)
originalsecret: null
originalformat: null
o_height: null
o_width: null
datetaken: 2011-11-10 23:08:38
dateupload: 1322713704
tags: canon orlando concert florida livemusic 7d korn citywalk hardrocklive 2011 hrl wwwtheconcertshootercom
license: 0
latitude: 28.473755
longitude: -81.467689
accuracy: 16
views: 6
interestingness: 45 out of 200

photo: 6434589981 afe73d0277 7033
owner: 42450712@N06
title: Korn (9)
originalsecret: null
originalformat: null
o_height: null
o_width: null
datetaken: 2011-11-10 23:06:43
dateupload: 1322713701
tags: canon orlando concert florida livemusic 7d korn citywalk hardrocklive 2011 hrl wwwtheconcertshootercom
license: 0
latitude: 28.473755
longitude: -81.467689
accuracy: 16
views: 2
interestingness: 46 out of 200

photo: 6434589795 6c6e2902af 7172
owner: 42450712@N06
title: Korn (8)
originalsecret: null
originalformat: null
o_height: null
o_width: null
datetaken: 2011-11-10 23:06:32
dateupload: 1322713698
tags: canon orlando concert florida livemusic 7d korn citywalk hardrocklive 2011 hrl wwwtheconcertshootercom
license: 0
latitude: 28.473755
longitude: -81.467689
accuracy: 16
views: 3
interestingness: 47 out of 200

photo: 6434589539 3d5901ce08 7015
owner: 42450712@N06
title: Korn (7)
originalsecret: null
originalformat: null
o_height: null
o_width: null
datetaken: 2011-11-10 23:06:25
dateupload: 1322713695
tags: canon orlando concert florida livemusic 7d korn citywalk hardrocklive 2011 hrl wwwtheconcertshootercom
license: 0
latitude: 28.473755
longitude: -81.467689
accuracy: 16
views: 2
interestingness: 48 out of 200

photo: 6434589377 7543c2a91b 7022
owner: 42450712@N06
title: Korn (6)
originalsecret: null
originalformat: null
o_height: null
o_width: null
datetaken: 2011-11-10 23:05:38
dateupload: 1322713692
tags: canon orlando concert florida livemusic 7d korn citywalk hardrocklive 2011 hrl wwwtheconcertshootercom
license: 0
latitude: 28.473755
longitude: -81.467689
accuracy: 16
views: 3
interestingness: 49 out of 200

photo: 6434589165 66fc23a8c9 7009
owner: 42450712@N06
title: Korn (5)
originalsecret: null
originalformat: null
o_height: null
o_width: null
datetaken: 2011-11-10 23:05:26
dateupload: 1322713689
tags: canon orlando concert florida livemusic 7d korn citywalk hardrocklive 2011 hrl wwwtheconcertshootercom
license: 0
latitude: 28.473755
longitude: -81.467689
accuracy: 16
views: 18
interestingness: 50 out of 200

photo: 6434589037 16274f1c45 7174
owner: 42450712@N06
title: Korn (4)
originalsecret: null
originalformat: null
o_height: null
o_width: null
datetaken: 2011-11-10 23:04:57
dateupload: 1322713687
tags: canon orlando concert florida livemusic 7d korn citywalk hardrocklive 2011 hrl wwwtheconcertshootercom
license: 0
latitude: 28.473755
longitude: -81.467689
accuracy: 16
views: 2
interestingness: 51 out of 200

photo: 6434588839 594344f363 7160
owner: 42450712@N06
title: Korn (3)
originalsecret: null
originalformat: null
o_height: null
o_width: null
datetaken: 2011-11-10 23:04:53
dateupload: 1322713684
tags: canon orlando concert florida livemusic 7d korn citywalk hardrocklive 2011 hrl wwwtheconcertshootercom
license: 0
latitude: 28.473755
longitude: -81.467689
accuracy: 16
views: 3
interestingness: 52 out of 200

photo: 6434588685 d6024423d3 7175
owner: 42450712@N06
title: Korn (2)
originalsecret: null
originalformat: null
o_height: null
o_width: null
datetaken: 2011-11-10 23:04:33
dateupload: 1322713682
tags: canon orlando concert florida livemusic 7d korn citywalk hardrocklive 2011 hrl wwwtheconcertshootercom
license: 0
latitude: 28.473755
longitude: -81.467689
accuracy: 16
views: 16
interestingness: 53 out of 200

photo: 6434588303 ec9e2b7e9b 7150
owner: 42450712@N06
title: Korn (1)
originalsecret: null
originalformat: null
o_height: null
o_width: null
datetaken: 2011-11-10 23:04:23
dateupload: 1322713676
tags: canon orlando concert florida livemusic 7d korn citywalk hardrocklive 2011 hrl wwwtheconcertshootercom
license: 0
latitude: 28.473755
longitude: -81.467689
accuracy: 16
views: 17
interestingness: 54 out of 200

photo: 6434573315 ba3e49c112 7158
owner: 42450712@N06
title: Five Finger Death Punch (6)
originalsecret: null
originalformat: null
o_height: null
o_width: null
datetaken: 2011-11-19 23:52:49
dateupload: 1322713449
tags: canon orlando concert florida livemusic 7d citywalk hardrocklive ffdp hrl fivefingerdeathpunch wwwtheconcertshootercom
license: 0
latitude: 28.473755
longitude: -81.467689
accuracy: 16
views: 18
interestingness: 55 out of 200

photo: 6434573099 f43fd671d5 7168
owner: 42450712@N06
title: Five Finger Death Punch (5)
originalsecret: null
originalformat: null
o_height: null
o_width: null
datetaken: 2011-11-19 23:51:35
dateupload: 1322713445
tags: canon orlando concert florida livemusic 7d citywalk hardrocklive ffdp hrl fivefingerdeathpunch wwwtheconcertshootercom
license: 0
latitude: 28.473755
longitude: -81.467689
accuracy: 16
views: 15
interestingness: 56 out of 200

photo: 6434572857 6b93abfef9 7007
owner: 42450712@N06
title: Five Finger Death Punch (4)
originalsecret: null
originalformat: null
o_height: null
o_width: null
datetaken: 2011-11-19 23:50:38
dateupload: 1322713442
tags: canon orlando concert florida livemusic 7d citywalk hardrocklive ffdp hrl fivefingerdeathpunch wwwtheconcertshootercom
license: 0
latitude: 28.473755
longitude: -81.467689
accuracy: 16
views: 13
interestingness: 57 out of 200

photo: 6434572611 975beb7413 7035
owner: 42450712@N06
title: Five Finger Death Punch (3)
originalsecret: null
originalformat: null
o_height: null
o_width: null
datetaken: 2011-11-19 23:48:30
dateupload: 1322713438
tags: canon orlando concert florida livemusic 7d citywalk hardrocklive ffdp hrl fivefingerdeathpunch wwwtheconcertshootercom
license: 0
latitude: 28.473755
longitude: -81.467689
accuracy: 16
views: 16
interestingness: 58 out of 200

photo: 6434572117 44b8a64fb0 7144
owner: 42450712@N06
title: Five Finger Death Punch (1)
originalsecret: null
originalformat: null
o_height: null
o_width: null
datetaken: 2011-11-19 23:48:14
dateupload: 1322713431
tags: canon orlando concert florida livemusic 7d citywalk hardrocklive ffdp hrl fivefingerdeathpunch wwwtheconcertshootercom
license: 0
latitude: 28.473755
longitude: -81.467689
accuracy: 16
views: 14
interestingness: 59 out of 200

photo: 6434571915 0709aeaa38 7156
owner: 42450712@N06
title: Five Finger Death Punch (15)
originalsecret: null
originalformat: null
o_height: null
o_width: null
datetaken: 2011-11-19 23:47:58
dateupload: 1322713427
tags: canon orlando concert florida livemusic 7d citywalk hardrocklive ffdp hrl fivefingerdeathpunch wwwtheconcertshootercom
license: 0
latitude: 28.473755
longitude: -81.467689
accuracy: 16
views: 14
interestingness: 60 out of 200

photo: 6434571699 f21cbafc9b 7012
owner: 42450712@N06
title: Five Finger Death Punch (14)
originalsecret: null
originalformat: null
o_height: null
o_width: null
datetaken: 2011-11-19 23:46:52
dateupload: 1322713424
tags: canon orlando concert florida livemusic 7d citywalk hardrocklive ffdp hrl fivefingerdeathpunch wwwtheconcertshootercom
license: 0
latitude: 28.473755
longitude: -81.467689
accuracy: 16
views: 12
interestingness: 61 out of 200

photo: 6434571477 65c32a3fd8 7027
owner: 42450712@N06
title: Five Finger Death Punch (13)
originalsecret: null
originalformat: null
o_height: null
o_width: null
datetaken: 2011-11-19 23:46:48
dateupload: 1322713421
tags: canon orlando concert florida livemusic 7d citywalk hardrocklive ffdp hrl fivefingerdeathpunch wwwtheconcertshootercom
license: 0
latitude: 28.473755
longitude: -81.467689
accuracy: 16
views: 0
interestingness: 62 out of 200

photo: 6434571213 494f8b41d5 7013
owner: 42450712@N06
title: Five Finger Death Punch (12)
originalsecret: null
originalformat: null
o_height: null
o_width: null
datetaken: 2011-11-19 23:46:29
dateupload: 1322713418
tags: canon orlando concert florida livemusic 7d citywalk hardrocklive ffdp hrl fivefingerdeathpunch wwwtheconcertshootercom
license: 0
latitude: 28.473755
longitude: -81.467689
accuracy: 16
views: 15
interestingness: 63 out of 200

photo: 6434570911 7301f4305b 7029
owner: 42450712@N06
title: Five Finger Death Punch (11)
originalsecret: null
originalformat: null
o_height: null
o_width: null
datetaken: 2011-11-19 23:46:16
dateupload: 1322713414
tags: canon orlando concert florida livemusic 7d citywalk hardrocklive ffdp hrl fivefingerdeathpunch wwwtheconcertshootercom
license: 0
latitude: 28.473755
longitude: -81.467689
accuracy: 16
views: 12
interestingness: 64 out of 200

photo: 6434570695 33b6481bee 7156
owner: 42450712@N06
title: Five Finger Death Punch (10)
originalsecret: null
originalformat: null
o_height: null
o_width: null
datetaken: 2011-11-19 23:46:12
dateupload: 1322713411
tags: canon orlando concert florida livemusic 7d citywalk hardrocklive ffdp hrl fivefingerdeathpunch wwwtheconcertshootercom
license: 0
latitude: 28.473755
longitude: -81.467689
accuracy: 16
views: 17
interestingness: 65 out of 200

photo: 6434570479 ffb5bbbca5 7004
owner: 42450712@N06
title: Five Finger Death Punch (9)
originalsecret: null
originalformat: null
o_height: null
o_width: null
datetaken: 2011-11-19 23:46:06
dateupload: 1322713407
tags: canon orlando concert florida livemusic 7d citywalk hardrocklive ffdp hrl fivefingerdeathpunch wwwtheconcertshootercom
license: 0
latitude: 28.473755
longitude: -81.467689
accuracy: 16
views: 14
interestingness: 66 out of 200

photo: 6434570259 3664dfa2a5 7020
owner: 42450712@N06
title: Five Finger Death Punch (8)
originalsecret: null
originalformat: null
o_height: null
o_width: null
datetaken: 2011-11-19 23:45:31
dateupload: 1322713404
tags: canon orlando concert florida livemusic 7d citywalk hardrocklive ffdp hrl fivefingerdeathpunch wwwtheconcertshootercom
license: 0
latitude: 28.473755
longitude: -81.467689
accuracy: 16
views: 15
interestingness: 67 out of 200

photo: 6434569859 0e7c6b1e15 7171
owner: 42450712@N06
title: Five Finger Death Punch (7)
originalsecret: null
originalformat: null
o_height: null
o_width: null
datetaken: 2011-11-19 23:45:07
dateupload: 1322713401
tags: canon orlando concert florida livemusic 7d citywalk hardrocklive ffdp hrl fivefingerdeathpunch wwwtheconcertshootercom
license: 0
latitude: 28.473755
longitude: -81.467689
accuracy: 16
views: 15
interestingness: 68 out of 200

photo: 6434555353 031047dbaa 7005
owner: 42450712@N06
title: We Came As Romans (1)
originalsecret: null
originalformat: null
o_height: null
o_width: null
datetaken: 2011-11-17 19:54:41
dateupload: 1322713199
tags: canon orlando concert florida livemusic 7d citywalk hardrocklive hrl wecameasromans wwwtheconcertshootercom
license: 0
latitude: 28.473755
longitude: -81.467689
accuracy: 16
views: 24
interestingness: 69 out of 200

photo: 6434555115 afcf5c6cb5 7170
owner: 42450712@N06
title: We Came As Romans (4)
originalsecret: null
originalformat: null
o_height: null
o_width: null
datetaken: 2011-11-17 19:53:38
dateupload: 1322713196
tags: canon orlando concert florida livemusic 7d citywalk hardrocklive hrl wecameasromans wwwtheconcertshootercom
license: 0
latitude: 28.473755
longitude: -81.467689
accuracy: 16
views: 3
interestingness: 70 out of 200

photo: 6434554801 c40db5cdcc 7027
owner: 42450712@N06
title: We Came As Romans (3)
originalsecret: null
originalformat: null
o_height: null
o_width: null
datetaken: 2011-11-17 19:52:54
dateupload: 1322713191
tags: canon orlando concert florida livemusic 7d citywalk hardrocklive hrl wecameasromans wwwtheconcertshootercom
license: 0
latitude: 28.473755
longitude: -81.467689
accuracy: 16
views: 3
interestingness: 71 out of 200

photo: 6434545981 2dcee61fe8 7158
owner: 42450712@N06
title: D.R.U.G.S (1)
originalsecret: null
originalformat: null
o_height: null
o_width: null
datetaken: 2011-11-17 19:10:26
dateupload: 1322713062
tags: canon orlando concert florida livemusic drugs 7d citywalk hardrocklive hrl wwwtheconcertshootercom
license: 0
latitude: 28.473755
longitude: -81.467689
accuracy: 16
views: 1
interestingness: 72 out of 200

photo: 6434545707 45dd1cfed0 7153
owner: 42450712@N06
title: D.R.U.G.S (6)
originalsecret: null
originalformat: null
o_height: null
o_width: null
datetaken: 2011-11-17 19:08:52
dateupload: 1322713058
tags: canon orlando concert florida livemusic drugs 7d citywalk hardrocklive hrl wwwtheconcertshootercom
license: 0
latitude: 28.473755
longitude: -81.467689
accuracy: 16
views: 1
interestingness: 73 out of 200

photo: 6434545469 7bf4359ca2 7144
owner: 42450712@N06
title: D.R.U.G.S (5)
originalsecret: null
originalformat: null
o_height: null
o_width: null
datetaken: 2011-11-17 19:06:43
dateupload: 1322713055
tags: canon orlando concert florida livemusic drugs 7d citywalk hardrocklive hrl wwwtheconcertshootercom
license: 0
latitude: 28.473755
longitude: -81.467689
accuracy: 16
views: 8
interestingness: 74 out of 200

photo: 6434545207 bd93f2dd30 7004
owner: 42450712@N06
title: D.R.U.G.S (4)
originalsecret: null
originalformat: null
o_height: null
o_width: null
datetaken: 2011-11-17 19:06:27
dateupload: 1322713051
tags: canon orlando concert florida livemusic drugs 7d citywalk hardrocklive hrl wwwtheconcertshootercom
license: 0
latitude: 28.473755
longitude: -81.467689
accuracy: 16
views: 7
interestingness: 75 out of 200

photo: 6434544959 fa2fa5f03c 7008
owner: 42450712@N06
title: D.R.U.G.S (3)
originalsecret: null
originalformat: null
o_height: null
o_width: null
datetaken: 2011-11-17 19:06:09
dateupload: 1322713047
tags: canon orlando concert florida livemusic drugs 7d citywalk hardrocklive hrl wwwtheconcertshootercom
license: 0
latitude: 28.473755
longitude: -81.467689
accuracy: 16
views: 1
interestingness: 76 out of 200

photo: 6434544711 80276c70ee 7151
owner: 42450712@N06
title: D.R.U.G.S (2)
originalsecret: null
originalformat: null
o_height: null
o_width: null
datetaken: 2011-11-17 19:05:40
dateupload: 1322713044
tags: canon orlando concert florida livemusic drugs 7d citywalk hardrocklive hrl wwwtheconcertshootercom
license: 0
latitude: 28.473755
longitude: -81.467689
accuracy: 16
views: 0
interestingness: 77 out of 200

photo: 6434536411 197bc03d08 7029
owner: 42450712@N06
title: Rev Theory (3)
originalsecret: null
originalformat: null
o_height: null
o_width: null
datetaken: 2011-11-19 20:35:43
dateupload: 1322712922
tags: canon orlando concert florida livemusic 7d citywalk hatebreed hardrocklive hrl wwwtheconcertshootercom
license: 0
latitude: 28.473755
longitude: -81.467689
accuracy: 16
views: 0
interestingness: 78 out of 200

photo: 6434536161 6cbdc787d9 7007
owner: 42450712@N06
title: Rev Theory (2)
originalsecret: null
originalformat: null
o_height: null
o_width: null
datetaken: 2011-11-19 20:34:30
dateupload: 1322712918
tags: canon orlando concert florida livemusic 7d citywalk hatebreed hardrocklive hrl wwwtheconcertshootercom
license: 0
latitude: 28.473755
longitude: -81.467689
accuracy: 16
views: 5
interestingness: 79 out of 200

photo: 6434535883 d7fe08918e 7144
owner: 42450712@N06
title: Rev Theory (1)
originalsecret: null
originalformat: null
o_height: null
o_width: null
datetaken: 2011-11-19 20:34:22
dateupload: 1322712914
tags: canon orlando concert florida livemusic 7d citywalk hatebreed hardrocklive hrl wwwtheconcertshootercom
license: 0
latitude: 28.473755
longitude: -81.467689
accuracy: 16
views: 0
interestingness: 80 out of 200

photo: 6434535595 4d5dca1043 7023
owner: 42450712@N06
title: Rev Theory (7)
originalsecret: null
originalformat: null
o_height: null
o_width: null
datetaken: 2011-11-19 20:34:14
dateupload: 1322712909
tags: canon orlando concert florida livemusic 7d citywalk hatebreed hardrocklive hrl wwwtheconcertshootercom
license: 0
latitude: 28.473755
longitude: -81.467689
accuracy: 16
views: 5
interestingness: 81 out of 200

photo: 6434535405 b4efb300e1 7025
owner: 42450712@N06
title: Rev Theory (6)
originalsecret: null
originalformat: null
o_height: null
o_width: null
datetaken: 2011-11-19 20:33:57
dateupload: 1322712906
tags: canon orlando concert florida livemusic 7d citywalk hatebreed hardrocklive hrl wwwtheconcertshootercom
license: 0
latitude: 28.473755
longitude: -81.467689
accuracy: 16
views: 0
interestingness: 82 out of 200

photo: 6434535185 66a97f225f 7142
owner: 42450712@N06
title: Rev Theory (5)
originalsecret: null
originalformat: null
o_height: null
o_width: null
datetaken: 2011-11-19 20:33:38
dateupload: 1322712903
tags: canon orlando concert florida livemusic 7d citywalk hatebreed hardrocklive hrl wwwtheconcertshootercom
license: 0
latitude: 28.473755
longitude: -81.467689
accuracy: 16
views: 5
interestingness: 83 out of 200

photo: 6434534943 dd07d5f899 7017
owner: 42450712@N06
title: Rev Theory (4)
originalsecret: null
originalformat: null
o_height: null
o_width: null
datetaken: 2011-11-19 20:32:46
dateupload: 1322712899
tags: canon orlando concert florida livemusic 7d citywalk hatebreed hardrocklive hrl wwwtheconcertshootercom
license: 0
latitude: 28.473755
longitude: -81.467689
accuracy: 16
views: 0
interestingness: 84 out of 200

photo: 6434521011 ac81ab2d32 7169
owner: 42450712@N06
title: All That Remains (3)
originalsecret: null
originalformat: null
o_height: null
o_width: null
datetaken: 2011-11-19 22:25:04
dateupload: 1322712678
tags: canon orlando concert florida livemusic 7d citywalk hardrocklive hrl allthatremains wwwtheconcertshootercom
license: 0
latitude: 28.473755
longitude: -81.467689
accuracy: 16
views: 8
interestingness: 85 out of 200

photo: 6434520791 07e842ba1f 7024
owner: 42450712@N06
title: All That Remains (2)
originalsecret: null
originalformat: null
o_height: null
o_width: null
datetaken: 2011-11-19 22:23:02
dateupload: 1322712675
tags: canon orlando concert florida livemusic 7d citywalk hardrocklive hrl allthatremains wwwtheconcertshootercom
license: 0
latitude: 28.473755
longitude: -81.467689
accuracy: 16
views: 7
interestingness: 86 out of 200

photo: 6434520629 2e9753b342 7016
owner: 42450712@N06
title: All That Remains (1)
originalsecret: null
originalformat: null
o_height: null
o_width: null
datetaken: 2011-11-19 22:22:53
dateupload: 1322712673
tags: canon orlando concert florida livemusic 7d citywalk hardrocklive hrl allthatremains wwwtheconcertshootercom
license: 0
latitude: 28.473755
longitude: -81.467689
accuracy: 16
views: 3
interestingness: 87 out of 200

photo: 6434520437 3b9390dfcc 7035
owner: 42450712@N06
title: All That Remains (8)
originalsecret: null
originalformat: null
o_height: null
o_width: null
datetaken: 2011-11-19 22:20:55
dateupload: 1322712670
tags: canon orlando concert florida livemusic 7d citywalk hardrocklive hrl allthatremains wwwtheconcertshootercom
license: 0
latitude: 28.473755
longitude: -81.467689
accuracy: 16
views: 0
interestingness: 88 out of 200

photo: 6434520219 bd2bef4ac7 7163
owner: 42450712@N06
title: All That Remains (7)
originalsecret: null
originalformat: null
o_height: null
o_width: null
datetaken: 2011-11-19 22:18:41
dateupload: 1322712666
tags: canon orlando concert florida livemusic 7d citywalk hardrocklive hrl allthatremains wwwtheconcertshootercom
license: 0
latitude: 28.473755
longitude: -81.467689
accuracy: 16
views: 8
interestingness: 89 out of 200

photo: 6434520051 08ba158e61 7152
owner: 42450712@N06
title: All That Remains (6)
originalsecret: null
originalformat: null
o_height: null
o_width: null
datetaken: 2011-11-19 22:17:34
dateupload: 1322712664
tags: canon orlando concert florida livemusic 7d citywalk hardrocklive hrl allthatremains wwwtheconcertshootercom
license: 0
latitude: 28.473755
longitude: -81.467689
accuracy: 16
views: 10
interestingness: 90 out of 200

photo: 6434519793 daa605ece3 7144
owner: 42450712@N06
title: All That Remains (5)
originalsecret: null
originalformat: null
o_height: null
o_width: null
datetaken: 2011-11-19 22:17:09
dateupload: 1322712660
tags: canon orlando concert florida livemusic 7d citywalk hardrocklive hrl allthatremains wwwtheconcertshootercom
license: 0
latitude: 28.473755
longitude: -81.467689
accuracy: 16
views: 3
interestingness: 91 out of 200

photo: 6434519611 308a5928d6 7165
owner: 42450712@N06
title: All That Remains (4)
originalsecret: null
originalformat: null
o_height: null
o_width: null
datetaken: 2011-11-19 22:16:36
dateupload: 1322712657
tags: canon orlando concert florida livemusic 7d citywalk hardrocklive hrl allthatremains wwwtheconcertshootercom
license: 0
latitude: 28.473755
longitude: -81.467689
accuracy: 16
views: 6
interestingness: 92 out of 200

photo: 6434235559 5e017f9e0e 7034
owner: 12705984@N02
title: Girl Rocker
originalsecret: null
originalformat: null
o_height: null
o_width: null
datetaken: 2011-09-19 23:46:20
dateupload: 1322708506
tags: girl nikon kentucky livemusic newport sg gibson concertphotography southgatehouse guitarplayer d300s katmcgivern
license: 0
latitude: 39.094147
longitude: -84.494755
accuracy: 15
views: 21
interestingness: 93 out of 200

photo: 6434228955 c3b4db2e1e 7014
owner: 8562789@N03
title: Brattleboro, VT.
originalsecret: bcb164ffff
originalformat: jpg
o_height: 2403
o_width: 3604
datetaken: 2011-11-28 15:09:56
dateupload: 1322708403
tags: new music records vermont vinyl newengland used albums wax recordstore brattleboro vt lps
license: 0
latitude: 42.852808
longitude: -72.558077
accuracy: 16
views: 15
interestingness: 94 out of 200

photo: 6434228505 a4e3abf362 7027
owner: 8562789@N03
title: Brattleboro, VT.
originalsecret: ed9e134c2d
originalformat: jpg
o_height: 2197
o_width: 3296
datetaken: 2011-11-28 20:08:03
dateupload: 1322708395
tags: music downtown vermont cds recordstore mainst brattleboro vt turnitup mochajoes
license: 0
latitude: 42.852077
longitude: -72.558002
accuracy: 16
views: 9
interestingness: 95 out of 200

photo: 6433934331 9a37dc765a 7024
owner: 62373848@N00
title: Tish, Arthur II, Doug
originalsecret: a3bc2e4ac3
originalformat: jpg
o_height: 2165
o_width: 2162
datetaken: 2011-11-29 23:24:07
dateupload: 1322704093
tags: music pub folk ottawa country guitars blues singers jam irenes
license: 2
latitude: 45.400749
longitude: -75.687042
accuracy: 16
views: 14
interestingness: 96 out of 200

photo: 6433885783 cf34d6ca0b 7020
owner: 89725937@N00
title: 11/23/11 - The Studio
originalsecret: null
originalformat: null
o_height: null
o_width: null
datetaken: 2011-11-23 02:38:14
dateupload: 1322703343
tags: november music records philadelphia studio guitar pennsylvania piano guitars banjo pa dailyphoto recording banjos drdog livingthedream 2011 project365 veroniquelee veropie bethevoid
license: 0
latitude: 39.969917
longitude: -75.130949
accuracy: 13
views: 15
interestingness: 97 out of 200

photo: 6433882877 6e2754b9ca 7169
owner: 89725937@N00
title: 11/22/11 - Sound Check
originalsecret: null
originalformat: null
o_height: null
o_width: null
datetaken: 2011-11-22 20:02:50
dateupload: 1322703302
tags: november philadelphia pennsylvania livemusic pa soundcheck dailyphoto drdog secretshow 2011 project365 tobyleaman frankmcelroy kungfunecktie veroniquelee veropie
license: 0
latitude: 39.970789
longitude: -75.134682
accuracy: 14
views: 3
interestingness: 98 out of 200

photo: 6433742125 492e454179 7173
owner: 72098626@N00
title: Central Park Dance Skaters, Oct 2011 - 15
originalsecret: 41a3582004
originalformat: jpg
o_height: 2801
o_width: 4201
datetaken: 2011-10-23 15:26:58
dateupload: 1322701227
tags: newyork dancers mayor centralpark manhattan skate beret centralparkdanceskaters themayor danceskaters
license: 1
latitude: 40.773277
longitude: -73.971356
accuracy: 16
views: 19
interestingness: 99 out of 200

photo: 6433734899 d16df83274 7007
owner: 72098626@N00
title: Central Park Dance Skaters, Oct 2011 - 13
originalsecret: e658419ddd
originalformat: jpg
o_height: 2810
o_width: 4215
datetaken: 2011-10-23 15:24:11
dateupload: 1322701120
tags: newyork sunglasses scarf couple dancers dancing centralpark manhattan skate centralparkdanceskaters danceskaters
license: 1
latitude: 40.773277
longitude: -73.971356
accuracy: 16
views: 43
interestingness: 100 out of 200

photo: 6433724843 40eabba012 7019
owner: 72098626@N00
title: Central Park Dance Skaters, Oct 2011 - 11
originalsecret: 14416ee88c
originalformat: jpg
o_height: 4928
o_width: 3264
datetaken: 2011-10-23 15:19:53
dateupload: 1322700963
tags: newyork sunglasses dancers centralpark manhattan skate yellowshirt centralparkdanceskaters yellowclothes danceskaters
license: 1
latitude: 40.773277
longitude: -73.971356
accuracy: 16
views: 19
interestingness: 101 out of 200

photo: 6433922889 3c9742db9d 7024
owner: 38076609@N02
title: Country Music Hall of Fame
originalsecret: 1dc8b9de38
originalformat: jpg
o_height: 900
o_width: 1200
datetaken: 2008-12-07 16:44:46
dateupload: 1322703916
tags: building architecture downtown nashville tennessee 2008 countrymusichalloffame jbtuohy
license: 0
latitude: 36.158926
longitude: -86.7768
accuracy: 15
views: 1
interestingness: 102 out of 200

photo: 6433739041 5a775e9e9c 7005
owner: 72098626@N00
title: Central Park Dance Skaters, Oct 2011 - 14
originalsecret: 540197190c
originalformat: jpg
o_height: 4431
o_width: 2795
datetaken: 2011-10-23 15:25:40
dateupload: 1322701181
tags: newyork sunglasses dancers centralpark manhattan skate centralparkdanceskaters danceskaters
license: 1
latitude: 40.773277
longitude: -73.971356
accuracy: 16
views: 18
interestingness: 103 out of 200

photo: 6433730873 42f97a7698 7006
owner: 72098626@N00
title: Central Park Dance Skaters, Oct 2011 - 12
originalsecret: 3951b8671f
originalformat: jpg
o_height: 4928
o_width: 3264
datetaken: 2011-10-23 15:22:43
dateupload: 1322701055
tags: newyork dancers centralpark manhattan helmet skate centralparkdanceskaters danceskaters
license: 1
latitude: 40.773277
longitude: -73.971356
accuracy: 16
views: 26
interestingness: 104 out of 200

photo: 6433596341 f078198d0a 7019
owner: 45676477@N07
title: HC4B7547.JPG
originalsecret: null
originalformat: null
o_height: null
o_width: null
datetaken: 2011-11-30 19:39:34
dateupload: 1322699053
tags: worship praise eucharisticadoration eyefi bostoncatholic
license: 0
latitude: 42.19041
longitude: -71.058448
accuracy: 14
views: 71
interestingness: 105 out of 200

photo: 6434580705 7667a1f6c9 7010
owner: 10758109@N04
title: "The Acoustic Sessions"
originalsecret: null
originalformat: null
o_height: null
o_width: null
datetaken: 2011-12-01 14:29:39
dateupload: 1322713559
tags: architecture atrium acoustics aucklandmuseum aucklandwarmemorialmuseum musicinmuseums 1december2011
license: 0
latitude: -36.861046
longitude: 174.777642
accuracy: 16
views: 16
interestingness: 106 out of 200

photo: 6434578165 b31d8cae7c 7010
owner: 10758109@N04
title: "The Acoustic Sessions"
originalsecret: null
originalformat: null
o_height: null
o_width: null
datetaken: 2011-12-01 14:29:30
dateupload: 1322713523
tags: architecture atrium acoustics aucklandmuseum aucklandwarmemorialmuseum musicinmuseums 1december2011
license: 0
latitude: -36.861025
longitude: 174.777631
accuracy: 16
views: 3
interestingness: 107 out of 200

photo: 6434576279 0aa82ac173 7149
owner: 10758109@N04
title: "The Acoustic Sessions"
originalsecret: null
originalformat: null
o_height: null
o_width: null
datetaken: 2011-12-01 14:29:16
dateupload: 1322713493
tags: architecture atrium acoustics aucklandmuseum aucklandwarmemorialmuseum musicinmuseums 1december2011
license: 0
latitude: -36.861021
longitude: 174.777642
accuracy: 16
views: 3
interestingness: 108 out of 200

photo: 6434574495 19eac93bce 7142
owner: 10758109@N04
title: "The Acoustic Sessions"
originalsecret: null
originalformat: null
o_height: null
o_width: null
datetaken: 2011-12-01 14:29:02
dateupload: 1322713467
tags: architecture atrium acoustics aucklandmuseum aucklandwarmemorialmuseum musicinmuseums 1december2011
license: 0
latitude: -36.861042
longitude: 174.777674
accuracy: 16
views: 7
interestingness: 109 out of 200

photo: 6434572895 52c3b5b082 7142
owner: 10758109@N04
title: "The Acoustic Sessions"
originalsecret: null
originalformat: null
o_height: null
o_width: null
datetaken: 2011-12-01 14:28:43
dateupload: 1322713443
tags: architecture atrium acoustics aucklandmuseum aucklandwarmemorialmuseum musicinmuseums 1december2011
license: 0
latitude: -36.860978
longitude: 174.777696
accuracy: 16
views: 5
interestingness: 110 out of 200

photo: 6433746267 f70c548c7a 7026
owner: 72098626@N00
title: Central Park Dance Skaters, Oct 2011 - 16
originalsecret: 0f6f3df13d
originalformat: jpg
o_height: 2711
o_width: 4067
datetaken: 2011-10-23 15:27:50
dateupload: 1322701287
tags: newyork dancers centralpark manhattan skate centralparkdanceskaters danceskaters
license: 1
latitude: 40.773277
longitude: -73.971356
accuracy: 16
views: 27
interestingness: 111 out of 200

photo: 6433666819 b4b8332f0c 7152
owner: 71147784@N04
title: Playing the harp by Robert and Katrina
originalsecret: null
originalformat: null
o_height: null
o_width: null
datetaken: 2011-03-16 09:05:13
dateupload: 1322700105
tags: music harp idpwd multicap abcopen:project=photomoment
license: 0
latitude: -41.111175
longitude: 145.832004
accuracy: 11
views: 14
interestingness: 112 out of 200

photo: 6435260961 fd8b4a1d4e 7141
owner: 40230716@N03
title: Austra
originalsecret: null
originalformat: null
o_height: null
o_width: null
datetaken: 2011-11-16 00:04:05
dateupload: 1322727000
tags: seattle music washington concert austra thecrocodile
license: 3
latitude: 47.613595
longitude: -122.344383
accuracy: 16
views: 37
interestingness: 113 out of 200

photo: 6435260443 9af1ef1962 7168
owner: 40230716@N03
title: Austra
originalsecret: null
originalformat: null
o_height: null
o_width: null
datetaken: 2011-11-16 00:13:27
dateupload: 1322726988
tags: seattle music washington concert austra thecrocodile
license: 3
latitude: 47.613595
longitude: -122.344383
accuracy: 16
views: 39
interestingness: 114 out of 200

photo: 6435260019 0dff6c7a57 7018
owner: 40230716@N03
title: Austra
originalsecret: null
originalformat: null
o_height: null
o_width: null
datetaken: 2011-11-15 23:37:23
dateupload: 1322726979
tags: seattle music washington concert austra thecrocodile
license: 3
latitude: 47.613595
longitude: -122.344383
accuracy: 16
views: 32
interestingness: 115 out of 200

photo: 6435259459 806b4e4ae2 7144
owner: 40230716@N03
title: Austra
originalsecret: null
originalformat: null
o_height: null
o_width: null
datetaken: 2011-11-16 00:10:50
dateupload: 1322726967
tags: seattle music washington concert austra thecrocodile
license: 3
latitude: 47.613595
longitude: -122.344383
accuracy: 16
views: 76
interestingness: 116 out of 200

photo: 6433894051 8d61a51a24 7030
owner: 45676477@N07
title: HC3Y7225.JPG
originalsecret: null
originalformat: null
o_height: null
o_width: null
datetaken: 2011-11-30 21:33:01
dateupload: 1322703461
tags: worship praise eucharisticadoration eyefi bostoncatholic
license: 0
latitude: 42.19041
longitude: -71.058448
accuracy: 14
views: 72
interestingness: 117 out of 200

photo: 6434189469 4162cae0c6 7146
owner: 27904705@N07
title: Adelita's Way
originalsecret: null
originalformat: null
o_height: null
o_width: null
datetaken: 2011-11-25 20:47:09
dateupload: 1322707755
tags: music blackwhite band singer adelitasway
license: 0
latitude: 43.43589
longitude: -83.936791
accuracy: 15
views: 12
interestingness: 118 out of 200

photo: 6433873335 ebf3a99634 7163
owner: 45676477@N07
title: HC4B7610.JPG
originalsecret: null
originalformat: null
o_height: null
o_width: null
datetaken: 2011-11-30 21:08:45
dateupload: 1322703171
tags: worship praise eucharisticadoration eyefi bostoncatholic
license: 0
latitude: 42.19041
longitude: -71.058448
accuracy: 14
views: 61
interestingness: 119 out of 200

photo: 6433852425 352e7ef439 7170
owner: 45676477@N07
title: HC4B7601.JPG
originalsecret: null
originalformat: null
o_height: null
o_width: null
datetaken: 2011-11-30 20:57:44
dateupload: 1322702854
tags: worship praise eucharisticadoration eyefi bostoncatholic
license: 0
latitude: 42.19041
longitude: -71.058448
accuracy: 14
views: 57
interestingness: 120 out of 200

photo: 6433839931 0a9604b06e 7028
owner: 45676477@N07
title: HC4B7591.JPG
originalsecret: null
originalformat: null
o_height: null
o_width: null
datetaken: 2011-11-30 20:49:51
dateupload: 1322702677
tags: worship praise eucharisticadoration eyefi bostoncatholic
license: 0
latitude: 42.19041
longitude: -71.058448
accuracy: 14
views: 57
interestingness: 121 out of 200

photo: 6433829275 9e05093522 7020
owner: 45676477@N07
title: HC4B7583.JPG
originalsecret: null
originalformat: null
o_height: null
o_width: null
datetaken: 2011-11-30 20:47:30
dateupload: 1322702516
tags: worship praise eucharisticadoration eyefi bostoncatholic
license: 0
latitude: 42.19041
longitude: -71.058448
accuracy: 14
views: 58
interestingness: 122 out of 200

photo: 6433806905 ae9d811d75 7011
owner: 45676477@N07
title: HC4B7570.JPG
originalsecret: null
originalformat: null
o_height: null
o_width: null
datetaken: 2011-11-30 20:42:27
dateupload: 1322702186
tags: worship praise eucharisticadoration eyefi bostoncatholic
license: 0
latitude: 42.19041
longitude: -71.058448
accuracy: 14
views: 60
interestingness: 123 out of 200

photo: 6433726159 6b72f92328 7030
owner: 45676477@N07
title: HC3Y7205.JPG
originalsecret: null
originalformat: null
o_height: null
o_width: null
datetaken: 2011-11-30 20:52:07
dateupload: 1322700984
tags: worship praise eucharisticadoration eyefi bostoncatholic
license: 0
latitude: 42.19041
longitude: -71.058448
accuracy: 14
views: 72
interestingness: 124 out of 200

photo: 6433629295 324bb3fda6 7160
owner: 45676477@N07
title: HC3Y7198.JPG
originalsecret: null
originalformat: null
o_height: null
o_width: null
datetaken: 2011-11-30 20:20:03
dateupload: 1322699544
tags: worship praise eucharisticadoration eyefi bostoncatholic
license: 0
latitude: 42.19041
longitude: -71.058448
accuracy: 14
views: 61
interestingness: 125 out of 200

photo: 6433582779 b1ceb7c91c 7005
owner: 45676477@N07
title: HC4B7538.JPG
originalsecret: null
originalformat: null
o_height: null
o_width: null
datetaken: 2011-11-30 19:39:18
dateupload: 1322698858
tags: worship praise eucharisticadoration eyefi bostoncatholic
license: 0
latitude: 42.19041
longitude: -71.058448
accuracy: 14
views: 58
interestingness: 126 out of 200

photo: 6433566707 a409f3440b 7029
owner: 45676477@N07
title: HC3Y7170.JPG
originalsecret: null
originalformat: null
o_height: null
o_width: null
datetaken: 2011-11-30 20:08:33
dateupload: 1322698609
tags: worship praise eucharisticadoration eyefi bostoncatholic
license: 0
latitude: 42.19041
longitude: -71.058448
accuracy: 14
views: 66
interestingness: 127 out of 200

photo: 6433566257 52b72e0d16 7019
owner: 45676477@N07
title: HC4B7527.JPG
originalsecret: null
originalformat: null
o_height: null
o_width: null
datetaken: 2011-11-30 19:36:04
dateupload: 1322698602
tags: eyefi bostoncatholic eucharisticadoration praise worship
license: 0
latitude: 42.19041
longitude: -71.058448
accuracy: 14
views: 52
interestingness: 128 out of 200

photo: 6433554595 c4d506f7fc 7029
owner: 45676477@N07
title: HC3Y7179.JPG
originalsecret: null
originalformat: null
o_height: null
o_width: null
datetaken: 2011-11-30 20:09:54
dateupload: 1322698406
tags: worship praise eucharisticadoration eyefi bostoncatholic
license: 0
latitude: 42.19041
longitude: -71.058448
accuracy: 14
views: 69
interestingness: 129 out of 200

photo: 6434287473 18c8eb62ac 7155
owner: 24414018@N05
title: Marimba
originalsecret: 757ef892e9
originalformat: jpg
o_height: 1728
o_width: 2304
datetaken: 2011-07-18 06:13:15
dateupload: 1322709276
tags: belize homestays stanncreekdistrict mayacentre
license: 0
latitude: 16.868619
longitude: -88.378143
accuracy: 10
views: 3
interestingness: 130 out of 200

photo: 6433835109 7d4d9db224 7018
owner: 69292980@N06
title: DSC_3161
originalsecret: null
originalformat: null
o_height: null
o_width: null
datetaken: 2011-09-24 14:59:37
dateupload: 1322702605
tags: music project experience emp
license: 0
latitude: 47.621089
longitude: -122.347579
accuracy: 15
views: 0
interestingness: 131 out of 200

photo: 6433834897 74a4b2924e 7024
owner: 69292980@N06
title: DSC_3198
originalsecret: null
originalformat: null
o_height: null
o_width: null
datetaken: 2011-09-24 15:35:17
dateupload: 1322702602
tags: music project experience emp
license: 0
latitude: 47.621089
longitude: -122.347579
accuracy: 15
views: 0
interestingness: 132 out of 200

photo: 6433834615 4654db810d 7018
owner: 69292980@N06
title: DSC_3117
originalsecret: null
originalformat: null
o_height: null
o_width: null
datetaken: 2011-09-24 14:47:01
dateupload: 1322702598
tags: music project experience emp
license: 0
latitude: 47.621089
longitude: -122.347579
accuracy: 15
views: 0
interestingness: 133 out of 200

photo: 6433834407 af2fd61224 7034
owner: 69292980@N06
title: DSC_3182
originalsecret: null
originalformat: null
o_height: null
o_width: null
datetaken: 2011-09-24 15:06:50
dateupload: 1322702595
tags: music project experience emp
license: 0
latitude: 47.621089
longitude: -122.347579
accuracy: 15
views: 0
interestingness: 134 out of 200

photo: 6433834147 6594aa7de2 7149
owner: 69292980@N06
title: DSC_3095
originalsecret: null
originalformat: null
o_height: null
o_width: null
datetaken: 2011-09-24 14:45:09
dateupload: 1322702591
tags: music project experience emp
license: 0
latitude: 47.621089
longitude: -122.347579
accuracy: 15
views: 0
interestingness: 135 out of 200

photo: 6433833915 7f97daaf3a 7172
owner: 69292980@N06
title: DSC_3082
originalsecret: null
originalformat: null
o_height: null
o_width: null
datetaken: 2011-09-24 14:43:41
dateupload: 1322702588
tags: music project experience emp
license: 0
latitude: 47.621089
longitude: -122.347579
accuracy: 15
views: 0
interestingness: 136 out of 200

photo: 6433833687 f79e31e1f6 7005
owner: 69292980@N06
title: DSC_3077
originalsecret: null
originalformat: null
o_height: null
o_width: null
datetaken: 2011-09-24 14:42:29
dateupload: 1322702584
tags: music project experience emp
license: 0
latitude: 47.621089
longitude: -122.347579
accuracy: 15
views: 0
interestingness: 137 out of 200

photo: 6433833459 dd0e43aa43 7022
owner: 69292980@N06
title: DSC_3048
originalsecret: null
originalformat: null
o_height: null
o_width: null
datetaken: 2011-09-24 14:37:27
dateupload: 1322702581
tags: music project experience emp
license: 0
latitude: 47.621089
longitude: -122.347579
accuracy: 15
views: 0
interestingness: 138 out of 200

photo: 6433833239 c4e5864849 7142
owner: 69292980@N06
title: DSC_3047
originalsecret: null
originalformat: null
o_height: null
o_width: null
datetaken: 2011-09-24 14:37:24
dateupload: 1322702578
tags: music project experience emp
license: 0
latitude: 47.621089
longitude: -122.347579
accuracy: 15
views: 0
interestingness: 139 out of 200

photo: 6433833005 8d7aa6979d 7033
owner: 69292980@N06
title: DSC_3042
originalsecret: null
originalformat: null
o_height: null
o_width: null
datetaken: 2011-09-24 14:36:59
dateupload: 1322702574
tags: music project experience emp
license: 0
latitude: 47.621089
longitude: -122.347579
accuracy: 15
views: 0
interestingness: 140 out of 200

photo: 6433832807 5d867bbaf2 7150
owner: 69292980@N06
title: DSC_3036
originalsecret: null
originalformat: null
o_height: null
o_width: null
datetaken: 2011-09-24 14:36:06
dateupload: 1322702571
tags: music project experience emp
license: 0
latitude: 47.621089
longitude: -122.347579
accuracy: 15
views: 0
interestingness: 141 out of 200

photo: 6433832597 eabc0bd4e8 7001
owner: 69292980@N06
title: DSC_3032
originalsecret: null
originalformat: null
o_height: null
o_width: null
datetaken: 2011-09-24 14:35:35
dateupload: 1322702568
tags: music project experience emp
license: 0
latitude: 47.621089
longitude: -122.347579
accuracy: 15
views: 0
interestingness: 142 out of 200

photo: 6433832389 7d94134591 7030
owner: 69292980@N06
title: DSC_3029
originalsecret: null
originalformat: null
o_height: null
o_width: null
datetaken: 2011-09-24 14:35:21
dateupload: 1322702565
tags: music project experience emp
license: 0
latitude: 47.621089
longitude: -122.347579
accuracy: 15
views: 0
interestingness: 143 out of 200

photo: 6433832165 e6bc2e8a2a 7002
owner: 69292980@N06
title: DSC_3023
originalsecret: null
originalformat: null
o_height: null
o_width: null
datetaken: 2011-09-24 14:34:31
dateupload: 1322702562
tags: music project experience emp
license: 0
latitude: 47.621089
longitude: -122.347579
accuracy: 15
views: 0
interestingness: 144 out of 200

photo: 6433831967 d4c14da65a 7146
owner: 69292980@N06
title: DSC_3020
originalsecret: null
originalformat: null
o_height: null
o_width: null
datetaken: 2011-09-24 14:34:19
dateupload: 1322702559
tags: music project experience emp
license: 0
latitude: 47.621089
longitude: -122.347579
accuracy: 15
views: 0
interestingness: 145 out of 200

photo: 6433807803 f94225857b 7008
owner: 69735433@N02
title: 
originalsecret: 394981f3ab
originalformat: jpg
o_height: 2800
o_width: 1867
datetaken: 2011-11-22 22:18:30
dateupload: 1322702199
tags: music guitar brucegoldish
license: 0
latitude: 34.420938
longitude: -119.700819
accuracy: 15
views: 6
interestingness: 146 out of 200

photo: 6433805703 2ab885093e 7145
owner: 69735433@N02
title: 
originalsecret: af7aa00289
originalformat: jpg
o_height: 1911
o_width: 2735
datetaken: 2011-11-22 22:13:20
dateupload: 1322702170
tags: music guitar brucegoldish
license: 0
latitude: 34.420938
longitude: -119.700819
accuracy: 15
views: 6
interestingness: 147 out of 200

photo: 6433804521 49d60189da 7155
owner: 69735433@N02
title: 
originalsecret: 2414f2841b
originalformat: jpg
o_height: 2142
o_width: 2440
datetaken: 2011-11-22 22:20:24
dateupload: 1322702154
tags: music guitar brucegoldish
license: 0
latitude: 34.420938
longitude: -119.700819
accuracy: 15
views: 8
interestingness: 148 out of 200

photo: 6433802437 aa9919dd6f 7164
owner: 69735433@N02
title: 
originalsecret: 77d156312d
originalformat: jpg
o_height: 2918
o_width: 1791
datetaken: 2011-11-22 22:13:03
dateupload: 1322702124
tags: music guitar brucegoldish
license: 0
latitude: 34.420938
longitude: -119.700819
accuracy: 15
views: 8
interestingness: 149 out of 200

photo: 6433800635 6b6c16c967 7022
owner: 69735433@N02
title: 
originalsecret: b786462805
originalformat: jpg
o_height: 3006
o_width: 1739
datetaken: 2011-11-22 22:13:00
dateupload: 1322702096
tags: music guitar brucegoldish
license: 0
latitude: 34.420938
longitude: -119.700819
accuracy: 15
views: 9
interestingness: 150 out of 200

photo: 6434409607 28290d1ec8 7008
owner: 47393872@N00
title: IMG_0541
originalsecret: null
originalformat: null
o_height: null
o_width: null
datetaken: 2011-11-30 13:49:37
dateupload: 1322711056
tags: emp expereincemusicproject
license: 0
latitude: 47.621235
longitude: -122.348427
accuracy: 14
views: 0
interestingness: 151 out of 200

photo: 6434387831 b923ae0f6b 7169
owner: 47393872@N00
title: Alien
originalsecret: null
originalformat: null
o_height: null
o_width: null
datetaken: 2011-11-30 13:49:08
dateupload: 1322710762
tags: emp expereincemusicproject
license: 0
latitude: 47.621235
longitude: -122.348427
accuracy: 14
views: 0
interestingness: 152 out of 200

photo: 6434386669 da4a2e7982 7169
owner: 47393872@N00
title: Alien
originalsecret: null
originalformat: null
o_height: null
o_width: null
datetaken: 2011-11-30 13:48:49
dateupload: 1322710745
tags: emp expereincemusicproject
license: 0
latitude: 47.621235
longitude: -122.348427
accuracy: 14
views: 0
interestingness: 153 out of 200

photo: 6434385287 319ea81f75 7003
owner: 47393872@N00
title: Old "Fun Forrest" rides are gone
originalsecret: null
originalformat: null
o_height: null
o_width: null
datetaken: 2011-11-30 13:48:33
dateupload: 1322710723
tags: emp expereincemusicproject
license: 0
latitude: 47.621235
longitude: -122.348427
accuracy: 14
views: 0
interestingness: 154 out of 200

photo: 6434384417 5aa896a3e8 7026
owner: 47393872@N00
title: Space Needle
originalsecret: null
originalformat: null
o_height: null
o_width: null
datetaken: 2011-11-30 13:48:19
dateupload: 1322710710
tags: emp expereincemusicproject
license: 0
latitude: 47.621235
longitude: -122.348427
accuracy: 14
views: 0
interestingness: 155 out of 200

photo: 6434383745 9532cc6bfa 7175
owner: 47393872@N00
title: Alien
originalsecret: null
originalformat: null
o_height: null
o_width: null
datetaken: 2011-11-30 13:47:30
dateupload: 1322710699
tags: emp expereincemusicproject
license: 0
latitude: 47.621235
longitude: -122.348427
accuracy: 14
views: 0
interestingness: 156 out of 200

photo: 6434383243 f9b67c7163 7011
owner: 47393872@N00
title: Seattle Center
originalsecret: null
originalformat: null
o_height: null
o_width: null
datetaken: 2011-11-30 13:47:14
dateupload: 1322710691
tags: emp expereincemusicproject
license: 0
latitude: 47.621235
longitude: -122.348427
accuracy: 14
views: 0
interestingness: 157 out of 200

photo: 6434382105 a23499d230 7149
owner: 47393872@N00
title: Seattle Center
originalsecret: null
originalformat: null
o_height: null
o_width: null
datetaken: 2011-11-30 13:47:07
dateupload: 1322710674
tags: emp expereincemusicproject
license: 0
latitude: 47.621235
longitude: -122.348427
accuracy: 14
views: 0
interestingness: 158 out of 200

photo: 6434380575 d9655e602e 7148
owner: 47393872@N00
title: Seattle Center
originalsecret: null
originalformat: null
o_height: null
o_width: null
datetaken: 2011-11-30 13:47:02
dateupload: 1322710651
tags: emp expereincemusicproject
license: 0
latitude: 47.621235
longitude: -122.348427
accuracy: 14
views: 0
interestingness: 159 out of 200

photo: 6434322363 443a1a1486 7035
owner: 47393872@N00
title: Scream Booth-Alyssa
originalsecret: null
originalformat: null
o_height: null
o_width: null
datetaken: 2011-11-30 13:26:59
dateupload: 1322709802
tags: emp expereincemusicproject
license: 0
latitude: 47.621235
longitude: -122.348427
accuracy: 14
views: 0
interestingness: 160 out of 200

photo: 6434321939 4bd3c13f6e 7175
owner: 47393872@N00
title: Battlestar Galactica Exhibit
originalsecret: null
originalformat: null
o_height: null
o_width: null
datetaken: 2011-11-30 13:22:32
dateupload: 1322709796
tags: emp expereincemusicproject
license: 0
latitude: 47.621235
longitude: -122.348427
accuracy: 14
views: 0
interestingness: 161 out of 200

photo: 6434321251 ac46c31714 7163
owner: 47393872@N00
title: Jason's Mask
originalsecret: null
originalformat: null
o_height: null
o_width: null
datetaken: 2011-11-30 13:22:24
dateupload: 1322709785
tags: emp expereincemusicproject
license: 0
latitude: 47.621235
longitude: -122.348427
accuracy: 14
views: 0
interestingness: 162 out of 200

photo: 6434320831 46c7658076 7019
owner: 47393872@N00
title: Battlestar Galactica Exhibit
originalsecret: null
originalformat: null
o_height: null
o_width: null
datetaken: 2011-11-30 13:22:24
dateupload: 1322709779
tags: emp expereincemusicproject
license: 0
latitude: 47.621235
longitude: -122.348427
accuracy: 14
views: 0
interestingness: 163 out of 200

photo: 6434320055 ba043b65af 7144
owner: 47393872@N00
title: Alien Facehugger
originalsecret: null
originalformat: null
o_height: null
o_width: null
datetaken: 2011-11-30 13:21:58
dateupload: 1322709767
tags: emp expereincemusicproject
license: 0
latitude: 47.621235
longitude: -122.348427
accuracy: 14
views: 0
interestingness: 164 out of 200

photo: 6434319659 a7e575eef8 7034
owner: 47393872@N00
title: Alien Facehugger
originalsecret: null
originalformat: null
o_height: null
o_width: null
datetaken: 2011-11-30 13:21:52
dateupload: 1322709760
tags: emp expereincemusicproject
license: 0
latitude: 47.621235
longitude: -122.348427
accuracy: 14
views: 0
interestingness: 165 out of 200

photo: 6434283311 c8820d26b4 7028
owner: 47393872@N00
title: Shadow Wall
originalsecret: null
originalformat: null
o_height: null
o_width: null
datetaken: 2011-11-30 13:20:52
dateupload: 1322709217
tags: emp expereincemusicproject
license: 0
latitude: 47.621235
longitude: -122.348427
accuracy: 14
views: 0
interestingness: 166 out of 200

photo: 6434282783 9d6d73508a 7033
owner: 47393872@N00
title: Guitar Sculpture
originalsecret: null
originalformat: null
o_height: null
o_width: null
datetaken: 2011-11-30 13:07:30
dateupload: 1322709209
tags: emp expereincemusicproject
license: 0
latitude: 47.621235
longitude: -122.348427
accuracy: 14
views: 0
interestingness: 167 out of 200

photo: 6434281893 dfe9b9d714 7020
owner: 47393872@N00
title: Guitar Sculpture
originalsecret: null
originalformat: null
o_height: null
o_width: null
datetaken: 2011-11-30 13:07:18
dateupload: 1322709196
tags: emp expereincemusicproject
license: 0
latitude: 47.621235
longitude: -122.348427
accuracy: 14
views: 0
interestingness: 168 out of 200

photo: 6434277407 e463fdeb07 7142
owner: 47393872@N00
title: Texas Chainsaw Massacre
originalsecret: null
originalformat: null
o_height: null
o_width: null
datetaken: 2011-11-30 12:28:21
dateupload: 1322709128
tags: emp expereincemusicproject
license: 0
latitude: 47.621235
longitude: -122.348427
accuracy: 14
views: 0
interestingness: 169 out of 200

photo: 6434276745 52bec926b1 7162
owner: 47393872@N00
title: IMG_0524
originalsecret: null
originalformat: null
o_height: null
o_width: null
datetaken: 2011-11-30 12:27:49
dateupload: 1322709117
tags: emp expereincemusicproject
license: 0
latitude: 47.621235
longitude: -122.348427
accuracy: 14
views: 0
interestingness: 170 out of 200

photo: 6434275977 44b5a676d3 7003
owner: 47393872@N00
title: IMG_0523
originalsecret: null
originalformat: null
o_height: null
o_width: null
datetaken: 2011-11-30 12:27:19
dateupload: 1322709106
tags: emp expereincemusicproject
license: 0
latitude: 47.621235
longitude: -122.348427
accuracy: 14
views: 0
interestingness: 171 out of 200

photo: 6434275269 b79eea169f 7001
owner: 47393872@N00
title: IMG_0522
originalsecret: null
originalformat: null
o_height: null
o_width: null
datetaken: 2011-11-30 12:27:13
dateupload: 1322709096
tags: emp expereincemusicproject
license: 0
latitude: 47.621235
longitude: -122.348427
accuracy: 14
views: 0
interestingness: 172 out of 200

photo: 6434273837 3972ceb761 7157
owner: 47393872@N00
title: "It"
originalsecret: null
originalformat: null
o_height: null
o_width: null
datetaken: 2011-11-30 12:26:48
dateupload: 1322709075
tags: emp expereincemusicproject
license: 0
latitude: 47.621235
longitude: -122.348427
accuracy: 14
views: 0
interestingness: 173 out of 200

photo: 6434273179 8a36925158 7169
owner: 47393872@N00
title: Pennywise
originalsecret: null
originalformat: null
o_height: null
o_width: null
datetaken: 2011-11-30 12:26:38
dateupload: 1322709065
tags: emp expereincemusicproject
license: 0
latitude: 47.621235
longitude: -122.348427
accuracy: 14
views: 0
interestingness: 174 out of 200

photo: 6434272469 31f5fa957c 7010
owner: 47393872@N00
title: IMG_0518
originalsecret: null
originalformat: null
o_height: null
o_width: null
datetaken: 2011-11-30 12:26:19
dateupload: 1322709053
tags: emp expereincemusicproject
license: 0
latitude: 47.621235
longitude: -122.348427
accuracy: 14
views: 0
interestingness: 175 out of 200

photo: 6434271563 43ec9a9974 7024
owner: 47393872@N00
title: IMG_0517
originalsecret: null
originalformat: null
o_height: null
o_width: null
datetaken: 2011-11-30 12:25:44
dateupload: 1322709039
tags: emp expereincemusicproject
license: 0
latitude: 47.621235
longitude: -122.348427
accuracy: 14
views: 0
interestingness: 176 out of 200

photo: 6434270901 48deb6f75b 7012
owner: 47393872@N00
title: IMG_0516
originalsecret: null
originalformat: null
o_height: null
o_width: null
datetaken: 2011-11-30 12:25:06
dateupload: 1322709028
tags: emp expereincemusicproject
license: 0
latitude: 47.621235
longitude: -122.348427
accuracy: 14
views: 0
interestingness: 177 out of 200

photo: 6434270389 ab9bd79d84 7016
owner: 47393872@N00
title: IMG_0515
originalsecret: null
originalformat: null
o_height: null
o_width: null
datetaken: 2011-11-30 12:24:00
dateupload: 1322709020
tags: emp expereincemusicproject
license: 0
latitude: 47.621235
longitude: -122.348427
accuracy: 14
views: 0
interestingness: 178 out of 200

photo: 6434269733 dd21c3c00e 7158
owner: 47393872@N00
title: IMG_0514
originalsecret: null
originalformat: null
o_height: null
o_width: null
datetaken: 2011-11-30 12:23:31
dateupload: 1322709010
tags: emp expereincemusicproject
license: 0
latitude: 47.621235
longitude: -122.348427
accuracy: 14
views: 0
interestingness: 179 out of 200

photo: 6434269091 b95ef82c60 7145
owner: 47393872@N00
title: Bram Stoker's original DRACULA manuscript
originalsecret: null
originalformat: null
o_height: null
o_width: null
datetaken: 2011-11-30 12:23:26
dateupload: 1322709000
tags: emp expereincemusicproject
license: 0
latitude: 47.621235
longitude: -122.348427
accuracy: 14
views: 0
interestingness: 180 out of 200

photo: 6434268423 1167ea1a05 7156
owner: 47393872@N00
title: IMG_0512
originalsecret: null
originalformat: null
o_height: null
o_width: null
datetaken: 2011-11-30 12:22:55
dateupload: 1322708990
tags: emp expereincemusicproject
license: 0
latitude: 47.621235
longitude: -122.348427
accuracy: 14
views: 0
interestingness: 181 out of 200

photo: 6434267441 6412492af2 7029
owner: 47393872@N00
title: IMG_0511
originalsecret: null
originalformat: null
o_height: null
o_width: null
datetaken: 2011-11-30 12:22:38
dateupload: 1322708976
tags: emp expereincemusicproject
license: 0
latitude: 47.621235
longitude: -122.348427
accuracy: 14
views: 0
interestingness: 182 out of 200

photo: 6434266773 11454c22dd 7025
owner: 47393872@N00
title: American Werewolf in London
originalsecret: null
originalformat: null
o_height: null
o_width: null
datetaken: 2011-11-30 12:21:56
dateupload: 1322708966
tags: emp expereincemusicproject
license: 0
latitude: 47.621235
longitude: -122.348427
accuracy: 14
views: 0
interestingness: 183 out of 200

photo: 6434265673 69030005b0 7148
owner: 47393872@N00
title: Fredie's Glove, Edward Scissorhands
originalsecret: null
originalformat: null
o_height: null
o_width: null
datetaken: 2011-11-30 12:21:44
dateupload: 1322708950
tags: emp expereincemusicproject
license: 0
latitude: 47.621235
longitude: -122.348427
accuracy: 14
views: 0
interestingness: 184 out of 200

photo: 6434264933 f698caf609 7016
owner: 47393872@N00
title: Shadow Wall
originalsecret: null
originalformat: null
o_height: null
o_width: null
datetaken: 2011-11-30 12:08:50
dateupload: 1322708939
tags: emp expereincemusicproject
license: 0
latitude: 47.621235
longitude: -122.348427
accuracy: 14
views: 0
interestingness: 185 out of 200

photo: 6434264163 d0a994a373 7033
owner: 47393872@N00
title: IMG_0507
originalsecret: null
originalformat: null
o_height: null
o_width: null
datetaken: 2011-11-30 12:08:33
dateupload: 1322708927
tags: emp expereincemusicproject
license: 0
latitude: 47.621235
longitude: -122.348427
accuracy: 14
views: 0
interestingness: 186 out of 200

photo: 6434263357 e49c4bf903 7162
owner: 47393872@N00
title: IMG_0506
originalsecret: null
originalformat: null
o_height: null
o_width: null
datetaken: 2011-11-30 12:08:27
dateupload: 1322708915
tags: emp expereincemusicproject
license: 0
latitude: 47.621235
longitude: -122.348427
accuracy: 14
views: 0
interestingness: 187 out of 200

photo: 6434262535 ec201831d0 7021
owner: 47393872@N00
title: Alien
originalsecret: null
originalformat: null
o_height: null
o_width: null
datetaken: 2011-11-30 12:08:06
dateupload: 1322708903
tags: emp expereincemusicproject
license: 0
latitude: 47.621235
longitude: -122.348427
accuracy: 14
views: 0
interestingness: 188 out of 200

photo: 6434261731 8769d58bec 7159
owner: 47393872@N00
title: Hacksaw from SAW
originalsecret: null
originalformat: null
o_height: null
o_width: null
datetaken: 2011-11-30 12:07:52
dateupload: 1322708892
tags: emp expereincemusicproject
license: 0
latitude: 47.621235
longitude: -122.348427
accuracy: 14
views: 0
interestingness: 189 out of 200

photo: 6434260943 b988455ab9 7026
owner: 47393872@N00
title: "The Fly",  Brundlefly
originalsecret: null
originalformat: null
o_height: null
o_width: null
datetaken: 2011-11-30 12:07:42
dateupload: 1322708880
tags: emp expereincemusicproject
license: 0
latitude: 47.621235
longitude: -122.348427
accuracy: 14
views: 0
interestingness: 190 out of 200

photo: 6434260095 8783087baf 7154
owner: 47393872@N00
title: Alien
originalsecret: null
originalformat: null
o_height: null
o_width: null
datetaken: 2011-11-30 12:07:17
dateupload: 1322708869
tags: emp expereincemusicproject
license: 0
latitude: 47.621235
longitude: -122.348427
accuracy: 14
views: 0
interestingness: 191 out of 200

photo: 6434259101 a42664178b 7143
owner: 47393872@N00
title: Alien Facehugger
originalsecret: null
originalformat: null
o_height: null
o_width: null
datetaken: 2011-11-30 12:06:52
dateupload: 1322708854
tags: emp expereincemusicproject
license: 0
latitude: 47.621235
longitude: -122.348427
accuracy: 14
views: 0
interestingness: 192 out of 200

photo: 6434258277 efe7ea4133 7019
owner: 47393872@N00
title: Creature From the Black Lagoon
originalsecret: null
originalformat: null
o_height: null
o_width: null
datetaken: 2011-11-30 12:05:59
dateupload: 1322708841
tags: emp expereincemusicproject
license: 0
latitude: 47.621235
longitude: -122.348427
accuracy: 14
views: 0
interestingness: 193 out of 200

photo: 6434257209 c1d6c5aca8 7010
owner: 47393872@N00
title: IMG_0499
originalsecret: null
originalformat: null
o_height: null
o_width: null
datetaken: 2011-11-30 12:05:29
dateupload: 1322708826
tags: emp expereincemusicproject
license: 0
latitude: 47.621235
longitude: -122.348427
accuracy: 14
views: 0
interestingness: 194 out of 200

photo: 6434256395 fa2f060a57 7142
owner: 47393872@N00
title: IMG_0498
originalsecret: null
originalformat: null
o_height: null
o_width: null
datetaken: 2011-11-30 12:05:21
dateupload: 1322708813
tags: emp expereincemusicproject
license: 0
latitude: 47.621235
longitude: -122.348427
accuracy: 14
views: 0
interestingness: 195 out of 200

photo: 6434255613 de5a49f3d0 7006
owner: 47393872@N00
title: IMG_0497
originalsecret: null
originalformat: null
o_height: null
o_width: null
datetaken: 2011-11-30 12:04:53
dateupload: 1322708801
tags: emp expereincemusicproject
license: 0
latitude: 47.621235
longitude: -122.348427
accuracy: 14
views: 0
interestingness: 196 out of 200

photo: 6434254773 75a73471a8 7027
owner: 47393872@N00
title: Alien FaceHugger
originalsecret: null
originalformat: null
o_height: null
o_width: null
datetaken: 2011-11-30 12:04:41
dateupload: 1322708788
tags: emp expereincemusicproject
license: 0
latitude: 47.621235
longitude: -122.348427
accuracy: 14
views: 0
interestingness: 197 out of 200

photo: 6434254027 df9e070cc2 7017
owner: 47393872@N00
title: Jack Torrance's axe-The Shining
originalsecret: null
originalformat: null
o_height: null
o_width: null
datetaken: 2011-11-30 12:04:29
dateupload: 1322708777
tags: emp expereincemusicproject
license: 0
latitude: 47.621235
longitude: -122.348427
accuracy: 14
views: 0
interestingness: 198 out of 200

photo: 6434252465 5cc6514c95 7146
owner: 47393872@N00
title: Jason's Mask
originalsecret: null
originalformat: null
o_height: null
o_width: null
datetaken: 2011-11-30 12:03:00
dateupload: 1322708754
tags: emp expereincemusicproject
license: 0
latitude: 47.621235
longitude: -122.348427
accuracy: 14
views: 0
interestingness: 199 out of 200

photo: 6434250879 5b4276c7db 7026
owner: 47393872@N00
title: Horror Movie Timeline
originalsecret: null
originalformat: null
o_height: null
o_width: null
datetaken: 2011-11-30 12:02:16
dateupload: 1322708730
tags: emp expereincemusicproject
license: 0
latitude: 47.621235
longitude: -122.348427
accuracy: 14
views: 0
interestingness: 200 out of 200

photo: 6434249983 cb1f719e6c 7018
owner: 47393872@N00
title: Texas Chainsaw Massacre
originalsecret: null
originalformat: null
o_height: null
o_width: null
datetaken: 2011-11-30 12:01:44
dateupload: 1322708717
tags: emp expereincemusicproject
license: 0
latitude: 47.621235
longitude: -122.348427
accuracy: 14
views: 0
interestingness: 201 out of 200

photo: 6434249217 dda09c5f4b 7148
owner: 47393872@N00
title: Screm pictures
originalsecret: null
originalformat: null
o_height: null
o_width: null
datetaken: 2011-11-30 12:00:49
dateupload: 1322708706
tags: emp expereincemusicproject
license: 0
latitude: 47.621235
longitude: -122.348427
accuracy: 14
views: 0
interestingness: 202 out of 200

photo: 6434248101 713087586f 7022
owner: 47393872@N00
title: IMG_0488
originalsecret: null
originalformat: null
o_height: null
o_width: null
datetaken: 2011-11-30 12:00:24
dateupload: 1322708689
tags: emp expereincemusicproject
license: 0
latitude: 47.621235
longitude: -122.348427
accuracy: 14
views: 0
interestingness: 203 out of 200

photo: 6434247295 6c19edc705 7163
owner: 47393872@N00
title: "Can't Look Away" Entrance
originalsecret: null
originalformat: null
o_height: null
o_width: null
datetaken: 2011-11-30 12:00:02
dateupload: 1322708677
tags: emp expereincemusicproject
license: 0
latitude: 47.621235
longitude: -122.348427
accuracy: 14
views: 0
interestingness: 204 out of 200

photo: 6434246581 37cd35c91b 7149
owner: 47393872@N00
title: IMG_0486
originalsecret: null
originalformat: null
o_height: null
o_width: null
datetaken: 2011-11-30 11:59:09
dateupload: 1322708666
tags: emp expereincemusicproject
license: 0
latitude: 47.621235
longitude: -122.348427
accuracy: 14
views: 0
interestingness: 205 out of 200

photo: 6434245833 1c1feb9d0c 7144
owner: 47393872@N00
title: IMG_0485
originalsecret: null
originalformat: null
o_height: null
o_width: null
datetaken: 2011-11-30 11:59:01
dateupload: 1322708654
tags: emp expereincemusicproject
license: 0
latitude: 47.621235
longitude: -122.348427
accuracy: 14
views: 0
interestingness: 206 out of 200

photo: 6434245025 70261c21af 7154
owner: 47393872@N00
title: Guitar sculpture
originalsecret: null
originalformat: null
o_height: null
o_width: null
datetaken: 2011-11-30 11:56:59
dateupload: 1322708643
tags: emp expereincemusicproject
license: 0
latitude: 47.621235
longitude: -122.348427
accuracy: 14
views: 0
interestingness: 207 out of 200

photo: 6434244287 57eb15b386 7025
owner: 47393872@N00
title: Jimi Hendrix jumpsuit
originalsecret: null
originalformat: null
o_height: null
o_width: null
datetaken: 2011-11-30 11:56:49
dateupload: 1322708633
tags: emp expereincemusicproject
license: 0
latitude: 47.621235
longitude: -122.348427
accuracy: 14
views: 0
interestingness: 208 out of 200

photo: 6433512869 e815a43b09 7009
owner: 62066110@N03
title: Trumpet
originalsecret: null
originalformat: null
o_height: null
o_width: null
datetaken: 2011-12-01 02:02:01
dateupload: 1322697721
tags: music blackmanplayinggoldcoppertrumpet
license: 0
latitude: -25.970014
longitude: 28.127589
accuracy: 14
views: 12
interestingness: 209 out of 200

photo: 6435077835 3e17dc21bc 7169
owner: 54196341@N02
title: Selecta
originalsecret: null
originalformat: null
o_height: null
o_width: null
datetaken: 2011-11-26 16:52:14
dateupload: 1322722838
tags: 
license: 0
latitude: 38.968201
longitude: -77.028901
accuracy: 15
views: 22
interestingness: 210 out of 200

photo: 6434546391 85cc7a16e5 7028
owner: 40091403@N08
title: 
originalsecret: null
originalformat: null
o_height: null
o_width: null
datetaken: 2011-11-30 19:41:55
dateupload: 1322713069
tags: 
license: 0
latitude: 24.550646
longitude: -81.79906
accuracy: 15
views: 12
interestingness: 211 out of 200


mintime: 1322728192.27 maxtime: 1322751525.41
numimgs: 248
total pages: 1
visiting only 1 pages ( up to 250 images)
photo: 6424079087 ba78b21977 7160
owner: 33062170@N08
title: iPod Shuffle2 - Because The Night
originalsecret: null
originalformat: null
o_height: null
o_width: null
datetaken: 2011-11-26 18:10:23
dateupload: 1322745900
tags: street camera uk winter portrait woman white girl smile fashion st lady female night dark hair manchester 50mm evening claire hands women focus soft dof bokeh box circles f14 coat teeth flash style smith off tony ring leopard blond shallow softbox tib hotpix tonysmith strobist bokehbokeh tonysmithhotpix
license: 0
latitude: 53.483251
longitude: -2.23583
accuracy: 15
views: 957
interestingness: 1 out of 248

photo: 6435486119 b7f8570b1a 7010
owner: 8771119@N02
title: IMG_7045
originalsecret: f30b2d2194
originalformat: jpg
o_height: 3372
o_width: 3524
datetaken: 2011-12-01 11:17:29
dateupload: 1322732442
tags: canoneos350d ?? ef20mmf28usm ??????? ???? ???????? 20111201 ????????? ????? ????? ????
license: 0
latitude: 22.991622
longitude: 120.204634
accuracy: 16
views: 58
interestingness: 2 out of 248

photo: 6436130765 f4c4cd09e0 7018
owner: 41288529@N00
title: The Windows of heaven are open.
originalsecret: c1c88a59ab
originalformat: jpg
o_height: 3872
o_width: 2592
datetaken: 2011-11-26 18:39:34
dateupload: 1322745912
tags: blue sky white reflection blanco window glass azul clouds ventana leon cielo nubes cristal reflejos
license: 0
latitude: 42.60207
longitude: -5.579627
accuracy: 16
views: 74
interestingness: 3 out of 248

photo: 5432328176 879b55de9a 5100
owner: 10839729@N08
title: Mother Maybelle's Place
originalsecret: null
originalformat: null
o_height: null
o_width: null
datetaken: 2009-01-10 11:57:23
dateupload: 1322742474
tags: house virginia identified nationalregisterofhistoricplaces scottcounty
license: 0
latitude: 36.673508
longitude: -82.402278
accuracy: 16
views: 67
interestingness: 4 out of 248

photo: 6435581485 52118ef435 7169
owner: 25182348@N07
title: Berri Txarrak_03@Fnac_Castellana
originalsecret: null
originalformat: null
o_height: null
o_width: null
datetaken: 2011-11-22 19:25:51
dateupload: 1322734851
tags: madrid espa?a music apple rock canon iso100 spain mac hardcore m?sica f28 haria davidgonzalez berritxarrak tamronspaf1750mmf28xr canoneos7d adobelightroom3 adobephotoshopcs5 wwwhectorvilaes wwwmusicopolises cameraraw63 galderizaguirre gorzkaurbizu music?p?lis fnaccastellana
license: 0
latitude: 40.447571
longitude: -3.692586
accuracy: 16
views: 151
interestingness: 5 out of 248

photo: 6435581109 794a399c75 7144
owner: 25182348@N07
title: Opeth_04@Pen?lope
originalsecret: null
originalformat: null
o_height: null
o_width: null
datetaken: 2011-11-19 21:24:29
dateupload: 1322734842
tags: madrid espa?a music apple rock metal canon iso800 spain mac heavymetal opeth singer concerts m?sica f28 conciertos guitarrista cantante guittar painofsalvation livemusicphotography tamronspaf1750mmf28xr canoneos7d salapen?lope adobelightroom3 adobephotoshopcs5 wwwhectorvilaes fotograf?adem?sicaendirecto cameraraw63
license: 0
latitude: 40.435715
longitude: -3.716576
accuracy: 16
views: 115
interestingness: 6 out of 248

photo: 6436010359 b9ba17a559 7005
owner: 57924082@N05
title: Espinho
originalsecret: null
originalformat: null
o_height: null
o_width: null
datetaken: 2011-01-01 15:11:16
dateupload: 1322743777
tags: show california park christmas street new city trip travel family blue winter wedding friends light sunset red sea party summer brazil vacation portrait england sky people italy music food usa dog white holiday snow black paris flower macro tree green art film beach portugal nature water girl car festival rock japan architecture night clouds cat canon germany garden landscape fun graffiti photo spring spain nikon europe raw lisboa live sony porto hdr espinho fcp
license: 0
latitude: 41.011082
longitude: -8.645145
accuracy: 16
views: 56
interestingness: 7 out of 248

photo: 6435722519 87b11fef95 7005
owner: 38070199@N08
title: Michelle Williams "On The Run" Record Launch Party
originalsecret: null
originalformat: null
o_height: null
o_width: null
datetaken: 2011-12-01 04:42:34
dateupload: 1322737947
tags: party england music celebrity london simon photography hall photo photographer child williams image live famous michelle run pop alist sing singer kelly perform guest launch press product dc3 britton fitz popstar beyonce westbury destinyschild perfomance destinys rowland michellewilliams fitzhall simonbritton
license: 0
latitude: 51.50632
longitude: -0.12714
accuracy: 11
views: 72
interestingness: 8 out of 248

photo: 6435390633 0e663b3d04 7167
owner: 40091339@N02
title: DENTE
originalsecret: null
originalformat: null
o_height: null
o_width: null
datetaken: 2011-12-01 00:00:43
dateupload: 1322730127
tags: show music concert italia live milano stage concerto musica ita dente spettacolo segrate musicaitaliana circolomagnolia iotradinoiclubtour
license: 0
latitude: 45.465398
longitude: 9.285442
accuracy: 15
views: 8
interestingness: 9 out of 248

photo: 6436337649 bacbf26853 7150
owner: 62319288@N07
title: Day #3 of 365 - This Old Guitar
originalsecret: null
originalformat: null
o_height: null
o_width: null
datetaken: 2011-12-01 19:28:47
dateupload: 1322749321
tags: china old project nikon wuxi guitar 365 d7000
license: 0
latitude: 31.573563
longitude: 120.298919
accuracy: 10
views: 40
interestingness: 10 out of 248

photo: 6436351911 832f124318 7015
owner: 29795849@N00
title: Stereosonic/2
originalsecret: 39f672322c
originalformat: jpg
o_height: 1063
o_width: 1600
datetaken: 2011-11-27 17:23:20
dateupload: 1322749526
tags: festival perth electronicmusic wa stereosonic
license: 1
latitude: -31.97671
longitude: 115.785791
accuracy: 15
views: 42
interestingness: 11 out of 248

photo: 6435721165 12af72603a 7025
owner: 59526208@N03
title: Amorphis
originalsecret: null
originalformat: null
o_height: null
o_width: null
datetaken: 2011-11-21 01:01:54
dateupload: 1322737919
tags: amorphis porto oporto portugal portrait musicphotography death metal band grupo banda progressive rock progresivo europa europe canon 450d travel viaje music musica photography people live directo playing play november noviembre guitar 2011 finnish heavy finland tomi koivusaari joutsen esa holopainen thebeginningoftimes niclas etel?vuori backing vocals santeri kallio keyboards bass jan rechberger suomi
license: 0
latitude: 41.149379
longitude: -8.61034
accuracy: 11
views: 93
interestingness: 12 out of 248

photo: 6435394665 66f5348d9d 7162
owner: 40091339@N02
title: DENTE
originalsecret: null
originalformat: null
o_height: null
o_width: null
datetaken: 2011-12-01 00:13:37
dateupload: 1322730216
tags: show music concert italia live milano stage concerto musica ita dente spettacolo segrate musicaitaliana circolomagnolia iotradinoiclubtour
license: 0
latitude: 45.465398
longitude: 9.285442
accuracy: 15
views: 3
interestingness: 13 out of 248

photo: 6435522373 bdfa26ae36 7169
owner: 51253571@N02
title: 100624_topsythegreat_025
originalsecret: 75a87e10dc
originalformat: jpg
o_height: 1600
o_width: 1067
datetaken: 2010-06-24 19:15:41
dateupload: 1322733346
tags: italy music june festival rock drums glasses concert bass guitar live great band player concerto tuscany bassist drummer trio blackout noise giugno prato guitarist batteria chitarra 2010 valentina gruppo topsy occhiali musicale basso chitarrista bassista batterista galceti ceccatelli
license: 0
latitude: 43.909774
longitude: 11.083891
accuracy: 15
views: 8
interestingness: 14 out of 248

photo: 6435496339 008df99585 7167
owner: 69566293@N08
title: Sense the city-8
originalsecret: null
originalformat: null
o_height: null
o_width: null
datetaken: 2011-11-30 16:36:25
dateupload: 1322732683
tags: city bridge music london tower thames musicians river boats drums bass band guitars belfast business battleship sense
license: 0
latitude: 51.504468
longitude: -0.126342
accuracy: 9
views: 37
interestingness: 15 out of 248

photo: 6426387311 44351197fe 7022
owner: 8088437@N04
title: ...A TOYS ORCHESTRA_BOLOGNA_TPO_2011_95.
originalsecret: fb75faa563
originalformat: jpg
o_height: 1200
o_width: 1800
datetaken: 2011-11-13 13:26:18
dateupload: 1322741495
tags: old party music white black eye girl rock metal modern illustration composition studio disco toys design big concert technology play graphic symbol artistic bass guitar background band style funky retro concerto equipment note melody entertainment musical orchestra sound musica indie instrument beat speaker classical sheet tune curve audio loud symphony isolated element treble selvaggio mucchio atoysorchestraatoysorchestradiaframmafiumanipifpeopleinvolvementfestivalconcertoconcertobolognadalvivo20102011bolognettitpolucicoloricolorenotterockindieindipendente
license: 0
latitude: 44.504234
longitude: 11.329146
accuracy: 15
views: 19
interestingness: 16 out of 248

photo: 6436053935 ff56f8b1d1 7003
owner: 47972016@N04
title: DSCN5273
originalsecret: 0c644f7bc8
originalformat: jpg
o_height: 1536
o_width: 2048
datetaken: 2011-11-26 00:02:12
dateupload: 1322744561
tags: music london gigs brixtonacademy chadvalley friendlyfires sbtrkt
license: 0
latitude: 51.465772
longitude: -0.114798
accuracy: 14
views: 14
interestingness: 17 out of 248

photo: 6435726735 4a753fca0b 7008
owner: 38070199@N08
title: Michelle Williams "On The Run" Record Launch Party
originalsecret: null
originalformat: null
o_height: null
o_width: null
datetaken: 2011-12-01 04:43:22
dateupload: 1322738033
tags: party england music celebrity london simon photography hall photo photographer child williams image live famous michelle run pop alist sing singer kelly perform guest launch press product dc3 britton fitz popstar beyonce westbury destinyschild perfomance destinys rowland michellewilliams fitzhall simonbritton
license: 0
latitude: 51.50632
longitude: -0.12714
accuracy: 11
views: 85
interestingness: 18 out of 248

photo: 6435725371 f94d516284 7006
owner: 38070199@N08
title: Michelle Williams "On The Run" Record Launch Party
originalsecret: null
originalformat: null
o_height: null
o_width: null
datetaken: 2011-12-01 04:43:20
dateupload: 1322738005
tags: party england music celebrity london simon photography hall photo photographer child williams image live famous michelle run pop alist sing singer kelly perform guest launch press product dc3 britton fitz popstar beyonce westbury destinyschild perfomance destinys rowland michellewilliams fitzhall simonbritton
license: 0
latitude: 51.50632
longitude: -0.12714
accuracy: 11
views: 86
interestingness: 19 out of 248

photo: 6435723975 b9d7369a31 7030
owner: 38070199@N08
title: Michelle Williams "On The Run" Record Launch Party
originalsecret: null
originalformat: null
o_height: null
o_width: null
datetaken: 2011-12-01 04:43:19
dateupload: 1322737976
tags: party england music celebrity london simon photography hall photo photographer child williams image live famous michelle run pop alist sing singer kelly perform guest launch press product dc3 britton fitz popstar beyonce westbury destinyschild perfomance destinys rowland michellewilliams fitzhall simonbritton
license: 0
latitude: 51.50632
longitude: -0.12714
accuracy: 11
views: 87
interestingness: 20 out of 248

photo: 6435721087 1a39d25359 7142
owner: 38070199@N08
title: Michelle Williams "On The Run" Record Launch Party
originalsecret: null
originalformat: null
o_height: null
o_width: null
datetaken: 2011-12-01 04:41:54
dateupload: 1322737918
tags: party england music celebrity london simon photography hall photo photographer child williams image live famous michelle run pop alist sing singer kelly perform guest launch press product dc3 britton fitz popstar beyonce westbury destinyschild perfomance destinys rowland michellewilliams fitzhall simonbritton
license: 0
latitude: 51.50632
longitude: -0.12714
accuracy: 11
views: 93
interestingness: 21 out of 248

photo: 6426242609 d9e10dfd61 7174
owner: 8088437@N04
title: ...A TOYS ORCHESTRA_BOLOGNA_TPO_2011_9.
originalsecret: 05d43c3744
originalformat: jpg
o_height: 1800
o_width: 1216
datetaken: 2011-11-13 12:54:25
dateupload: 1322741072
tags: old party music white black eye rock metal modern illustration composition studio disco toys design big concert technology play graphic symbol artistic bass guitar background band style funky retro concerto equipment note melody entertainment musical orchestra sound musica indie instrument beat speaker classical sheet tune curve audio loud symphony isolated element treble selvaggio mucchio atoysorchestraatoysorchestradiaframmafiumanipifpeopleinvolvementfestivalconcertoconcertobolognadalvivo20102011bolognettitpolucicoloricolorenotterockindieindipendente
license: 0
latitude: 44.504234
longitude: 11.329146
accuracy: 15
views: 14
interestingness: 22 out of 248

photo: 6435917601 5c17630fc2 7004
owner: 7469183@N02
title: Behind the mask
originalsecret: 03f7b67606
originalformat: jpg
o_height: 684
o_width: 1024
datetaken: 2011-04-08 20:29:39
dateupload: 1322741987
tags: blur art project dance movement competition 365 drama ahs project365 housedrama aylesburyhighschool 3652011 2011078
license: 0
latitude: 51.812196
longitude: -0.802924
accuracy: 14
views: 20
interestingness: 23 out of 248

photo: 6435811433 3e0582cfe4 7005
owner: 52137138@N04
title: The show must go on
originalsecret: null
originalformat: null
o_height: null
o_width: null
datetaken: 2011-11-27 12:53:51
dateupload: 1322739793
tags: christmas york city uk winter england music geotagged cafe autum yorkshire yorkminster yorkcity
license: 0
latitude: 53.95333
longitude: -1.08342
accuracy: 11
views: 3
interestingness: 24 out of 248

photo: 6435799155 cdda832b08 7170
owner: 27528906@N04
title: BostonScaryDance2
originalsecret: 6d55a2590a
originalformat: jpg
o_height: 595
o_width: 800
datetaken: 2011-08-12 22:36:44
dateupload: 1322739560
tags: urban promotion boston dancing massachusetts streetphotography amusementpark quincymarket canobielakepark faneuilhallmarketplace
license: 0
latitude: 42.359443
longitude: -71.05567
accuracy: 16
views: 17
interestingness: 25 out of 248

photo: 6435731323 5ca1bf986c 7164
owner: 38070199@N08
title: Michelle Williams "On The Run" Record Launch Party
originalsecret: null
originalformat: null
o_height: null
o_width: null
datetaken: 2011-12-01 04:43:45
dateupload: 1322738129
tags: party england music celebrity london simon photography hall photo photographer child williams image live famous michelle run pop alist sing singer kelly perform guest launch press product dc3 britton fitz popstar beyonce westbury destinyschild perfomance destinys rowland michellewilliams fitzhall simonbritton
license: 0
latitude: 51.50632
longitude: -0.12714
accuracy: 11
views: 72
interestingness: 26 out of 248

photo: 6435728149 a51064bd78 7157
owner: 38070199@N08
title: Michelle Williams "On The Run" Record Launch Party
originalsecret: null
originalformat: null
o_height: null
o_width: null
datetaken: 2011-12-01 04:43:38
dateupload: 1322738061
tags: party england music celebrity london simon photography hall photo photographer child williams image live famous michelle run pop alist sing singer kelly perform guest launch press product dc3 britton fitz popstar beyonce westbury destinyschild perfomance destinys rowland michellewilliams fitzhall simonbritton
license: 0
latitude: 51.50632
longitude: -0.12714
accuracy: 11
views: 87
interestingness: 27 out of 248

photo: 6435534719 47af7795a7 7007
owner: 51253571@N02
title: 100624_topsythegreat_027
originalsecret: 9742546eb0
originalformat: jpg
o_height: 1067
o_width: 1600
datetaken: 2010-06-24 19:17:31
dateupload: 1322733653
