
mintime: 1322697600 maxtime: 1322811870.47
numimgs: 250
total pages: 1
visiting only 1 pages ( up to 250 images)
photo: 6432051455 9a31a58a99 7164
owner: 81035653@N00
title: Strolling down the streets of the old city of Ljubljana
originalsecret: null
originalformat: null
o_height: null
o_width: null
datetaken: 2011-08-15 11:15:36
dateupload: 1322750340
tags: street old city trip summer people holiday streets men castle history church river walking geotagged graffiti restaurant town women energy europe child market small hill capital sightseeing relaxing scenic atmosphere pedestrian down charm tourist architect slovenia shops ljubljana local baroque wandering beloved laibach strolling ljubljanica top50 lubiana 50faves jo?e planota ple?nikits geo:lon=14509512 geo:lat=46050318 plajska
license: 0
latitude: 46.050413
longitude: 14.509592
accuracy: 16
views: 7902
interestingness: 1 out of 250

photo: 6436606147 79bcbbb146 7164
owner: 33618837@N02
title: Staircase for fire exit in Musikverein - Vienna, Wien
originalsecret: 203c039a67
originalformat: jpg
o_height: 775
o_width: 1032
datetaken: 2011-11-06 20:27:45
dateupload: 1322753261
tags: vienna wien stairs austria staircase redcarpet fireexit balustrades ironwrought musikverein mygearandme mygearandmepremium
license: 0
latitude: 48.200965
longitude: 16.37142
accuracy: 15
views: 379
interestingness: 2 out of 250

photo: 6390780493 08b0454bca 6112
owner: 35110249@N05
title: Grapes Berceau in Autumn
originalsecret: 4238e1d673
originalformat: jpg
o_height: 699
o_width: 1050
datetaken: 2011-11-08 15:16:14
dateupload: 1322729460
tags: autumn holland fall netherlands dutch state herfst nederland tunnel villa niederlande berceau burcht landhuis najaar stins provincefriesland a550 loofgang jelsum dekemastate martienuiterweerd carlzeisssony1680 martienarnhem sonyalpha550 mygearandme mygearandmepremium martienholland mygearandmebronze fotomartien formerstronghold
license: 0
latitude: 53.233269
longitude: 5.782005
accuracy: 10
views: 274
interestingness: 3 out of 250

photo: 6431164291 6a30f72083 7166
owner: 29572786@N08
title: Arriba ARRIVA
originalsecret: null
originalformat: null
o_height: null
o_width: null
datetaken: 2010-11-30 15:49:14
dateupload: 1322723938
tags: bridge reflection water train landscape aerial reflejo groningen henk trainbridge arriva vanstarkenborghkanaal nikond90 powerfocusfotografie walfridisbrug mygearandme
license: 0
latitude: 53.24344
longitude: 6.554718
accuracy: 11
views: 368
interestingness: 4 out of 250

photo: 6434987575 3b8022e434 7153
owner: 29965389@N03
title: 
originalsecret: null
originalformat: null
o_height: null
o_width: null
datetaken: 2011-11-13 14:50:14
dateupload: 1322720839
tags: people color colour 35mm canon dirty creta crete dirtyharry nologos 5dmkii dirtyharrry nobanners pleasenobanners pleasenologos
license: 0
latitude: 35.330251
longitude: 24.604396
accuracy: 11
views: 422
interestingness: 5 out of 250

photo: 6438842951 e76852c4a5 7001
owner: 43567339@N06
title: Lonely Is The Name
originalsecret: 97e314e7b3
originalformat: jpg
o_height: 1181
o_width: 847
datetaken: 2011-11-01 17:58:23
dateupload: 1322783216
tags: wien sunset tree clouds austria
license: 0
latitude: 47.622826
longitude: 15.152984
accuracy: 7
views: 153
interestingness: 6 out of 250

photo: 6434317657 e46b634748 7020
owner: 34365212@N08
title: Purple Prickly Pear Cactus
originalsecret: null
originalformat: null
o_height: null
o_width: null
datetaken: 2011-11-11 12:12:45
dateupload: 1322755440
tags: cactus texture purple pricklypear motat purplepricklypearcactus tatot kimklassen thornsspines
license: 0
latitude: 33.463668
longitude: -111.472434
accuracy: 11
views: 159
interestingness: 7 out of 250

photo: 6435538243 3043b9de2f 7017
owner: 14873749@N02
title: Loch an Eilein Castle
originalsecret: 0e8d42472d
originalformat: jpg
o_height: 1402
o_width: 1860
datetaken: 2011-09-25 15:12:08
dateupload: 1322733748
tags: castle geotagged scotland ruin aviemore robroy rothiemurchus lochaneilein ruinedcastle wolfofbadenoch mygearandme managedbyclickandpraysflickrmanagr robbersway geo:lat=57149041611863026 geo:lon=38221324880828433
license: 0
latitude: 57.149041
longitude: -3.822132
accuracy: 16
views: 137
interestingness: 8 out of 250

photo: 6435449057 e35a784e36 7142
owner: 68278382@N06
title: Damascus 2011
originalsecret: null
originalformat: null
o_height: null
o_width: null
datetaken: 2011-11-30 12:12:58
dateupload: 1322731522
tags: city sky mountain clouds buildings capital mount arab syria arabian damascus syrian ????? ??? ????? ???? ????? ?????? ??? ?????? nawar kassioun abigfave canoneos400d ?????? ??????? flickraward kouli flickraward5 flickrawardgallery
license: 0
latitude: 33.513633
longitude: 36.310501
accuracy: 10
views: 178
interestingness: 9 out of 250

photo: 6439321223 072b0e1e41 7148
owner: 82161892@N00
title: We are Doomed
originalsecret: null
originalformat: null
o_height: null
o_width: null
datetaken: 2011-11-26 15:47:43
dateupload: 1322790817
tags: girl chica zombie doom ringflash zombiewalk zombiewalkmexico zombiewalkmexico2011
license: 0
latitude: 19.435392
longitude: -99.149111
accuracy: 15
views: 221
interestingness: 10 out of 250

photo: 6438466771 f51564435b 7167
owner: 24490288@N04
title: Canning Dock Reflections
originalsecret: ab901a3a38
originalformat: jpg
o_height: 2930
o_width: 4410
datetaken: 2011-11-01 17:49:30
dateupload: 1322777934
tags: christmas winter nature water night liverpool canon buildings reflections river lights canal wildlife unesco pierhead albertdock wirral merseyside rivermersey greatphotographers canningdock mannisland platinumheartaward liverpoolleedscanal oneterry ?flickraward? flickrstruereflection1 flickrstruereflection2
license: 0
latitude: 53.400462
longitude: -2.993817
accuracy: 14
views: 144
interestingness: 11 out of 250

photo: 6437153743 fcf1ceec8c 7010
owner: 40962351@N00
title: leopard leggins in cardiff
originalsecret: null
originalformat: null
o_height: null
o_width: null
datetaken: 2011-11-29 14:22:44
dateupload: 1322760559
tags: street portrait feet girl fashion lady female person beige funny legs pair cardiff cream human leopard matching leggins legins leopardlegins file:name=111129eos5d4459
license: 0
latitude: 51.479044
longitude: -3.178546
accuracy: 16
views: 556
interestingness: 12 out of 250

photo: 6435736675 3d1e362071 7001
owner: 87453322@N00
title: Outsider. Ultra surveying the Inner City, Cascade Complex, Groningen, The Netherlands
originalsecret: null
originalformat: null
o_height: null
o_width: null
datetaken: 2011-11-30 10:50:41
dateupload: 1322738248
tags: 1001nights philippestarck coophimmelblau silviab alessandromendini groningenthenetherlands abebonnema abigfave ubboemmius flickraward blinkagain waddenzeethenetherlands groningermuseumgroningenthenetherlands albertsandvanhuut leeuwardenthenetherlands deregentesgroningenthenetherlands cascadecomplexgroningenthenetherlands ultraderegentesgroningenthgenetherlands
license: 0
latitude: 53.212323
longitude: 6.56138
accuracy: 16
views: 127
interestingness: 13 out of 250

photo: 6437580949 89360a4425 7028
owner: 11929238@N03
title: 56 - Al-Wal?y
originalsecret: dc5b4503a0
originalformat: jpg
o_height: 1401
o_width: 2070
datetaken: 2011-12-01 18:08:57
dateupload: 1322766350
tags: cyprus soe picnik famagusta trnc k?br?s northerncyprus coth kktc esma?lh?sna kuzeyk?br?s namesofallah gazima?usa armaganorki arma?an?rki thebestofday g?n?neniyisi ????? coth5 allah?nisimleri alwal?y elveliy
license: 0
latitude: 35.100108
longitude: 33.961486
accuracy: 11
views: 129
interestingness: 14 out of 250

photo: 6435092447 20fcec09eb 7170
owner: 56803013@N02
title: 'Shongololo' ~ a Spiral of Nature...
originalsecret: 77a1241399
originalformat: jpg
o_height: 1626
o_width: 1626
datetaken: 2011-11-30 09:55:47
dateupload: 1322723152
tags: interesting ngc millipede textured arthropod diplopoda bodysegments osolev ellenvd
license: 0
latitude: -29.747416
longitude: 30.839889
accuracy: 15
views: 56
interestingness: 15 out of 250

photo: 6433929213 cf23d441c3 7007
owner: 33281223@N08
title: McMeow
originalsecret: 563ff8f8c8
originalformat: jpg
o_height: 4256
o_width: 2832
datetaken: 2011-11-23 10:57:01
dateupload: 1322704015
tags: portrait macro eye animal cat fur nose nikon flash micro whisker nikkor speedlight f28 105mm strobist su800 nikkor105mmf28macro sb900 d3s
license: 0
latitude: 23.181447
longitude: 113.313679
accuracy: 16
views: 156
interestingness: 16 out of 250

photo: 6439350687 884d7f3d77 7159
owner: 25707739@N07
title: The Secret Garden
originalsecret: 2b810d94d9
originalformat: jpg
o_height: 1024
o_width: 910
datetaken: 2011-12-01 21:01:41
dateupload: 1322791301
tags: reflect appreciate silentbeauty joyofnature wintersrest quietlywaiting delicatenature simpleblossoms sendinglightandwarmthtoyourheart filledwiththescentofangels
license: 0
latitude: 35.104751
longitude: -82.13072
accuracy: 15
views: 49
interestingness: 17 out of 250

photo: 6437781375 52af30ee0b 7001
owner: 8153468@N04
title: Surma/Suri Woman
originalsecret: 0873b54e81
originalformat: jpg
o_height: 700
o_width: 467
datetaken: 2011-11-07 17:42:20
dateupload: 1322769127
tags: africa omovalley ethiopia surma suri kibish snnp lipplateoff nov2011 benchmajizone
license: 0
latitude: 6.260697
longitude: 35.194702
accuracy: 7
views: 268
interestingness: 18 out of 250

photo: 6436011097 f7d1bcd33f 7167
owner: 14198543@N07
title: The Grand Duchess of San Francisco
originalsecret: 1c8769c460
originalformat: jpg
o_height: 768
o_width: 1024
datetaken: 2011-09-06 19:40:28
dateupload: 1322743790
tags: california travel bridge sign golden photo gate san francisco different photos unique famous goldengatebridge blinkagain ggnpc11 themostphotographedthing
license: 0
latitude: 37.809068
longitude: -122.47663
accuracy: 16
views: 858
interestingness: 19 out of 250

photo: 6440195763 a66427330b 7018
owner: 48549022@N04
title: Beauty is everywhere
originalsecret: null
originalformat: null
o_height: null
o_width: null
datetaken: 2011-07-05 20:02:46
dateupload: 1322806045
tags: street france nice europe southernfrance ??
license: 0
latitude: 43.70153
longitude: 7.27824
accuracy: 11
views: 202
interestingness: 20 out of 250

photo: 6439017119 8011b8aa6f 7158
owner: 50152666@N02
title: Peelbark St. John's-wort (Hypericum fasciculatum)
originalsecret: 6c97a40bbc
originalformat: jpg
o_height: 1024
o_width: 1024
datetaken: 2011-11-30 10:07:33
dateupload: 1322785898
tags: hypericum palmbeachcounty millepertuis nikoncoolpix fleurssauvages clusiaceae macroflowerlovers floridawildflowers sweetbaynaturalarea sandweed taxonomy:binomial=hypericumfasciculatum peelbarkstjohnswort hypericumfasciculatum
license: 1
latitude: 26.859308
longitude: -80.235246
accuracy: 16
views: 46
interestingness: 21 out of 250

photo: 6440115639 699ea0c5e1 7011
owner: 43732391@N00
title: Messina at night
originalsecret: f973877d03
originalformat: jpg
o_height: 1406
o_width: 1956
datetaken: 2011-11-29 18:16:33
dateupload: 1322804468
tags: italy europa europe italia sicily sicilia messina santuariodimontalto
license: 0
latitude: 38.181259
longitude: 15.555267
accuracy: 10
views: 57
interestingness: 22 out of 250

photo: 6438348867 fca2379f35 7161
owner: 19376795@N00
title: Girl with no name
originalsecret: null
originalformat: null
o_height: null
o_width: null
datetaken: 2011-11-26 12:03:38
dateupload: 1322776371
tags: brazil woman girl beautiful brasil canon legs corte altitude mulher hipster sp crop 7d bonita pernas garota bento beleza paulo sandalia sao turismo pedra s?o bau campos rosto jordao rocha turistico 55250mm
license: 0
latitude: -22.697654
longitude: -45.733337
accuracy: 9
views: 73
interestingness: 23 out of 250

photo: 6436696925 26acf55644 7025
owner: 15470975@N03
title: "Tibetan Pika"  Ochotona thibetana, ?????? bra ba.
originalsecret: null
originalformat: null
o_height: null
o_width: null
datetaken: 2011-09-11 13:53:05
dateupload: 1322754507
tags: lake tar manasarovar 2011 tibetautonomousregion maphamyutso tibetanpika ?????????? ?janreurink tibetanplateau????????????b?togang tibet??? ngari???????? tibetanecologyfoundation????????????????????????????????bodyulskyekhamsthebsrtsatshogspa natureofphenomena???????????????choskyidbyings ??????rdzabrabraba taillessrodent mammals?????????????????othungsrogchags nature????????????rangbyungrangjung ochotonathibetana ???? purang??????????county ????????????? farwesttibet rodent??????????????????????????????????ribongdangsremonggirigslaangzer
license: 0
latitude: 30.799801
longitude: 81.48405
accuracy: 16
views: 142
interestingness: 24 out of 250

photo: 6436468813 52a7a314c1 7034
owner: 70938611@N00
title: (North American Species # 467) A  Louisiana Waterthrush
originalsecret: e8973db202
originalformat: jpg
o_height: 683
o_width: 1024
datetaken: 2011-11-11 16:50:57
dateupload: 1322751237
tags: bird flying inflight jumping louisiana cuba flight coco cayo waterthrush louisianawaterthrush
license: 0
latitude: 22.48175
longitude: -78.4813
accuracy: 1
views: 120
interestingness: 25 out of 250

photo: 6437758427 183790ebf3 7149
owner: 9146943@N06
title: "Like swift water, an active mind never stagnates" ~
originalsecret: 0ac341fbff
originalformat: jpg
o_height: 2608
o_width: 3563
datetaken: 2011-10-22 17:22:30
dateupload: 1322768803
tags: america texas gazebo southlake southlaketownsquare akob platinumphoto canonpowershotsx100is
license: 5
latitude: 32.942588
longitude: -97.131202
accuracy: 11
views: 63
interestingness: 26 out of 250

photo: 6435378715 6e2bf0a3f4 7146
owner: 47290943@N03
title: December 1, 1963
originalsecret: 389afe6f0f
originalformat: jpg
o_height: 4838
o_width: 4929
datetaken: 1963-12-01 08:57:04
dateupload: 1322729824
tags: railroad ireland clock electric fireplace december phone calendar trains lantern 1960s trunks railways sixties athlone 1963 mantelpiece railwayman leinster westmeath signallevers signalcabin nationallibraryofireland ci? athlonewest coraniompair?ireann lineswitching jamespodeaodeacollection
license: 7
latitude: 53.422388
longitude: -7.963903
accuracy: 11
views: 402
interestingness: 27 out of 250

photo: 6440114809 6bc5b796f7 7151
owner: 43732391@N00
title: Messina - Riflessi sullo Stretto
originalsecret: 24c27e61c0
originalformat: jpg
o_height: 1302
o_width: 1827
datetaken: 2011-11-29 18:14:53
dateupload: 1322804451
tags: italy europa europe italia sicily sicilia messina strettodimessina straitofmessina
license: 0
latitude: 38.184767
longitude: 15.55252
accuracy: 9
views: 45
interestingness: 28 out of 250

photo: 6439697769 eca4c32a9f 7174
owner: 53098051@N02
title: Knowledge is Freedom
originalsecret: faf373d003
originalformat: jpg
o_height: 3199
o_width: 13394
datetaken: 2011-11-24 08:22:11
dateupload: 1322797180
tags: arizona phoenix wall graffiti murals raul gonzalez hdr mictlan
license: 0
latitude: 33.458586
longitude: -112.058798
accuracy: 16
views: 50
interestingness: 29 out of 250

photo: 6438202065 71389ece3c 7015
owner: 45190549@N08
title: Thinking Outside The Box
originalsecret: d78115b22e
originalformat: jpg
o_height: 1877
o_width: 2394
datetaken: 2011-12-01 09:04:20
dateupload: 1322774503
tags: flickrawardgallery
license: 0
latitude: 54.968105
longitude: -1.607522
accuracy: 14
views: 53
interestingness: 30 out of 250

photo: 6435221539 9170dfff0f 7034
owner: 44216070@N00
title: Mykonos Windmills
originalsecret: e4c44beab2
originalformat: jpg
o_height: 1779
o_width: 2468
datetaken: 2007-06-13 14:43:31
dateupload: 1322726090
tags: white june geotagged five 110 windmills greece superhero mills mykonos 2007 gamewinner a3b friendlychallenges thechallengefactory gamex2winner herowinner pregamewinner 110mill
license: 0
latitude: 37.443108
longitude: 25.329059
accuracy: 10
views: 41
interestingness: 31 out of 250

photo: 6434558985 9715b1eb65 7035
owner: 90717863@N00
title: 22/30
originalsecret: null
originalformat: null
o_height: null
o_width: null
datetaken: 2011-11-30 20:08:46
dateupload: 1322713249
tags: burgundy nailpolish itsagirlthing littlepleasures girlthings thankfulandgrateful patternpillow tonighttheturnwasforapricotgrapefruitandlillyofthevalley
license: 0
latitude: 14.631589
longitude: -90.550689
accuracy: 11
views: 101
interestingness: 32 out of 250

photo: 6433540133 8be3144324 7031
owner: 27531711@N08
title: Grand Canyon of the Yellowstone
originalsecret: null
originalformat: null
o_height: null
o_width: null
datetaken: 2011-09-22 11:11:27
dateupload: 1322698163
tags: summer usa water rock creek river stream sunny yellowstonenationalpark wyoming yellowstoneriver grandcanyonoftheyellowstone johncothron cothronphotography
license: 0
latitude: 44.726163
longitude: -110.481506
accuracy: 16
views: 93
interestingness: 33 out of 250

photo: 6438031421 43303761a7 7032
owner: 94618813@N00
title: Angola Prison- Work Gang
originalsecret: null
originalformat: null
o_height: null
o_width: null
datetaken: 2011-11-30 11:13:33
dateupload: 1322772410
tags: angola canonef35mmf14lusm nikcolorefexpro4 petebrook
license: 0
latitude: 30.966128
longitude: -91.568727
accuracy: 12
views: 109
interestingness: 34 out of 250

photo: 6437522221 da24c411c2 7023
owner: 53733884@N04
title: Orvieto Pozzo di San Patrizio
originalsecret: 3917e8bbe5
originalformat: jpg
o_height: 1920
o_width: 2560
datetaken: 2006-06-05 12:46:49
dateupload: 1322765552
tags: san italia di infinito umbria orvieto pozzo terni patrizio blinkagain
license: 0
latitude: 42.71717
longitude: 12.10499
accuracy: 11
views: 62
interestingness: 35 out of 250

photo: 6434804169 e87ed4c915 7033
owner: 43016959@N07
title: Flagship.
originalsecret: null
originalformat: null
o_height: null
o_width: null
datetaken: 2011-11-20 12:03:46
dateupload: 1322797653
tags: auto show street uk november england white car 30 canon eos rebel one la losangeles hp martin fast number international carbon fiber satin expensive quick coolest loud 77 rare exclusive fastest aston legal astonmartin nicest carbonfiber mods laautoshow volante vantage naturally drift horsepower dbs v12 fibre 750 carbonfibre quickest rapide virage 2011 rarest powerslide 550d carbonblack t2i aspirated charliedavis 750hp vantages one77 charliedavisphotography chazzz15 2011losangelesinternationalautoshow
license: 0
latitude: 34.039964
longitude: -118.270139
accuracy: 13
views: 125
interestingness: 36 out of 250

photo: 6429157883 1862f7fc67 6050
owner: 41254428@N05
title: The Hallway
originalsecret: null
originalformat: null
o_height: null
o_width: null
datetaken: 2011-09-21 18:07:55
dateupload: 1322699037
tags: light shadow blackandwhite bw monochrome lines contrast canon blackwhite taiwan beautifullight wideangle indoor line taipei contrasty wideanglelens llens digitalmonochrome geo76 canoneos5dmarkii 1635mmf28llens ????
license: 0
latitude: 25.028197
longitude: 121.532515
accuracy: 16
views: 60
interestingness: 37 out of 250

photo: 6438041645 ae8a037aa7 7174
owner: 94618813@N00
title: Angola Prison- Hospice Facility
originalsecret: null
originalformat: null
o_height: null
o_width: null
datetaken: 2011-11-30 13:09:28
dateupload: 1322772537
tags: hospice angola canon50mmf15usm nikcolorefexpro4 petebrook prisonhospice
license: 0
latitude: 30.966128
longitude: -91.568727
accuracy: 12
views: 100
interestingness: 38 out of 250

photo: 6435559797 759eb6f27b 7175
owner: 8427538@N02
title: At work
originalsecret: 34e9e43c28
originalformat: jpg
o_height: 4724
o_width: 3307
datetaken: 2011-11-02 11:03:41
dateupload: 1322734299
tags: bw architecture 35mm florida rangefinder olympus hollywood tropical conference xa rodinal expired olympusxa kodaktmax100 kodaktmax standdevelopment agfarodinal zuiko35mmf28 film:brand=kodak film:iso=100 kmfotografie keesvanmansom developer:brand=agfa developer:name=agfarodinal film:name=kodaktmax100 buildingbusinesscapabilities kodaktmax100inagfarodinal1100 filmdev:recipe=7106
license: 3
latitude: 25.990866
longitude: -80.118516
accuracy: 16
views: 110
interestingness: 39 out of 250

photo: 6440013099 99bd6b741d 7028
owner: 68971232@N08
title: Marlin, Bear Seamount 200 miles SE of Nantucket
originalsecret: null
originalformat: null
o_height: null
o_width: null
datetaken: 2011-06-19 00:35:11
dateupload: 1322802590
tags: delete10 delete9 delete5 delete2 delete6 delete7 delete8 delete3 delete delete4 save save2 marlin deletedbythehotbox davensuze3
license: 0
latitude: 39.892879
longitude: -66.818847
accuracy: 5
views: 65
interestingness: 40 out of 250

photo: 6428062843 5874dff4de 6037
owner: 41254428@N05
title: The Hallway II
originalsecret: null
originalformat: null
o_height: null
o_width: null
datetaken: 2011-09-21 18:35:07
dateupload: 1322781040
tags: light shadow blackandwhite bw monochrome lines contrast canon blackwhite taiwan beautifullight wideangle indoor line taipei contrasty wideanglelens llens digitalmonochrome geo76 canoneos5dmarkii 1635mmf28llens ????
license: 0
latitude: 25.028197
longitude: 121.532515
accuracy: 16
views: 40
interestingness: 41 out of 250

photo: 6438476735 a93dd5bb54 7165
owner: 63255278@N08
title: 'Tanking' away from Gloucester
originalsecret: 7fcfe5f360
originalformat: jpg
o_height: 747
o_width: 1280
datetaken: 1979-07-14 20:52:53
dateupload: 1322778056
tags: gloucester centurion class50 50011 d411
license: 0
latitude: 51.863233
longitude: -2.23173
accuracy: 13
views: 95
interestingness: 42 out of 250

photo: 6438031249 86c5d5a183 7017
owner: 94618813@N00
title: Angola Prison- Work Gang and Guard
originalsecret: null
originalformat: null
o_height: null
o_width: null
datetaken: 2011-11-30 11:13:14
dateupload: 1322772408
tags: angola canonef35mmf14lusm aperutre canon5dmkii angolastateprison prisonphotography niksilverefexpro2 petebrook
license: 0
latitude: 30.966128
longitude: -91.568727
accuracy: 12
views: 115
interestingness: 43 out of 250

photo: 6435518919 ffcf377111 7035
owner: 22434037@N03
title: Transformation
originalsecret: b124a97806
originalformat: jpg
o_height: 2736
o_width: 3648
datetaken: 2011-12-01 06:58:34
dateupload: 1322733260
tags: 
license: 0
latitude: 7.017315
longitude: 100.484797
accuracy: 16
views: 46
interestingness: 44 out of 250

photo: 6437948641 7cb2146e5f 7029
owner: 63156949@N03
title: Worku #47
originalsecret: null
originalformat: null
o_height: null
o_width: null
datetaken: 2011-12-01 13:29:17
dateupload: 1322771357
tags: portrait stranger 100strangers
license: 0
latitude: 38.930019
longitude: -104.759988
accuracy: 14
views: 80
interestingness: 45 out of 250

photo: 6433519621 e7eb8060db 7148
owner: 12570393@N08
title: Stranger #64: Emma
originalsecret: 94d75fa846
originalformat: jpg
o_height: 2692
o_width: 3972
datetaken: 2011-11-30 14:56:14
dateupload: 1322697831
tags: 100 100strangers strangersportrait
license: 3
latitude: 51.526855
longitude: -0.121031
accuracy: 16
views: 117
interestingness: 46 out of 250

photo: 6437290239 fc1071b29d 7018
owner: 45005123@N03
title: Can anyone tell me the name of this bird please ( Norman )
originalsecret: 4ec2a1a927
originalformat: jpg
o_height: 1930
o_width: 2976
datetaken: 2011-12-01 02:16:06
dateupload: 1322762334
tags: thurs1stdec
license: 0
latitude: 50.442857
longitude: -3.55442
accuracy: 11
views: 45
interestingness: 47 out of 250

photo: 6435668875 a02043d768 7017
owner: 68792473@N04
title: Festa nei cortili a RAVASCLETTO - Feast in the courtyards RAVASCLETTO
originalsecret: null
originalformat: null
o_height: null
o_width: null
datetaken: 1990-08-01 00:00:00
dateupload: 1322736856
tags: blackwhite bn carnia ilford fp4 biancoenero friuli pellicola thefilm
license: 0
latitude: 46.525329
longitude: 12.921409
accuracy: 11
views: 31
interestingness: 48 out of 250

photo: 6435611111 bb6dab866c 7175
owner: 85387952@N00
title: Fan-tailed warbler (Cisticola juncidis)
originalsecret: null
originalformat: null
o_height: null
o_width: null
datetaken: 2011-10-20 08:33:16
dateupload: 1322735594
tags: bird nature birds spain europe cadiz ornithology tarifa martinparr fantailedwarbler cisticolajuncidis zittingcisticola martindparr mdparr
license: 0
latitude: 36.085869
longitude: -5.614528
accuracy: 12
views: 92
interestingness: 49 out of 250

photo: 6437016917 703379197d 7157
owner: 47333265@N00
title: D_Sanssouci_Potsdam_03
originalsecret: null
originalformat: null
o_height: null
o_width: null
datetaken: 2011-07-19 15:13:58
dateupload: 1322758724
tags: sculpture berlin fountain gardens germany garden temple deutschland pagoda ruins pyramid antique terraces jardin palace historic vista grotto historical belvedere chinoiserie avenue sanssouci potsdam brandenburg garten axis folly wineyard pavillon follies giardino romanbaths landscapearchitecture orangerie storico orangery antik all?e historique historisch formalgarden rococogarden pattedoie anticando
license: 0
latitude: 52.4045
longitude: 13.029441
accuracy: 15
views: 40
interestingness: 50 out of 250

photo: 6438457579 4de6cefbaa 7007
owner: 24490288@N04
title: Canning Dock Reflections
originalsecret: 08355a56da
originalformat: jpg
o_height: 2930
o_width: 4410
datetaken: 2011-11-01 18:09:56
dateupload: 1322777813
tags: christmas winter nature water night liverpool canon buildings reflections river lights canal wildlife unesco pierhead albertdock wirral merseyside rivermersey canningdock mannisland liverpoolleedscanal oneterry
license: 0
latitude: 53.400065
longitude: -2.993946
accuracy: 14
views: 39
interestingness: 51 out of 250

photo: 6436396039 21752f8f2e 7030
owner: 8729804@N05
title: sunset beach
originalsecret: null
originalformat: null
o_height: null
o_width: null
datetaken: 2011-11-22 15:37:51
dateupload: 1322750163
tags: ocean sunset sky beach gulfofmexico surf contrails 2011 d700
license: 0
latitude: 26.546439
longitude: -82.199091
accuracy: 14
views: 76
interestingness: 52 out of 250

photo: 6437646751 d0f2a7186a 7166
owner: 16424358@N02
title: Alexandria,Egypt. 2.
originalsecret: null
originalformat: null
o_height: null
o_width: null
datetaken: 2011-11-09 04:35:29
dateupload: 1322767254
tags: 
license: 0
latitude: 31.221756
longitude: 29.941349
accuracy: 11
views: 20
interestingness: 53 out of 250

photo: 6436759633 9d2ffafe10 7163
owner: 8774105@N07
title: Himba Ferrari....
originalsecret: null
originalformat: null
o_height: null
o_width: null
datetaken: 2011-05-17 11:46:26
dateupload: 1322755312
tags: ferrari namibia himba damaraland
license: 0
latitude: -19.757979
longitude: 14.729919
accuracy: 10
views: 39
interestingness: 54 out of 250

photo: 6437300415 afbdb6cb01 7018
owner: 43351968@N02
title: Nelson
originalsecret: f2fd44530d
originalformat: jpg
o_height: 592
o_width: 905
datetaken: 1971-06-19 00:26:16
dateupload: 1322762473
tags: emu fratton southernrailway 4cor railuk
license: 0
latitude: 50.796007
longitude: -1.076316
accuracy: 13
views: 10
interestingness: 55 out of 250

photo: 6433962663 0cb3c5e39f 7010
owner: 48922763@N04
title: Aragon Ballroom Built in 1926, Chicago Illinois
originalsecret: 6d6ced43e3
originalformat: jpg
o_height: 1715
o_width: 2669
datetaken: 2011-11-19 13:53:23
dateupload: 1322704500
tags: old city urban chicago building illinois midwest il uptown bands ballroom aragon concerts chicagoillinois chicagoil neightborhood orchestras bigbands aragonballroon
license: 0
latitude: 41.969142
longitude: -87.658002
accuracy: 16
views: 39
interestingness: 56 out of 250

photo: 6438046549 07e6bbc866 7014
owner: 94618813@N00
title: Angola Prison- Pete Brook
originalsecret: null
originalformat: null
o_height: null
o_width: null
datetaken: 2011-11-30 13:29:37
dateupload: 1322772596
tags: angola canon50mmf15usm nikcolorefexpro4 petebrook
license: 0
latitude: 30.966128
longitude: -91.568727
accuracy: 12
views: 27
interestingness: 57 out of 250

photo: 6438045943 7b9226c6da 7031
owner: 94618813@N00
title: Angola Prison- Prisoners Being Escorted Back to Their Cells
originalsecret: null
originalformat: null
o_height: null
o_width: null
datetaken: 2011-11-30 13:22:13
dateupload: 1322772589
tags: angola canon50mmf15usm niksilverefexpro2 petebrook
license: 0
latitude: 30.966128
longitude: -91.568727
accuracy: 12
views: 74
interestingness: 58 out of 250

photo: 6435016705 0cd2749e5e 7145
owner: 13385037@N00
title: Project365 : 335/365
originalsecret: 24848bbecf
originalformat: jpg
o_height: 3485
o_width: 5227
datetaken: 2011-12-01 13:10:43
dateupload: 1322721482
tags: old shop project quality butcher 365 clunes project365
license: 0
latitude: -37.295171
longitude: 143.786273
accuracy: 14
views: 55
interestingness: 59 out of 250

photo: 6430961969 790ddaa32c 7014
owner: 62938898@N00
title: Flowers of Caesalpinia ferrea -'Leopard tree' - in Brisbane
originalsecret: cb191ed84e
originalformat: jpg
o_height: 680
o_width: 1024
datetaken: 2011-01-02 14:42:33
dateupload: 1322795898
tags: flowers yellow australia qld discussion fabaceae yellowflowers caesalpiniaceae caesalpinia caesalpiniaferrea
license: 5
latitude: -27.551581
longitude: 152.920322
accuracy: 16
views: 68
interestingness: 60 out of 250

photo: 6438880267 023f70b497 7034
owner: 11846398@N05
title: Beauty Epitomized
originalsecret: null
originalformat: null
o_height: null
o_width: null
datetaken: 2011-09-19 00:00:00
dateupload: 1322783789
tags: africa portrait baby smile women san sundown native botswana kalahari ghanzi indigeneous bushwomen
license: 0
latitude: -21.647217
longitude: 21.708984
accuracy: 5
views: 31
interestingness: 61 out of 250

photo: 6439237557 48b915652d 7155
owner: 47432611@N07
title: Museum Of Flight
originalsecret: 312834c0f1
originalformat: jpg
o_height: 600
o_width: 800
datetaken: 2011-12-01 13:41:25
dateupload: 1322789429
tags: seattle plane outdoors aviation museumofflight lightroom 111in2011 scavchal scdec15
license: 0
latitude: 47.517316
longitude: -122.29643
accuracy: 16
views: 23
interestingness: 62 out of 250

photo: 6439985419 ee8d370f57 7149
owner: 45218955@N06
title: Simplistic
originalsecret: null
originalformat: null
o_height: null
o_width: null
datetaken: 2010-10-30 20:46:39
dateupload: 1322802043
tags: 
license: 1
latitude: 43.612216
longitude: -79.54874
accuracy: 16
views: 12
interestingness: 63 out of 250

photo: 6437427429 ff1487c87f 7005
owner: 29648523@N05
title: Sikorsky VH-3A Sea King "Marine One"
originalsecret: 3a5100b1c9
originalformat: jpg
o_height: 1992
o_width: 3000
datetaken: 2011-10-02 16:59:14
dateupload: 1322764208
tags: usa usmc museum nikon unitedstates florida aircraft military navy helicopter usnavy marinecorps hdr pensacola seaking sikorsky marineone d40 nationalmuseumofnavalaviation naspensacola escambiacounty hmx1 150613 vh3a fisherbray
license: 0
latitude: 30.350851
longitude: -87.303006
accuracy: 16
views: 33
interestingness: 64 out of 250

photo: 6435562569 e0b19aacec 7158
owner: 30888227@N08
title: Sheltered and leashed
originalsecret: b2c96e465d
originalformat: jpg
o_height: 1000
o_width: 1333
datetaken: 2011-09-07 14:36:01
dateupload: 1322734365
tags: ocean uk greatbritain sea england beach strand boats coast harbor meer europe cornwall dorf village view unitedkingdom harbour ships shoreline eu boote atlantic aussicht hafen atlanticocean dylanthomas hamlet seaport schiffe englishchannel seacoast ausblick vessels mousehole fishingvillage k?ste cornish penzance atlantik lamanche fischerdorf wellenbrecher breakwaters harbortown fischkutter harbourtown porttown hafenstadt irischesee celticsea dollypentreath ?rmelkanal mount?sbay grosbritannien fishingsmacks navaltown seaporttown tombawcock tombawcockseve fishingcutters fishermen?svillage
license: 0
latitude: 50.083113
longitude: -5.537903
accuracy: 15
views: 27
interestingness: 65 out of 250

photo: 6439680777 8df71b5421 7154
owner: 64464890@N07
title: Painted Stork (Mycteria leucocephala)
originalsecret: null
originalformat: null
o_height: null
o_width: null
datetaken: 2010-12-20 11:35:23
dateupload: 1322796918
tags: family pink red orange india white fish black color colour green bird birds yellow bill back big asia nest bright head eating stripes bare painted indian south tail flock lakes feathers large down rump ibis tip ghana rivers wetlands tropical waters gloss shallow southeast plains curved heavy sanctuary himalayas stork wading rajasthan waterbirds reddish bharatpur distinctive yellowish keoladeo mycteria leucocephala tertial downcurved urohidrosis
license: 0
latitude: 27.181508
longitude: 77.516784
accuracy: 11
views: 4
interestingness: 66 out of 250

photo: 6435562997 637c932256 7156
owner: 30888227@N08
title: Of mice and men
originalsecret: 5ba0248bfc
originalformat: jpg
o_height: 1000
o_width: 1333
datetaken: 2011-09-07 14:32:08
dateupload: 1322734376
tags: ocean uk greatbritain sea england beach strand boats coast harbor meer europe cornwall dorf village view unitedkingdom harbour ships shoreline eu boote atlantic aussicht hafen atlanticocean dylanthomas hamlet seaport schiffe englishchannel seacoast ausblick vessels mousehole fishingvillage k?ste cornish penzance atlantik lamanche fischerdorf wellenbrecher breakwaters harbortown fischkutter harbourtown porttown hafenstadt irischesee celticsea dollypentreath ?rmelkanal mount?sbay grosbritannien fishingsmacks navaltown seaporttown tombawcock tombawcockseve fishingcutters fishermen?svillage
license: 0
latitude: 50.0827
longitude: -5.538117
accuracy: 15
views: 37
interestingness: 67 out of 250

photo: 6437528699 a8138cf22f 7161
owner: 53733884@N04
title: Pozzo di San Patrizio
originalsecret: e7cd2a5c48
originalformat: jpg
o_height: 1920
o_width: 2560
datetaken: 2006-06-05 13:02:25
dateupload: 1322765641
tags: san italia di infinito umbria orvieto pozzo terni patrizio
license: 0
latitude: 42.71717
longitude: 12.10499
accuracy: 11
views: 18
interestingness: 68 out of 250

photo: 6439106159 57a5fdbbb1 7028
owner: 55691305@N08
title: Beach Fur Real
originalsecret: 940d981a19
originalformat: jpg
o_height: 1930
o_width: 2560
datetaken: 2011-06-17 00:00:00
dateupload: 1322787306
tags: feet de foot los toes day national flip pies dedos pieds aux flop sanuk zehen fus ?? ???? orteils f?se ??? ??? ???????? nationalflipflopday
license: 1
latitude: 27.735503
longitude: -82.750997
accuracy: 13
views: 40
interestingness: 69 out of 250

photo: 6438421525 13454ef0b6 7015
owner: 31138867@N08
title: Packard Cormorant Mascot
originalsecret: null
originalformat: null
o_height: null
o_width: null
datetaken: 2011-06-15 15:04:28
dateupload: 1322777325
tags: cars june michigan oldcars packard canon1740l 2011 gilmorecarmuseum barrycounty hickorycorners 1938packard june2011 automascots 1930scars fullclassiccars
license: 0
latitude: 42.439349
longitude: -85.422756
accuracy: 16
views: 13
interestingness: 70 out of 250

photo: 6436722413 9656a0500b 7174
owner: 57754135@N05
title: Lerab Ling - Padmasambhava or Guru Rinpoche
originalsecret: f2c4e13e42
originalformat: jpg
o_height: 2773
o_width: 4167
datetaken: 2011-11-27 07:52:54
dateupload: 1322754838
tags: temple buddhism southoffrance tibetanbuddhism rigpa lerabling sogyalrinpoche
license: 0
latitude: 43.799783
longitude: 3.242855
accuracy: 13
views: 8
interestingness: 71 out of 250

photo: 6435091545 b76cf38c3c 7153
owner: 46745754@N03
title: Time out...
originalsecret: 71fe71f273
originalformat: jpg
o_height: 3168
o_width: 3960
datetaken: 2011-11-27 15:30:47
dateupload: 1322723133
tags: december 365gratefulproject
license: 0
latitude: 51.594241
longitude: -0.383834
accuracy: 11
views: 32
interestingness: 72 out of 250

photo: 6434812221 5ebc8f6088 7003
owner: 60268072@N08
title: The counterfeit and counterpart of Nature is reproduced in art ~Henry Wadsworth Longfellow
originalsecret: null
originalformat: null
o_height: null
o_width: null
datetaken: 2011-11-30 15:55:10
dateupload: 1322717415
tags: plants nature olympus f17 lumix20mm epl2
license: 0
latitude: 22.411249
longitude: 114.153541
accuracy: 2
views: 16
interestingness: 73 out of 250

photo: 6440124425 5e841d623f 7014
owner: 84264049@N00
title: The Carling
originalsecret: 020043a631
originalformat: jpg
o_height: 1988
o_width: 2648
datetaken: 2011-12-02 00:43:51
dateupload: 1322804631
tags: november hotel downtown florida roosevelt jacksonville architects 1925 carling 2011 duvalcounty thompsonholmesandconverse dinklerhotels carlingdinkler 31westadamsstreet hotelrooseveltfire vestcor
license: 0
latitude: 30.327896
longitude: -81.658004
accuracy: 16
views: 21
interestingness: 74 out of 250

photo: 6439828299 8e8e2dec7e 7142
owner: 23437487@N00
title: Bridge Over Troubled Water
originalsecret: null
originalformat: null
o_height: null
o_width: null
datetaken: 2011-12-01 14:42:49
dateupload: 1322799214
tags: bridge alabama wetumpka coosariver goldstarpark
license: 0
latitude: 32.536828
longitude: -86.207056
accuracy: 13
views: 26
interestingness: 75 out of 250

photo: 6438903671 df32025e1d 7008
owner: 28121598@N03
title: Queen Of The Ocean
originalsecret: 472a13b1c4
originalformat: jpg
o_height: 948
o_width: 723
datetaken: 2001-12-02 11:58:02
dateupload: 1322784160
tags: uk greatbritain england museum liverpool marine ship unitedkingdom navy maritime wreck naval worldwar1 liner merseyside whitestar oceanic
license: 3
latitude: 53.402828
longitude: -2.995061
accuracy: 13
views: 34
interestingness: 76 out of 250

photo: 6438038573 406fed5850 7170
owner: 94618813@N00
title: Angola Prison- No Talking
originalsecret: null
originalformat: null
o_height: null
o_width: null
datetaken: 2011-11-30 12:22:01
dateupload: 1322772500
tags: hospice angola canon50mmf15usm nikcolorefexpro4 petebrook
license: 0
latitude: 30.966128
longitude: -91.568727
accuracy: 12
views: 19
interestingness: 77 out of 250

photo: 6435512915 a1024ede36 7155
owner: 22517893@N00
title: Laughing Kookaburras
originalsecret: 7e2c453b13
originalformat: jpg
o_height: 1280
o_width: 1280
datetaken: 2011-11-27 15:56:11
dateupload: 1322733112
tags: sydney australia nsw kookaburra royalnationalpark australianbirds dacelonovaeguineae laughingkookaburra dacelo 2011
license: 0
latitude: -34.082039
longitude: 151.054936
accuracy: 16
views: 18
interestingness: 78 out of 250

photo: 6438421533 d038cae97b 7142
owner: 31138867@N08
title: 1938 Packard V-12 Convertible Victoria
originalsecret: null
originalformat: null
o_height: null
o_width: null
datetaken: 2011-06-15 14:41:53
dateupload: 1322777325
tags: cars june michigan oldcars packard canon1740l 2011 gilmorecarmuseum barrycounty hickorycorners 1938packard june2011 1930scars fullclassiccars
license: 0
latitude: 42.439329
longitude: -85.422788
accuracy: 16
views: 29
interestingness: 79 out of 250

photo: 6436206573 8a793e5e62 7150
owner: 41580122@N05
title: 25-1
originalsecret: null
originalformat: null
o_height: null
o_width: null
datetaken: 2011-11-01 00:00:00
dateupload: 1322747242
tags: blackandwhite bw film analog turkey star candid streetphotography istanbul moustache tunel taksim leicam2 xtol11 t?nel kodakxtol hpg4050 developer:brand=kodak film:brand=rollei film:iso=250 developer:name=kodakxtol summicron35mmf2v1 rolleirpx film:name=rolleirpx400 rolleirpx400250 filmdev:recipe=7008
license: 0
latitude: 41.028558
longitude: 28.974305
accuracy: 16
views: 23
interestingness: 80 out of 250

photo: 6433962659 a9505bf38c 7148
owner: 48922763@N04
title: Aragon Ballroom Built in 1926, Chicago IL.
originalsecret: 767e013d2d
originalformat: jpg
o_height: 1871
o_width: 2794
datetaken: 2011-11-19 13:51:37
dateupload: 1322704500
tags: old city urban chicago building sign marquee illinois midwest neon dancing historic il uptown ballroom concerts chicagoillinois aragonballroom chicagoil neightborhood
license: 0
latitude: 41.969146
longitude: -87.65798
accuracy: 16
views: 33
interestingness: 81 out of 250

photo: 6438035623 d6411d60b9 7022
owner: 94618813@N00
title: Angola Prison- Cemetery
originalsecret: null
originalformat: null
o_height: null
o_width: null
datetaken: 2011-11-30 12:08:13
dateupload: 1322772462
tags: cemetary angola canonef35mmf14lusm nikcolorefexpro4 petebrook angolaprisoncemetery
license: 0
latitude: 30.966128
longitude: -91.568727
accuracy: 12
views: 18
interestingness: 82 out of 250

photo: 6433733689 d76c0d4bab 7148
owner: 10455329@N08
title: Ladyface Mountain
originalsecret: null
originalformat: null
o_height: null
o_width: null
datetaken: 2011-11-29 17:28:55
dateupload: 1322701102
tags: reflection landscape peak cornell southerncalifornia santamonicamountains sunsetlight chumash agourahills ladyface
license: 0
latitude: 34.12511
longitude: -118.749804
accuracy: 14
views: 14
interestingness: 83 out of 250

photo: 6435819947 6c2bfd4211 7161
owner: 55935853@N00
title: College Arms, Bloomsbury, WC1
originalsecret: 19523e8e6f
originalformat: jpg
o_height: 3220
o_width: 2208
datetaken: 2011-11-29 14:11:26
dateupload: 1322739973
tags: england london bloomsbury pubs storestreet wc1e wc1 thecollegearms rgl collegearms freehouse londonboroughofcamden universitytavern thecamdenarms camdenarms studentpub camdenhotel faucetinnpub faucetinnpubcopub faucetinnpubcompanypub theuniversitytavern thecamdenhotel
license: 5
latitude: 51.519909
longitude: -0.131835
accuracy: 16
views: 16
interestingness: 84 out of 250

photo: 6435374853 ae1b4d2c5d 7163
owner: 9208343@N04
title: bring your own: screen II
originalsecret: null
originalformat: null
o_height: null
o_width: null
datetaken: 2011-11-30 23:00:39
dateupload: 1322729733
tags: november amsterdam video exhibition videoart expositie 2011 groupexhibition oneminute oneminutes groepexpositie wibautstraat127 bringyourownscreenii
license: 0
latitude: 52.36857
longitude: 4.90091
accuracy: 16
views: 17
interestingness: 85 out of 250

photo: 6439288173 3d9c2f7223 7163
owner: 55209444@N02
title: Lewis Cosby (bass); 10 years 2011.11.23
originalsecret: null
originalformat: null
o_height: null
o_width: null
datetaken: 2011-11-23 20:14:54
dateupload: 1322790267
tags: 
license: 0
latitude: -33.456257
longitude: -70.649213
accuracy: 14
views: 26
interestingness: 86 out of 250

photo: 6438037719 f0535c4383 7156
owner: 94618813@N00
title: Angola Prison- Cemetery
originalsecret: null
originalformat: null
o_height: null
o_width: null
datetaken: 2011-11-30 12:10:27
dateupload: 1322772489
tags: cemetary angola canonef35mmf14lusm nikcolorefexpro4 petebrook angolaprisoncemetery
license: 0
latitude: 30.966128
longitude: -91.568727
accuracy: 12
views: 19
interestingness: 87 out of 250

photo: 6437304593 1698264fc3 7010
owner: 43732391@N00
title: Piglio (Fr)
originalsecret: ec644e8864
originalformat: jpg
o_height: 1424
o_width: 1898
datetaken: 2011-11-19 10:51:50
dateupload: 1322762527
tags: italy europa europe italia lazio frosinone latium ciociaria piglio
license: 0
latitude: 41.833502
longitude: 13.143768
accuracy: 10
views: 32
interestingness: 88 out of 250

photo: 6435513365 a2c3c47e05 7148
owner: 22517893@N00
title: Variegated Fairy-wren
originalsecret: 474eca37ee
originalformat: jpg
o_height: 1014
o_width: 1280
datetaken: 2011-11-27 14:45:33
dateupload: 1322733124
tags: sydney australia nsw royalnationalpark australianbirds fairywren 2011 variegatedfairywren maluruslamberti malurus
license: 0
latitude: -34.082948
longitude: 151.056839
accuracy: 16
views: 23
interestingness: 89 out of 250

photo: 6433961045 d7ce30fce2 7173
owner: 62068331@N00
title: Islaw the Kalabaw
originalsecret: null
originalformat: null
o_height: null
o_width: null
datetaken: 2011-10-29 14:36:57
dateupload: 1322704477
tags: stream puertogalera waterbuffalo carabao santeodoro orientalmindoro
license: 0
latitude: 13.4333
longitude: 121.0167
accuracy: 11
views: 22
interestingness: 90 out of 250

photo: 6431947315 232ab32fe8 7031
owner: 27918948@N00
title: Lowway
originalsecret: null
originalformat: null
o_height: null
o_width: null
datetaken: 2011-11-25 14:29:40
dateupload: 1322756506
tags: urban building skyline mi buildings downtown michigan detroit sx30
license: 0
latitude: 42.314845
longitude: -83.087668
accuracy: 15
views: 42
interestingness: 91 out of 250

photo: 6438358189 5f76823bc9 7019
owner: 33734254@N03
title: Cosmos Flower
originalsecret: null
originalformat: null
o_height: null
o_width: null
datetaken: 2011-12-01 21:54:47
dateupload: 1322776487
tags: pink england flower zoo cornwall newquay cosmos
license: 0
latitude: 50.42055
longitude: -5.07122
accuracy: 11
views: 10
interestingness: 92 out of 250

photo: 6436080177 3290df4e32 7021
owner: 35053960@N08
title: Only Some
originalsecret: null
originalformat: null
o_height: null
o_width: null
datetaken: 2011-11-25 07:43:47
dateupload: 1322745029
tags: netherlands loss sadness holocaust poland killed names auschwitz exterminated
license: 0
latitude: 50.036251
longitude: 19.253499
accuracy: 11
views: 14
interestingness: 93 out of 250

photo: 6435085559 41fe40a860 7159
owner: 14599003@N06
title: 2011  I think I know you.  Remind me of your name.
originalsecret: fa20f8000d
originalformat: jpg
o_height: 1966
o_width: 2621
datetaken: 2011-06-07 11:46:57
dateupload: 1322723000
tags: bear polarbear churchill sparring capechurchill savethepolarbear
license: 0
latitude: 58.714398
longitude: -93.289031
accuracy: 9
views: 20
interestingness: 94 out of 250

photo: 6433962655 99a9090de4 7153
owner: 48922763@N04
title: Facade of the Aragon Ballroom, Chicago Illinois.
originalsecret: 35efec0350
originalformat: jpg
o_height: 1784
o_width: 2600
datetaken: 2011-11-19 13:51:20
dateupload: 1322704500
tags: old city urban chicago building architecture facade illinois midwest faces historic il uptown ballroom aragon ornate chicagoillinois aragonballroom chicagoil neightborhood
license: 0
latitude: 41.969142
longitude: -87.657884
accuracy: 16
views: 20
interestingness: 95 out of 250

photo: 6438175113 6cb29cb2a7 7157
owner: 30114141@N02
title: 335/365   K?lner Dom - Door Detail
originalsecret: b2568a947b
originalformat: jpg
o_height: 2544
o_width: 3180
datetaken: 2011-12-01 14:36:12
dateupload: 1322774162
tags: 
license: 0
latitude: 50.941177
longitude: 6.957972
accuracy: 16
views: 45
interestingness: 96 out of 250

photo: 6436683985 0875db8c98 7018
owner: 40936370@N00
title: Birth of the mysterious Alchemical Sentinels / Naissance de myst?rieuses Sentinelles Alchimiques DDC_0596
originalsecret: 369b84e799
originalformat: jpg
o_height: 1195
o_width: 800
datetaken: 2011-12-01 15:09:02
dateupload: 1322754328
tags: portrait sculpture france mystery museum painting ruins jung symbol contemporaryart secret apocalypse greatwork freemasonry ddc sanctuary alchemy prophecy 999 vanitas alchimia alchemist sanctuaire paulocoelho magnumopus graal gnosticism dondedieu materiaprima nicolasflamel artprice salamanderspirit organmuseum saintromainaumontdor andr?breton demeureduchaos thierryehrmann alkimia finis alchemical rubedo proph?tie abodeofchaos loeuvreaunoir grandoeuvre alchemicalsymbol francmaconnerie citrinitas fulcanelli philosopherstone albertlegrand oswaldwirth lespritdelasalamandre nigredoalbedo corpusjabirianum alchimiesp?culative lemyst?redescath?drales lesdemeuresphilosophales eug?necanseliet latourbedesphilosophes spagyrie basilevalentin rosariusphilosophorum historyofalchemy nucleartransmutation khemeia voies?che voiehumide liberparagranum artroyal donumdei sentinellesalchimiques thealchemicalsentinels
license: 4
latitude: 45.837448
longitude: 4.826248
accuracy: 15
views: 46
interestingness: 97 out of 250

photo: 6436102239 7647e55e94 7010
owner: 55935853@N00
title: Doodle Bar, Battersea, SW11
originalsecret: f6e2232de4
originalformat: jpg
o_height: 2736
o_width: 3648
datetaken: 2011-11-30 19:05:24
dateupload: 1322745404
tags: england london bars doodle battersea rgl sw11 londonboroughofwandsworth parkgateroad needsrglreview doodlebar thedoodlebar
license: 5
latitude: 51.47894
longitude: -0.168968
accuracy: 16
views: 22
interestingness: 98 out of 250

photo: 6438724949 f1341723b7 7003
owner: 88821481@N00
title: HB-IYV, BAe 146-300, Avro RJ100, C/N 377, Swiss International Airlines, CDG/LFPG, 10/2011, Star Alliance special livery.
originalsecret: 9dc57d5a80
originalformat: jpg
o_height: 968
o_width: 1280
datetaken: 2011-10-01 01:12:11
dateupload: 1322781430
tags: swiss jets airlines airliners avro cdg bae146 lx swissinternationalairlines avrorj100 britishaerospace staralliance jetliners swu lfpg worldairlines bae146300 hbiyv airlinealliance swisseuropeanairlines airlinesoftheworld alaindurand parisroissycharlesdegaulle regionalairliners airlinesofeurope cn377 e3377 airlinesofswitzerland
license: 0
latitude: 49.017579
longitude: 2.539172
accuracy: 14
views: 11
interestingness: 99 out of 250

photo: 6437015509 6e3e403cf2 7021
owner: 47333265@N00
title: D_Sanssouci_Potsdam_01
originalsecret: null
originalformat: null
o_height: null
o_width: null
datetaken: 2011-07-19 14:15:21
dateupload: 1322758704
tags: sculpture berlin fountain gardens germany garden temple deutschland pagoda ruins pyramid antique terraces jardin palace historic vista grotto historical belvedere chinoiserie avenue sanssouci potsdam brandenburg garten axis folly wineyard pavillon follies giardino romanbaths landscapearchitecture orangerie storico orangery antik all?e historique historisch formalgarden rococogarden pattedoie anticando
license: 0
latitude: 52.401869
longitude: 13.038797
accuracy: 14
views: 29
interestingness: 100 out of 250

photo: 6435331135 6707ed68d3 7033
owner: 30187719@N04
title: La chambre bleue
originalsecret: null
originalformat: null
o_height: null
o_width: null
datetaken: 2011-07-01 14:41:42
dateupload: 1322728644
tags: french louis george sand berry ? indre writer chopin lit chambre bleue meubles delacroix escritor peintre tissu abanico xvi liszt ?crivain baldaquin flaubert fran?aise handheldfan fourposterbed xixesi?cle nohant bluebedroom tentures m?daillons 18041876 paysdelach?tre furnishlouisxvi eldormitarioazul camaabaldaquin mueblesluisxvi
license: 0
latitude: 47.180145
longitude: 2.368583
accuracy: 9
views: 3
interestingness: 101 out of 250

photo: 6434325821 ea7ae8a782 7005
owner: 26726767@N04
title: So many.  And this is only 1975.
originalsecret: null
originalformat: null
o_height: null
o_width: null
datetaken: 2011-11-25 17:59:42
dateupload: 1322757256
tags: mall book dc washington memorial war kevin vietnam list 1975 names veterans sacrifice kemmerer mnational
license: 0
latitude: 38.890698
longitude: -77.04846
accuracy: 16
views: 27
interestingness: 102 out of 250

photo: 6439013921 b6ba0da2d5 7166
owner: 62466827@N02
title: Cadillac Ranch
originalsecret: null
originalformat: null
o_height: null
o_width: null
datetaken: 2011-11-22 22:10:34
dateupload: 1322785849
tags: texas cadillac amarillo cadillacranch
license: 0
latitude: 35.207248
longitude: -101.833892
accuracy: 11
views: 51
interestingness: 103 out of 250

photo: 6438665785 9bf22333c1 7001
owner: 81952901@N00
title: I love this city
originalsecret: null
originalformat: null
o_height: null
o_width: null
datetaken: 2011-08-26 20:00:06
dateupload: 1322780565
tags: turkey istanbul
license: 0
latitude: 41.022407
longitude: 28.970346
accuracy: 16
views: 12
interestingness: 104 out of 250

photo: 6438182033 d49d010a81 7162
owner: 92033577@N00
title: Viceroy Li Hung Chang, seen on a Label from a Chest of Chinese Tea
originalsecret: cdc91a17e0
originalformat: jpg
o_height: 1996
o_width: 1522
datetaken: 2010-05-23 14:26:51
dateupload: 1322774248
tags: china red history museum graphic tea framed 19thcentury chinese business mandarin formosa viceroy honors 2010 oolong zhili lihungchang mystuart
license: 3
latitude: 42.521802
longitude: -70.892393
accuracy: 16
views: 25
interestingness: 105 out of 250

photo: 6440032467 4659527451 7172
owner: 52019819@N05
title: CN 8957 north
originalsecret: c03214c2b8
originalformat: jpg
o_height: 683
o_width: 1024
datetaken: 2011-11-30 14:24:00
dateupload: 1322802948
tags: water cn illinois freight sd70m
license: 0
latitude: 42.298532
longitude: -88.004908
accuracy: 14
views: 31
interestingness: 106 out of 250

photo: 6439294773 37c87cfff8 7159
owner: 18378305@N00
title: Bank Street
originalsecret: 057ba4f6d1
originalformat: jpg
o_height: 2304
o_width: 3072
datetaken: 2011-05-18 14:14:41
dateupload: 1322790375
tags: hongkong central bank ?? hsbc hongkongisland banking bankofchina bankstreet centraldistrict ?? ??? bankology ??? ap1140324
license: 2
latitude: 22.280251
longitude: 114.160115
accuracy: 15
views: 15
interestingness: 107 out of 250

photo: 6439004747 0fa9c6ac93 7171
owner: 48922763@N04
title: Argyle Street Red Line Elevated
originalsecret: 0f77874940
originalformat: jpg
o_height: 1807
o_width: 2734
datetaken: 2011-11-19 13:28:43
dateupload: 1322785707
tags: city urban chicago train subway illinois midwest cta chitown el viaduct il neighborhood uptown transit commute l commuter elevated argylestreet chicagoillinois subay chicagoil windycity chicagotransit viatmamese
license: 0
latitude: 41.97323
longitude: -87.658227
accuracy: 16
views: 24
interestingness: 108 out of 250

photo: 6437733883 32316834da 7169
owner: 10216976@N05
title: Reykjav?k, Harpa
originalsecret: 53ddc22094
originalformat: jpg
o_height: 1000
o_width: 750
datetaken: 2011-12-01 20:41:12
dateupload: 1322769535
tags: 
license: 6
latitude: 64.138171
longitude: -21.912231
accuracy: 7
views: 16
interestingness: 109 out of 250

photo: 6436930483 e4ca23a7b6 7169
owner: 16126901@N06
title: the school yard
originalsecret: ccdaa3a10d
originalformat: jpg
o_height: 2326
o_width: 3658
datetaken: 2011-12-01 13:05:59
dateupload: 1322757587
tags: historicbuildings universityofoxford quadrangles historicplaces nikond300 clivejones theschoolsquadrangle theoxonian copyrightclivejones historicceremonies thebodlianlibraryoxford
license: 0
latitude: 51.754086
longitude: -1.254549
accuracy: 15
views: 17
interestingness: 110 out of 250

photo: 6437852617 37288bb4a4 7026
owner: 30759108@N08
title: "Ezekiel 4:9 Cereal", Largo, FL - Nov, 2011
originalsecret: null
originalformat: null
o_height: null
o_width: null
datetaken: 2011-11-30 18:05:09
dateupload: 1322770055
tags: 
license: 0
latitude: 27.917373
longitude: -82.784557
accuracy: 16
views: 52
interestingness: 111 out of 250

photo: 6440434283 d0ec246f9f 7151
owner: 61943224@N04
title: Kabanjahe - The Art of Bakery
originalsecret: 1978a47384
originalformat: jpg
o_height: 800
o_width: 600
datetaken: 2011-05-25 12:09:45
dateupload: 1322811158
tags: travel food cakes nature sumatra indonesia rainforest southeastasia jungle pies karo tropics batak kabanjahe batakculture
license: 1
latitude: 3.13803
longitude: 98.455224
accuracy: 14
views: 19
interestingness: 112 out of 250

photo: 6436228023 d4220d6345 7171
owner: 27889738@N07
title: Kangetsu-kyo Grade Separated Crossing
originalsecret: e972384b31
originalformat: jpg
o_height: 2592
o_width: 3872
datetaken: 2009-06-27 18:06:00
dateupload: 1322747604
tags: japan underpass tokyo fuchuhonmachi
license: 1
latitude: 35.66258
longitude: 139.4775
accuracy: 16
views: 7
interestingness: 113 out of 250

photo: 6434892253 97045e3fce 7168
owner: 35982887@N08
title: Hells gate
originalsecret: null
originalformat: null
o_height: null
o_width: null
datetaken: 2011-11-10 08:09:28
dateupload: 1322718946
tags: tasmania hellsgate portmacquarie
license: 0
latitude: -42.20665
longitude: 145.219345
accuracy: 9
views: 19
interestingness: 114 out of 250

photo: 6433901275 bc1732ce9c 7024
owner: 69559160@N05
title: hipster
originalsecret: null
originalformat: null
o_height: null
o_width: null
datetaken: 2010-04-23 22:03:38
dateupload: 1322703569
tags: hat scarf glasses neworleans psycho frenchquarter nola earplugs redscarf bandstickers
license: 0
latitude: 29.963151
longitude: -90.065832
accuracy: 13
views: 7
interestingness: 115 out of 250

photo: 6438048091 47466f783a 7142
owner: 94618813@N00
title: Angola Prison- Angolite Prison Newspaper
originalsecret: null
originalformat: null
o_height: null
o_width: null
datetaken: 2011-11-30 13:33:20
dateupload: 1322772614
tags: angola canon50mmf15usm nikcolorefexpro4 petebrook kerrymyers angolite
license: 0
latitude: 30.966128
longitude: -91.568727
accuracy: 12
views: 19
interestingness: 116 out of 250

photo: 6433820113 66fce9e284 7022
owner: 54790761@N04
title: Dirt Road
originalsecret: 2378d8b683
originalformat: jpg
o_height: 5184
o_width: 3456
datetaken: 2011-11-22 02:49:05
dateupload: 1322702373
tags: road driving dirt dirtroad dust throttle porterville huyndai r365
license: 0
latitude: -33.011254
longitude: 18.995018
accuracy: 10
views: 9
interestingness: 117 out of 250

photo: 6439825073 bf8dac9931 7156
owner: 55025080@N02
title: Hawk
originalsecret: null
originalformat: null
o_height: null
o_width: null
datetaken: 2011-11-24 17:23:20
dateupload: 1322799156
tags: california coyote ca bird sitting hills perched birdofprey
license: 0
latitude: 37.546278
longitude: -122.083683
accuracy: 16
views: 29
interestingness: 118 out of 250

photo: 6439687899 73e36498d4 7001
owner: 47212386@N00
title: Riverside Bungalow School
originalsecret: null
originalformat: null
o_height: null
o_width: null
datetaken: 2011-10-15 14:48:34
dateupload: 1322797025
tags: school canada calgary history sepia nikon riverside d70 alberta historical neilyoung 1920 fotoman nyphotos riversidebungalow neilyoungphotography
license: 0
latitude: 51.054553
longitude: -114.047484
accuracy: 16
views: 45
interestingness: 119 out of 250

photo: 6436095231 784790bea3 7023
owner: 23525093@N07
title: Prayers of Abandonment
originalsecret: 4d45c4fb0c
originalformat: jpg
o_height: 683
o_width: 1024
datetaken: 2011-12-01 04:24:56
dateupload: 1322745282
tags: ocean longexposure blue beach bluehour reverebeach twighlight thebluehour
license: 0
latitude: 42.420225
longitude: -70.985927
accuracy: 13
views: 17
interestingness: 120 out of 250

photo: 6434319881 9771853222 7160
owner: 14643312@N02
title: Wawatam Light
originalsecret: a9d8bd4192
originalformat: jpg
o_height: 5380
o_width: 3586
datetaken: 2011-10-31 21:36:34
dateupload: 1322709764
tags: lighthouse greatlakes handheld lakehuron straitsofmackinac nikonf5 kodakektar100 vacation2011upperlakes
license: 0
latitude: 45.865949
longitude: -84.715383
accuracy: 16
views: 27
interestingness: 121 out of 250

photo: 6434050413 a23a9837ba 7159
owner: 62466827@N02
title: San Felipe de Neri Church
originalsecret: null
originalformat: null
o_height: null
o_width: null
datetaken: 2011-11-25 05:33:40
dateupload: 1322705755
tags: newmexico sanfelipedenerichurcholdtownalbuquerquealbuquerquenm
license: 0
latitude: 35.096684
longitude: -106.669789
accuracy: 16
views: 48
interestingness: 122 out of 250

photo: 6440200533 2dfbf78bf1 7148
owner: 58419032@N00
title: Las Vegas Convention Center from the Las Vegas Hilton
originalsecret: f322a6f731
originalformat: jpg
o_height: 782
o_width: 3360
datetaken: 2007-05-02 07:33:08
dateupload: 1322806151
tags: las vegas brown man hilton joe resort convention colony mortgage sachs
license: 0
latitude: 36.135656
longitude: -115.151224
accuracy: 13
views: 5
interestingness: 123 out of 250

photo: 6439725045 5f24c3251f 7173
owner: 64464890@N07
title: Indian Vulture (Gyps indicus)
originalsecret: null
originalformat: null
o_height: null
o_width: null
datetaken: 2011-01-02 12:28:25
dateupload: 1322797610
tags: world old trees brown india bird birds animals neck dead grey wings head bare indian tail central bald cliffs short vulture broad crags hilly rajasthan scavenger pradesh griffon peninsular gyps fulvus indicus longbilled carcasses orchha madhya gypsfulvus tenuirostris slenderbilled
license: 0
latitude: 25.3575
longitude: 78.630546
accuracy: 11
views: 3
interestingness: 124 out of 250

photo: 6435878889 56e93317ab 7160
owner: 63398221@N05
title: St. Nicholas Cathedral
originalsecret: null
originalformat: null
o_height: null
o_width: null
datetaken: 2011-11-20 13:43:57
dateupload: 1322741205
tags: architecture minaret gothic cyprus mosque medieval venetian ottoman stnicholascathedral middleages camii famagusta turkishrepublicofnorthcyprus lalamustafapashamosque samsarailknurdonmez
license: 0
latitude: 35.132518
longitude: 33.435501
accuracy: 2
views: 27
interestingness: 125 out of 250

photo: 6439457079 fcaede5ec5 7033
owner: 31716342@N00
title: DSC_0019-1.JPGa
originalsecret: 82ab48ce36
originalformat: jpg
o_height: 1714
o_width: 2142
datetaken: 2008-04-27 10:44:15
dateupload: 1322793388
tags: phantom phantomranch calavarascounty
license: 0
latitude: 38.252201
longitude: -120.517272
accuracy: 8
views: 6
interestingness: 126 out of 250

photo: 6435896895 43b3ec5901 7165
owner: 25249131@N04
title: Santa Monica.USA.2011.
originalsecret: null
originalformat: null
o_height: null
o_width: null
datetaken: 2011-07-05 05:33:49
dateupload: 1322741572
tags: boy white green name mygearandme
license: 0
latitude: 34.01738
longitude: -118.493041
accuracy: 8
views: 9
interestingness: 127 out of 250

photo: 6435299851 c0ab7c1ab9 7174
owner: 82585858@N00
title: Trainspotting
originalsecret: null
originalformat: null
o_height: null
o_width: null
datetaken: 2011-11-09 15:27:40
dateupload: 1322727855
tags: 
license: 0
latitude: 48.877586
longitude: 2.359542
accuracy: 11
views: 7
interestingness: 128 out of 250

photo: 6437474649 03937d6cdd 7149
owner: 8067411@N07
title: Paddle Steamer in Dry Dock Under Renovation, Bristol Harbourside
originalsecret: d3d1c897f6
originalformat: jpg
o_height: 2691
o_width: 4035
datetaken: 2011-11-27 15:06:47
dateupload: 1322764859
tags: city uk greatbritain england digital river bristol boat photo dock nikon image unitedkingdom britain picture paddle dry pic baltic photograph wharf gb leisure phot steamer avon harbourside phototography dosc d7000 velodenz
license: 3
latitude: 51.447976
longitude: -2.611366
accuracy: 16
views: 6
interestingness: 129 out of 250

photo: 6435757633 b6945238c4 7008
owner: 55935853@N00
title: Joiners' Arms, Lewisham, SE13
originalsecret: 574986254b
originalformat: jpg
o_height: 3776
o_width: 2520
datetaken: 2011-11-18 09:52:48
dateupload: 1322738680
tags: england london lewisham dylans pubs highstreet rgl se13 hobgoblins joinersarms lewishamhighstreet londonboroughoflewisham thejoinersarms needsrglreview
license: 5
latitude: 51.463405
longitude: -0.010825
accuracy: 16
views: 7
interestingness: 130 out of 250

photo: 6434871397 debd82e9db 7021
owner: 90686988@N00
title: Unlit Tree
originalsecret: a0d2eb6e6e
originalformat: jpg
o_height: 4928
o_width: 3264
datetaken: 2011-11-29 15:20:15
dateupload: 1322718538
tags: november autumn canada tree calgary fall alberta ??? unlit 11? 2011 ?? ??? ????? shimotsuki ?????? frostmonth j?ichigatsu ??23?
license: 0
latitude: 51.0457
longitude: -114.057859
accuracy: 16
views: 27
interestingness: 131 out of 250

photo: 6440097385 8206c89010 7013
owner: 47463030@N06
title: natural frame
originalsecret: null
originalformat: null
o_height: null
o_width: null
datetaken: 2011-12-01 21:35:34
dateupload: 1322804134
tags: tree green rock river naturalframe sherrylandon nonstopcreations
license: 0
latitude: 49.870299
longitude: -123.189697
accuracy: 11
views: 18
interestingness: 132 out of 250

photo: 6438868371 6110cd4dae 7167
owner: 58871905@N03
title: 
originalsecret: null
originalformat: null
o_height: null
o_width: null
datetaken: 2011-11-30 15:38:31
dateupload: 1322783601
tags: door glass sign pull worship day florida flag text prayer religion overcast days font hours lettering names morningglory 169 schedule stripmall sansserif 16x9 daysoftheweek dnomcmlxvii
license: 4
latitude: 28.176209
longitude: -82.739109
accuracy: 16
views: 8
interestingness: 133 out of 250

photo: 6438797411 79f786ff1c 7174
owner: 60805516@N04
title: Presto 7024926 - Ulaanbaatar - Unknown Date 2003 (South Dock, Goole)
originalsecret: null
originalformat: null
o_height: null
o_width: null
datetaken: 2011-12-01 23:35:17
dateupload: 1322782517
tags: sirena sovietunion presto southdock brokenup gooledocks soviettransport 7024926 okeanshipyard sovietwarrier sovietskiyvoin leningradskiypartizan
license: 0
latitude: 53.698535
longitude: -0.874099
accuracy: 11
views: 6
interestingness: 134 out of 250

photo: 6438796955 522047e3f2 7165
owner: 60805516@N04
title: Sofia 7040889 - Phnom Penh - Unknown Date (West Dock, Goole)
originalsecret: null
originalformat: null
o_height: null
o_width: null
datetaken: 2011-12-01 23:35:10
dateupload: 1322782510
tags: sofia sovietunion brokenup westdock gooledocks soviettransport sovietwarrior sovietskiyvoin vyborgskiyshipyard yevgeniyonufriev
license: 0
latitude: 53.699831
longitude: -0.879249
accuracy: 13
views: 7
interestingness: 135 out of 250

photo: 6438403919 443c012855 7175
owner: 87069632@N00
title: Los Penitentes
originalsecret: 47d389d7a4
originalformat: jpg
o_height: 2831
o_width: 4262
datetaken: 2011-08-16 13:24:06
dateupload: 1322777084
tags: argentina geotagged mendoza skiresort arg puentedelinca lospenitentes puntadevacas thepenitents exif:iso_speed=200 exif:focal_length=36mm camera:make=nikoncorporation exif:make=nikoncorporation exif:lens=1802000mmf3556 camera:model=nikond300s exif:model=nikond300s exif:aperture=?42 geo:countrys=argentina geo:state=mendoza wwwmadgrincom geo:city=puentedelinca pasodelibertadores geo:lat=3284060400 geo:lon=6984326800 geo:lon=69843268333333 geo:lat=32840603333333
license: 0
latitude: -32.840603
longitude: -69.843268
accuracy: 16
views: 15
interestingness: 136 out of 250

photo: 6438397839 85b08bf825 7024
owner: 87069632@N00
title: Los Penitentes
originalsecret: bb558d293f
originalformat: jpg
o_height: 936
o_width: 4255
datetaken: 2011-08-16 13:20:31
dateupload: 1322777007
tags: argentina geotagged mendoza skiresort arg puentedelinca lospenitentes puntadevacas thepenitents exif:iso_speed=100 exif:focal_length=45mm exif:make=sony camera:make=sony exif:aperture=?80 geo:countrys=argentina geo:state=mendoza wwwmadgrincom exif:model=dscwx7 exif:lens=45225mmf2663 camera:model=dscwx7 geo:city=puentedelinca pasodelibertadores geo:lat=3284021600 geo:lon=6984341300 geo:lon=69843413333333 geo:lat=32840216666667
license: 0
latitude: -32.840216
longitude: -69.843413
accuracy: 16
views: 17
interestingness: 137 out of 250

photo: 6438354217 c505de20dc 7146
owner: 52685915@N06
title: Mitchell Arts Centre.
originalsecret: null
originalformat: null
o_height: null
o_width: null
datetaken: 2011-12-01 20:39:38
dateupload: 1322776438
tags: stokeontrentgroup staffordshirephotographersgroup photographyonashoestringset
license: 0
latitude: 53.022799
longitude: -2.179799
accuracy: 14
views: 10
interestingness: 138 out of 250

photo: 6438285531 4655d31009 7002
owner: 15449390@N06
title: Aerial Yoga Swing M?xico (AEROYOGA?)
originalsecret: null
originalformat: null
o_height: null
o_width: null
datetaken: 2011-07-25 00:43:15
dateupload: 1322775581
tags: barcelona madrid espa?a argentina valencia m?xico fly tv sevilla buenosaires colombia diploma miami danza air per? swing gravity tendencias televisi?n medicina fusion fitness castellana c?rdoba euskadi almer?a quilmes profesores prensa vigo tarragona m?laga marbella ciudadreal informaci?n albacete chueca profesional cursos ayurveda salud laplata castell?n nuevosministerios columpio eeuu acoru?a drenaje formaci?n digesti?n chamartin fusi?n teachertraining precios horarios rejuvenecimiento bienestar los?ngeles relajaci?n antiestr?s terapias nuevastecnolog?as celulitis antiage dolordeespalda estre?imiento antienvejecimiento terap?utico aeroyoga restaurativo gimnasiaholistica pilatesa?reo
license: 0
latitude: 21.063997
longitude: -86.733397
accuracy: 5
views: 38
interestingness: 139 out of 250

photo: 6438229303 aa1dbcccd6 7024
owner: 15449390@N06
title: Aerial Yoga Swing M?xico (AEROPILATES?)
originalsecret: null
originalformat: null
o_height: null
o_width: null
datetaken: 2011-07-25 00:43:15
dateupload: 1322774858
tags: aeroyoga restaurativo terap?utico antiage antienvejecimiento diploma profesional formaci?n profesores pilatesa?reo air fitness gimnasiaholistica fusion gravity cursos danza drenaje digesti?n estre?imiento dolordeespalda columpio teachertraining madrid espa?a chueca nuevosministerios euskadi chamartin castellana salud bienestar valencia castell?n albacete ciudadreal barcelona tarragona relajaci?n antiestr?s terapias medicina ayurveda swing fusi?n acoru?a celulitis vigo sevilla c?rdoba almer?a m?laga marbella nuevastecnolog?as tendencias argentina colombia quilmes buenosaires rejuvenecimiento prensa tv televisi?n informaci?n horarios precios laplata per? m?xico eeuu miami los?ngeles fly
license: 0
latitude: 19.414792
longitude: -99.08203
accuracy: 5
views: 13
interestingness: 140 out of 250

photo: 6438182127 76a60bdb09 7175
owner: 33894481@N04
title: Private William Martin Robbins
originalsecret: 2d0c4312f9
originalformat: jpg
o_height: 3182
o_width: 2383
datetaken: 2011-09-28 13:15:02
dateupload: 1322774250
tags: uk england grave headstone wwi hampshire 1915 aldershot wargrave wardead aldershotmilitarycemetery williammartinrobbins
license: 0
latitude: 51.255475
longitude: -0.747081
accuracy: 16
views: 7
interestingness: 141 out of 250

photo: 6438167527 48f5b8d769 7151
owner: 35535885@N03
title: Jewel-tide tree
originalsecret: cd0432929b
originalformat: jpg
o_height: 3456
o_width: 2304
datetaken: 2011-11-30 14:16:31
dateupload: 1322774066
tags: christmas trees decorations lake festival hospital salt ornaments decorating childrens primary 2011
license: 0
latitude: 40.580336
longitude: -111.890505
accuracy: 16
views: 2
interestingness: 142 out of 250

photo: 6438164211 62c710f522 7148
owner: 82642944@N00
title: Green County ~ GHM 066-1
originalsecret: ee29b4f0e2
originalformat: jpg
o_height: 2048
o_width: 1536
datetaken: 2011-06-18 11:09:36
dateupload: 1322774022
tags: apple georgia greensboro outandabout 3gs iphone greencounty sooc awesomeishotthat dbb1 georgiahistoricalmarker ghm0661 nmainatcourthouse
license: 3
latitude: 33.576333
longitude: -83.182334
accuracy: 16
views: 21
interestingness: 143 out of 250

photo: 6437798799 1b77ef0033 7174
owner: 33894481@N04
title: Private Henry French
originalsecret: 32518b8649
originalformat: jpg
o_height: 3000
o_width: 2237
datetaken: 2011-09-28 13:14:52
dateupload: 1322769351
tags: uk england grave headstone wwi hampshire 1915 aldershot wargrave wardead aldershotmilitarycemetery henryfrench
license: 0
latitude: 51.255475
longitude: -0.747081
accuracy: 16
views: 0
interestingness: 144 out of 250

photo: 6437659881 a5e62debd5 7010
owner: 52124449@N07
title: Alfa Romeo Giulia GT Coupe Bertone - badge
originalsecret: 87fe5df87c
originalformat: jpg
o_height: 3000
o_width: 4000
datetaken: 2011-11-28 18:54:24
dateupload: 1322767433
tags: auto abstract detail berlin classic cars beauty car vintage emblem logo nikon power antique details voiture historic coche badge soul carros classics alfa carro oldtimer autos abstracts gt badges veteran alfaromeo macchina coupe logos antiguo coches clasico giulia voitures toprope remise meilenwerk bertone marque macchine altmoabit vehiclename kraftwagen wiebestrasse
license: 0
latitude: 52.530151
longitude: 13.318219
accuracy: 14
views: 10
interestingness: 145 out of 250

photo: 6437629835 900879a4e3 7029
owner: 52124449@N07
title: 1972 Mercedes-Benz 280CE/8 Coupe "1 Series"
originalsecret: 39d136eebd
originalformat: jpg
o_height: 3000
o_width: 4000
datetaken: 2011-11-28 18:30:58
dateupload: 1322767023
tags: auto abstract detail berlin classic cars beauty car vintage logo mercedes nikon power antique details 8 voiture historic coche badge soul mercedesbenz carros classics carro oldtimer autos abstracts badges veteran 1972 macchina mb coupe logos antiguo coches clasico 1series ce voitures toprope 280 remise meilenwerk marque macchine dohc 280ce altmoabit strichacht vehiclename kraftwagen wiebestrasse h1bifocus
license: 0
latitude: 52.530151
longitude: 13.318219
accuracy: 14
views: 4
interestingness: 146 out of 250

photo: 6437565621 d08f2a753c 7149
owner: 50999695@N08
title: Canadensis
originalsecret: 2cb692684a
originalformat: jpg
o_height: 3000
o_width: 4000
datetaken: 2011-05-14 08:41:34
dateupload: 1322766141
tags: flowers macro southwales wales fauna outside outdoors spring woods outdoor gb caerphilly canadensis midglamorgan caerphillymountain
license: 0
latitude: 51.567327
longitude: -3.209531
accuracy: 15
views: 9
interestingness: 147 out of 250

photo: 6437016273 31ea2ebebe 7013
owner: 47333265@N00
title: D_Sanssouci_Potsdam_02
originalsecret: null
originalformat: null
o_height: null
o_width: null
datetaken: 2011-07-19 14:42:29
dateupload: 1322758715
tags: sculpture berlin fountain gardens germany garden temple deutschland pagoda ruins pyramid antique terraces jardin palace historic vista grotto historical belvedere chinoiserie avenue sanssouci potsdam brandenburg garten axis folly wineyard pavillon follies giardino romanbaths landscapearchitecture orangerie storico orangery antik all?e historique historisch formalgarden rococogarden pattedoie anticando
license: 0
latitude: 52.404709
longitude: 13.038411
accuracy: 14
views: 27
interestingness: 148 out of 250

photo: 6436688003 5a4e21880e 7156
owner: 16126901@N06
title: green
originalsecret: 1327f5656f
originalformat: jpg
o_height: 2811
o_width: 4288
datetaken: 2011-12-01 15:19:15
dateupload: 1322754384
tags: urban streets streetphotography oxford streetsigns walls gloucestergreen roadnames nikond300 clivejones theoxonian copyrightclivejones
license: 0
latitude: 51.754324
longitude: -1.261852
accuracy: 15
views: 21
interestingness: 149 out of 250

photo: 6436295699 f6964d20da 7164
owner: 35749421@N08
title: Procopian News staff holiday card, side 2
originalsecret: 5b1e3670ce
originalformat: jpg
o_height: 3636
o_width: 5129
datetaken: 2011-12-01 08:11:50
dateupload: 1322748710
tags: illinois 1960s collegestudents lisle benedictineuniversity collegenewspaper illinoisbenedictinecollege stprocopiuscollege procopiannews babydollpolkaclub
license: 2
latitude: 41.778956
longitude: -88.095722
accuracy: 16
views: 18
interestingness: 150 out of 250

photo: 6436294485 3589d300db 7002
owner: 35749421@N08
title: Procopian News staff holiday card, side 1
originalsecret: 9781866f69
originalformat: jpg
o_height: 3583
o_width: 5129
datetaken: 2011-12-01 08:11:31
dateupload: 1322748691
tags: illinois 1960s collegestudents lisle holidaycard newsdesk benedictineuniversity collegenewspaper illinoisbenedictinecollege stprocopiuscollege procopiannews
license: 2
latitude: 41.777728
longitude: -88.097707
accuracy: 16
views: 49
interestingness: 151 out of 250

photo: 6435756747 71229f2d6c 7142
owner: 55935853@N00
title: Bridge House, Lewisham, SE13
originalsecret: d51365e475
originalformat: jpg
o_height: 2826
o_width: 1940
datetaken: 2011-11-18 09:18:19
dateupload: 1322738661
tags: england london lewisham anchor pubs bridgehouse theanchor rgl se13 thebridgehouse lewishamroad londonboroughoflewisham needsrglreview enterpriseinnspub localspub
license: 5
latitude: 51.465868
longitude: -0.010825
accuracy: 16
views: 15
interestingness: 152 out of 250

photo: 6435328379 05c0e85ce0 7023
owner: 12494104@N00
title: Darlington Civic 6231
originalsecret: null
originalformat: null
o_height: null
o_width: null
datetaken: 2011-11-24 10:35:49
dateupload: 1322728568
tags: uk england cinema architecture teatro kino theater theatre cleveland olympus palace cine darlington civic e3 teesside edwardian grade2 listed hippodrome countydurham parkgate boroughroad newhippodrome owenward gordonhoskins
license: 0
latitude: 54.524659
longitude: -1.54859
accuracy: 16
views: 24
interestingness: 153 out of 250

photo: 6435307579 befcde87a2 7009
owner: 65797661@N03
title: G.N.Residency, G.N.Residency Mira Road Mumbai 1BHK, 2BHK Apartments - Ready Possession
originalsecret: null
originalformat: null
o_height: null
o_width: null
datetaken: 2011-12-01 00:27:17
dateupload: 1322728037
tags: mumbaiproperties flatsinmiraroad 2bhkflatsinmiraroad projectsinmiraroad gnresidency gnresidencymiraroad gnresidencymumbai gnresidencymiraroadmumbai 1bhkflatsinmiraroad 1bhkgnresidency 2bhkgnresidency
license: 0
latitude: 19.278577
longitude: 72.862486
accuracy: 13
views: 4
interestingness: 154 out of 250

photo: 6435168869 6f368e7113 7146
owner: 8981098@N07
title: Ash Sherabliyin Mosque
originalsecret: 3b7297f25e
originalformat: jpg
o_height: 2565
o_width: 1923
datetaken: 2011-10-11 18:40:28
dateupload: 1322724816
tags: africa travel canon geotagged minaret mosque morocco fez maroc fes peregrin medressa f?selbali medrasa alma?rib ???????????? lindadevolder powershotsx30 f?zelbali ashsherabliyinmosque greentiledminaret
license: 0
latitude: 34.051877
longitude: -5.002384
accuracy: 12
views: 12
interestingness: 155 out of 250

photo: 6433918671 c60a74983f 7170
owner: 33281223@N08
title: McMeow
originalsecret: 8c66b035c2
originalformat: jpg
o_height: 2165
o_width: 2832
datetaken: 2011-11-23 10:57:01
dateupload: 1322703846
tags: portrait macro eye animal cat fur nose nikon flash micro whisker nikkor speedlight f28 105mm strobist su800 nikkor105mmf28macro sb900 d3s
license: 0
latitude: 23.181433
longitude: 113.313669
accuracy: 16
views: 10
interestingness: 156 out of 250

photo: 6433908407 f8c709784a 7171
owner: 33281223@N08
title: McMeow
originalsecret: e16a569e3d
originalformat: jpg
o_height: 4156
o_width: 2462
datetaken: 2011-11-23 10:56:16
dateupload: 1322703679
tags: portrait macro eye animal cat fur nose nikon flash micro whisker nikkor speedlight f28 105mm strobist su800 nikkor105mmf28macro sb900 d3s
license: 0
latitude: 23.181457
longitude: 113.313615
accuracy: 16
views: 10
interestingness: 157 out of 250

photo: 6437682809 51a65676e1 7159
owner: 62340765@N07
title: taranta
originalsecret: 3e6bd645c0
originalformat: jpg
o_height: 1024
o_width: 660
datetaken: 2011-08-01 23:40:26
dateupload: 1322767731
tags: 
license: 0
latitude: 36.873149
longitude: 15.137669
accuracy: 11
views: 19
interestingness: 158 out of 250

photo: 6434639865 41d97eaf77 7155
owner: 22416663@N05
title: Travelling Trunks
originalsecret: null
originalformat: null
o_height: null
o_width: null
datetaken: 2011-10-06 14:37:33
dateupload: 1322714437
tags: travelling metal misc trains luggage staff trunks railways
license: 0
latitude: 16.467694
longitude: 77.695312
accuracy: 2
views: 36
interestingness: 159 out of 250

photo: 6438529903 083a0b9df0 7146
owner: 40646519@N00
title: Off Kilter
originalsecret: 6929c7eba8
originalformat: jpg
o_height: 2736
o_width: 3648
datetaken: 2011-11-11 19:36:09
dateupload: 1322778744
tags: epcot band disney celtic waltdisneyworld 111111 2011 november2011
license: 1
latitude: 28.371174
longitude: -81.551446
accuracy: 16
views: 14
interestingness: 160 out of 250

photo: 6437001459 5359c583b3 7012
owner: 60599158@N00
title: The Louis Briam Home  c. 1872
originalsecret: 0c51306ea6
originalformat: jpg
o_height: 960
o_width: 1200
datetaken: 2011-12-01 09:20:13
dateupload: 1322758516
tags: 160 kodakvc agfarecordii solinar45105
license: 0
latitude: 29.417535
longitude: -98.487491
accuracy: 16
views: 9
interestingness: 161 out of 250

photo: 6434723005 8e7e2fe267 7156
owner: 14170629@N08
title: 
originalsecret: 4c0af9cd23
originalformat: jpg
o_height: 2576
o_width: 1920
datetaken: 2009-11-03 13:11:59
dateupload: 1322715785
tags: massachusetts maryreed leominster pinegrovecemetery jamesburditt marytburditt marytylerburditt marytylerreed
license: 0
latitude: 42.531255
longitude: -71.75556
accuracy: 16
views: 0
interestingness: 162 out of 250

photo: 6440442831 06a52486d1 7030
owner: 49428593@N08
title: Street name bollard
originalsecret: null
originalformat: null
o_height: null
o_width: null
datetaken: 2011-12-02 13:49:49
dateupload: 1322811341
tags: southaustralia streetname bollard felixstow
license: 0
latitude: -34.915593
longitude: 138.622627
accuracy: 16
views: 7
interestingness: 163 out of 250

photo: 6438169897 0fd4d4356c 7143
owner: 49844432@N08
title: Flabellina babai
originalsecret: null
originalformat: null
o_height: null
o_width: null
datetaken: 2010-06-27 11:49:45
dateupload: 1322774097
tags: fish portugal peixe sesimbra prnppparrabida flabellinababai jardimdasgorg?nias
license: 0
latitude: 38.435684
longitude: -9.060316
accuracy: 12
views: 10
interestingness: 164 out of 250

photo: 6437169723 7c53512e01 7151
owner: 44114334@N08
title: 20111201 "solitudo" 136/365
originalsecret: 260b9f31d4
originalformat: jpg
o_height: 2665
o_width: 4288
datetaken: 2011-12-01 17:31:30
dateupload: 1322760766
tags: 
license: 0
latitude: 50.887965
longitude: 4.737242
accuracy: 16
views: 25
interestingness: 165 out of 250

photo: 6436925749 48dccb3556 7173
owner: 12315773@N07
title: This fluffy buddy is named doughboy. He's a favorite at the GMU puppy day.
originalsecret: null
originalformat: null
o_height: null
o_width: null
datetaken: 2011-12-01 11:38:45
dateupload: 1322757525
tags: square squareformat earlybird iphoneography instagramapp uploaded:by=instagram foursquare:venue=4b133baff964a520c19523e3
license: 0
latitude: 38.885007
longitude: -77.100202
accuracy: 16
views: 0
interestingness: 166 out of 250

photo: 6436717689 b679ba8a77 7010
owner: 57754135@N05
title: Guru Rinpoche in the fog
originalsecret: 474c2810f2
originalformat: jpg
o_height: 2758
o_width: 4153
datetaken: 2011-11-26 09:00:17
dateupload: 1322754774
tags: temple buddhism southoffrance tibetanbuddhism rigpa lerabling sogyalrinpoche
license: 0
latitude: 43.799659
longitude: 3.242855
accuracy: 13
views: 0
interestingness: 167 out of 250

photo: 6436681085 6e361b9292 7143
owner: 70157118@N04
title: Stickers galore
originalsecret: null
originalformat: null
o_height: null
o_width: null
datetaken: 2011-09-16 19:27:09
dateupload: 1322754291
tags: sign lyon stickers panneau hellomynameis fatbastard capucins
license: 0
latitude: 45.767994
longitude: 4.835593
accuracy: 16
views: 5
interestingness: 168 out of 250

photo: 6433736921 f181c9ac4b 7161
owner: 7557785@N06
title: Actual name of a PayPal conference room.
originalsecret: e82c150dc8
originalformat: jpg
o_height: 612
o_width: 612
datetaken: 2011-11-30 19:59:10
dateupload: 1322701150
tags: square squareformat normal iphoneography instagramapp uploaded:by=instagram foursquare:venue=4c2bb7f577cfe21e19f1b4f1
license: 0
latitude: 37.374912
longitude: -121.920913
accuracy: 16
views: 0
interestingness: 169 out of 250

photo: 6466352913 12039a252d 7032
owner: 58332921@N05
title: Eerste Jacob van Campenstraat 59 (hoek Ferdinand Bolstraat), Amsterdam
originalsecret: ebacb0c82f
originalformat: jpg
o_height: 1417
o_width: 2386
datetaken: 2011-09-27 12:21:33
dateupload: 1322736659
tags: amsterdam pijp ferdinandbolstraat eerstejacobvancampenstraat publiekewerken eerstejacobvancampenstraat59
license: 1
latitude: 52.357479
longitude: 4.890506
accuracy: 16
views: 1
interestingness: 170 out of 250

photo: 6438716127 019b68b0a0 7155
owner: 11401726@N08
title: mayan pyramid
originalsecret: 7a9f898af4
originalformat: jpg
o_height: 3312
o_width: 4416
datetaken: 2011-11-16 14:24:07
dateupload: 1322781308
tags: mexico temple ruins maya yucatan ekbalam
license: 0
latitude: 20.889928
longitude: -88.11367
accuracy: 11
views: 7
interestingness: 171 out of 250

photo: 6438341729 18daa6d6e7 7014
owner: 51207582@N08
title: The Stenson Bubble
originalsecret: 9d8bf9070d
originalformat: jpg
o_height: 3168
o_width: 4752
datetaken: 2011-12-01 10:50:43
dateupload: 1322776284
tags: 
license: 0
latitude: 52.866241
longitude: -1.517432
accuracy: 16
views: 33
interestingness: 172 out of 250

photo: 6438235579 7f503acb3b 7027
owner: 8736322@N08
title: Hartree Grove
originalsecret: null
originalformat: null
o_height: null
o_width: null
datetaken: 2011-12-01 12:05:27
dateupload: 1322774941
tags: ca riverside riversidecalifornia victoriaavenue hartreegrove landmarkofthecityofriverside
license: 0
latitude: 33.936791
longitude: -117.377656
accuracy: 16
views: 4
interestingness: 173 out of 250

photo: 6438047087 20f3e4e85c 7024
owner: 94618813@N00
title: Angola Prison- Angolite Prison Newspaper
originalsecret: null
originalformat: null
o_height: null
o_width: null
datetaken: 2011-11-30 13:32:49
dateupload: 1322772602
tags: angola canon50mmf15usm nikcolorefexpro4 petebrook kerrymyers angolite
license: 0
latitude: 30.966128
longitude: -91.568727
accuracy: 12
views: 11
interestingness: 174 out of 250

photo: 6438042977 3388a3882a 7028
owner: 94618813@N00
title: Angola Prison- Kerry Myers, Angolite Editor
originalsecret: null
originalformat: null
o_height: null
o_width: null
datetaken: 2011-11-30 13:10:16
dateupload: 1322772552
tags: angola canon50mmf15usm nikcolorefexpro4 petebrook kerrymyers angolite
license: 0
latitude: 30.966128
longitude: -91.568727
accuracy: 12
views: 26
interestingness: 175 out of 250

photo: 6438039539 242bc8b397 7031
owner: 94618813@N00
title: Angola Prison- Hospice Volunteer
originalsecret: null
originalformat: null
o_height: null
o_width: null
datetaken: 2011-11-30 12:27:22
dateupload: 1322772513
tags: hospice angola canon50mmf15usm niksilverefexpro2 petebrook
license: 0
latitude: 30.966128
longitude: -91.568727
accuracy: 12
views: 29
interestingness: 176 out of 250

photo: 6437775737 4d9e64d54c 7173
owner: 58561251@N03
title: The Priory
originalsecret: 7299092189
originalformat: jpg
o_height: 2896
o_width: 1773
datetaken: 2011-11-27 15:10:11
dateupload: 1322769048
tags: christchurch thepriory bournemouth2011
license: 0
latitude: 50.738383
longitude: -1.782875
accuracy: 14
views: 7
interestingness: 177 out of 250

photo: 6437205677 cc4be6564b 7019
owner: 37028493@N07
title: bridlington harbour
originalsecret: f1d3984391
originalformat: jpg
o_height: 500
o_width: 421
datetaken: 2010-10-24 07:45:58
dateupload: 1322761205
tags: 
license: 0
latitude: 54.080352
longitude: -0.18711
accuracy: 14
views: 20
interestingness: 178 out of 250

photo: 6436302851 b7e9ba8cd7 7165
owner: 25849529@N04
title: Gallatin River
originalsecret: 1ca328a809
originalformat: jpg
o_height: 2792
o_width: 10108
datetaken: 2011-04-10 13:28:30
dateupload: 1322748816
tags: lewis missouri clark crow gallatin headwaters
license: 3
latitude: 45.928214
longitude: -111.498248
accuracy: 15
views: 11
interestingness: 179 out of 250

photo: 6435054425 21ba7dbfa5 7171
owner: 69298795@N04
title: Maynard McMannis
originalsecret: null
originalformat: null
o_height: null
o_width: null
datetaken: 2011-11-26 15:14:35
dateupload: 1322722327
tags: ghost williamsburg colonialwilliamsburg
license: 0
latitude: 37.2756
longitude: -76.709716
accuracy: 11
views: 39
interestingness: 180 out of 250

photo: 6434727077 8e9fb5a87c 7149
owner: 14170629@N08
title: 
originalsecret: df11df0778
originalformat: jpg
o_height: 2274
o_width: 1673
datetaken: 2009-11-03 13:11:35
dateupload: 1322715853
tags: massachusetts leominster pinegrovecemetery jamesburditt lucindaburditt lucindatrowbridge
license: 0
latitude: 42.531255
longitude: -71.75556
accuracy: 16
views: 1
interestingness: 181 out of 250

photo: 6433519089 d6d19a811e 7017
owner: 8736322@N08
title: Mount Rubidoux Junipero Serra Plaque
originalsecret: null
originalformat: null
o_height: null
o_width: null
datetaken: 2011-11-30 13:07:09
dateupload: 1322697823
tags: ca riverside juniperoserra riversidecalifornia mountrubidoux landmarksofthecityofriveride
license: 0
latitude: 33.984159
longitude: -117.392928
accuracy: 16
views: 4
interestingness: 182 out of 250

photo: 6439728629 88476f7221 7165
owner: 22224184@N00
title: Seuss Critter Carousel
originalsecret: 28953dc48b
originalformat: jpg
o_height: 2304
o_width: 3072
datetaken: 2011-11-04 13:26:02
dateupload: 1322797667
tags: orlando florida universalstudios drseuss islandsofadventure
license: 0
latitude: 28.472935
longitude: -81.469658
accuracy: 16
views: 7
interestingness: 183 out of 250

photo: 6438042287 e039538ca3 7160
owner: 94618813@N00
title: Angola Prison
originalsecret: null
originalformat: null
o_height: null
o_width: null
datetaken: 2011-11-30 13:09:28
dateupload: 1322772544
tags: hospice angola canon50mmf15usm niksilverefexpro2 petebrook
license: 0
latitude: 30.966128
longitude: -91.568727
accuracy: 12
views: 4
interestingness: 184 out of 250

photo: 6438038117 ea9f014385 7026
owner: 39390449@N03
title: Vertrek .....  / Departure...
originalsecret: 4cfbee9ecd
originalformat: jpg
o_height: 1587
o_width: 1140
datetaken: 2011-11-29 13:37:22
dateupload: 1322772494
tags: netherlands norway nederland departure vertrek
license: 0
latitude: 51.651699
longitude: 5.612407
accuracy: 16
views: 5
interestingness: 185 out of 250

photo: 6438034579 14689ce149 7006
owner: 94618813@N00
title: Angola Prison- Blood Hounds
originalsecret: null
originalformat: null
o_height: null
o_width: null
datetaken: 2011-11-30 11:59:25
dateupload: 1322772449
tags: bloodhound angola canonef35mmf14lusm nikcolorefexpro4 petebrook
license: 0
latitude: 30.966128
longitude: -91.568727
accuracy: 12
views: 17
interestingness: 186 out of 250

photo: 6437921737 05b0cb096f 7165
owner: 83827067@N00
title: 19990129 33 Alphaville
originalsecret: 81f949a7a1
originalformat: jpg
o_height: 3560
o_width: 2384
datetaken: 1999-01-29 21:00:00
dateupload: 1322771015
tags: concert live g?vle alphaville lastfm:event=492726
license: 1
latitude: 60.673493
longitude: 17.144229
accuracy: 15
views: 1
interestingness: 187 out of 250

photo: 6437447015 84c5796a96 7169
owner: 47776558@N05
title: Bill Wolfe Modern Defendo instructors Course Lahti, Finland 2005
originalsecret: null
originalformat: null
o_height: null
o_width: null
datetaken: 2005-06-19 00:44:26
dateupload: 1322764483
tags: finland defendo billwolfe whwolfe moderndefendo
license: 0
latitude: 60.983975
longitude: 25.657024
accuracy: 12
views: 0
interestingness: 188 out of 250

photo: 6437446249 a70405894b 7029
owner: 47776558@N05
title: Bill Wolfe Modern Defendo instructors Course Lahti, Finland 2005
originalsecret: null
originalformat: null
o_height: null
o_width: null
datetaken: 2005-06-11 00:55:28
dateupload: 1322764472
tags: finland defendo billwolfe whwolfe moderndefendo
license: 0
latitude: 60.983975
longitude: 25.657024
accuracy: 12
views: 0
interestingness: 189 out of 250

photo: 6437446231 d29b815a46 7165
owner: 47776558@N05
title: Bill Wolfe's Seminar Lahti, Finland 2005 Modern Defendo
originalsecret: null
originalformat: null
o_height: null
o_width: null
datetaken: 2005-06-12 03:55:54
dateupload: 1322764471
tags: finland defendo billwolfe whwolfe moderndefendo
license: 0
latitude: 60.983975
longitude: 25.657024
accuracy: 12
views: 0
interestingness: 190 out of 250

photo: 6437445915 423f8fc2b7 7145
owner: 47776558@N05
title: Bill Wolfe's Seminar Lahti, Finland 2005 Modern Defendo
originalsecret: null
originalformat: null
o_height: null
o_width: null
datetaken: 2005-06-12 03:55:42
dateupload: 1322764467
tags: finland defendo billwolfe whwolfe moderndefendo
license: 0
latitude: 60.983975
longitude: 25.657024
accuracy: 12
views: 1
interestingness: 191 out of 250

photo: 6437445651 f0945e9399 7016
owner: 47776558@N05
title: Bill Wolfe's Seminar Lahti, Finland 2005 Modern Defendo
originalsecret: null
originalformat: null
o_height: null
o_width: null
datetaken: 2005-06-12 03:00:53
dateupload: 1322764463
tags: finland defendo billwolfe whwolfe moderndefendo
license: 0
latitude: 60.983975
longitude: 25.657024
accuracy: 12
views: 0
interestingness: 192 out of 250

photo: 6437445237 49cfa70ec1 7012
owner: 47776558@N05
title: Bill Wolfe's Seminar Lahti, Finland 2005 Modern Defendo
originalsecret: null
originalformat: null
o_height: null
o_width: null
datetaken: 2005-06-12 02:28:41
dateupload: 1322764457
tags: finland defendo billwolfe whwolfe moderndefendo
license: 0
latitude: 60.983975
longitude: 25.657024
accuracy: 12
views: 0
interestingness: 193 out of 250

photo: 6437444881 832e6272ed 7144
owner: 47776558@N05
title: Bill Wolfe's Seminar Lahti, Finland 2005 Modern Defendo
originalsecret: null
originalformat: null
o_height: null
o_width: null
datetaken: 2005-06-12 01:59:37
dateupload: 1322764452
tags: finland defendo billwolfe whwolfe moderndefendo
license: 0
latitude: 60.983975
longitude: 25.657024
accuracy: 12
views: 0
interestingness: 194 out of 250

photo: 6437444617 ab01c54324 7002
owner: 47776558@N05
title: Bill Wolfe's Seminar Lahti, Finland 2005 Modern Defendo
originalsecret: null
originalformat: null
o_height: null
o_width: null
datetaken: 2005-06-12 01:54:33
dateupload: 1322764448
tags: finland defendo billwolfe whwolfe moderndefendo
license: 0
latitude: 60.983975
longitude: 25.657024
accuracy: 12
views: 0
interestingness: 195 out of 250

photo: 6437444383 9a8f025a2c 7022
owner: 47776558@N05
title: Bill Wolfe's Seminar Lahti, Finland 2005 Modern Defendo
originalsecret: null
originalformat: null
o_height: null
o_width: null
datetaken: 2005-06-12 02:24:40
dateupload: 1322764444
tags: finland defendo billwolfe whwolfe moderndefendo
license: 0
latitude: 60.983975
longitude: 25.657024
accuracy: 12
views: 0
interestingness: 196 out of 250

photo: 6437444073 ee2f56d29d 7152
owner: 47776558@N05
title: Bill Wolfe's Seminar Lahti, Finland 2005 Modern Defendo
originalsecret: null
originalformat: null
o_height: null
o_width: null
datetaken: 2005-06-12 01:54:22
dateupload: 1322764440
tags: finland defendo billwolfe whwolfe moderndefendo
license: 0
latitude: 60.983975
longitude: 25.657024
accuracy: 12
views: 0
interestingness: 197 out of 250

photo: 6437443719 5a07488db6 7162
owner: 47776558@N05
title: Bill Wolfe's Seminar Lahti, Finland 2005 Modern Defendo
originalsecret: null
originalformat: null
o_height: null
o_width: null
datetaken: 2005-06-12 01:54:03
dateupload: 1322764435
tags: finland defendo billwolfe whwolfe moderndefendo
license: 0
latitude: 60.983975
longitude: 25.657024
accuracy: 12
views: 0
interestingness: 198 out of 250

photo: 6437443403 8e3f794494 7141
owner: 47776558@N05
title: Bill Wolfe's Seminar Lahti, Finland 2005 Modern Defendo
originalsecret: null
originalformat: null
o_height: null
o_width: null
datetaken: 2005-06-12 01:53:31
dateupload: 1322764431
tags: finland defendo billwolfe whwolfe moderndefendo
license: 0
latitude: 60.983975
longitude: 25.657024
accuracy: 12
views: 0
interestingness: 199 out of 250

photo: 6437442893 e5cdf65263 7141
owner: 47776558@N05
title: Bill Wolfe's Seminar Lahti, Finland 2005 Modern Defendo
originalsecret: null
originalformat: null
o_height: null
o_width: null
datetaken: 2005-06-12 01:41:29
dateupload: 1322764424
tags: finland defendo billwolfe whwolfe moderndefendo
license: 0
latitude: 60.983975
longitude: 25.657024
accuracy: 12
views: 0
interestingness: 200 out of 250

photo: 6437442461 143525427e 7017
owner: 47776558@N05
title: Bill Wolfe's Seminar Lahti, Finland 2005 Modern Defendo
originalsecret: null
originalformat: null
o_height: null
o_width: null
datetaken: 2005-06-12 01:00:03
dateupload: 1322764418
tags: finland defendo billwolfe whwolfe moderndefendo
license: 0
latitude: 60.983975
longitude: 25.657024
accuracy: 12
views: 0
interestingness: 201 out of 250

photo: 6437239285 314bed5052 7149
owner: 52188864@N04
title: Pompidou center
originalsecret: 466558850f
originalformat: jpg
o_height: 1536
o_width: 2304
datetaken: 2011-08-30 13:32:38
dateupload: 1322761644
tags: paris france arts center pompidou
license: 0
latitude: 48.856918
longitude: 2.341209
accuracy: 11
views: 5
interestingness: 202 out of 250

photo: 6435512347 df8cdd65dd 7024
owner: 69777151@N08
title: Acerola, Malpighia emarginata
originalsecret: null
originalformat: null
o_height: null
o_width: null
datetaken: 2011-11-23 14:33:40
dateupload: 1322733097
tags: west fruits brasil acerola penedo
license: 0
latitude: -22.460641
longitude: -44.446536
accuracy: 16
views: 0
interestingness: 203 out of 250

photo: 6435263439 81ed309c56 7165
owner: 56619626@N05
title: Pupin Hall, Columbia University
originalsecret: f8c0c4265e
originalformat: jpg
o_height: 1063
o_width: 1600
datetaken: 2011-10-31 09:28:30
dateupload: 1322727056
tags: newyork manhattan columbiauniversity manhattanproject 2011
license: 5
latitude: 40.807688
longitude: -73.962535
accuracy: 13
views: 5
interestingness: 204 out of 250

photo: 6438045029 222399eddf 7007
owner: 94618813@N00
title: Angola Prison
originalsecret: null
originalformat: null
o_height: null
o_width: null
datetaken: 2011-11-30 13:14:51
dateupload: 1322772578
tags: angola canon50mmf15usm niksilverefexpro2 petebrook
license: 0
latitude: 30.966128
longitude: -91.568727
accuracy: 12
views: 17
interestingness: 205 out of 250

photo: 6438044229 3559349687 7016
owner: 94618813@N00
title: Angola Prison
originalsecret: null
originalformat: null
o_height: null
o_width: null
datetaken: 2011-11-30 13:14:21
dateupload: 1322772568
tags: angola canon50mmf15usm nikcolorefexpro4 petebrook
license: 0
latitude: 30.966128
longitude: -91.568727
accuracy: 12
views: 3
interestingness: 206 out of 250

photo: 6438040219 301c9d7e7e 7021
owner: 94618813@N00
title: Angola Prison
originalsecret: null
originalformat: null
o_height: null
o_width: null
datetaken: 2011-11-30 12:27:59
dateupload: 1322772521
tags: angola canon50mmf15usm nikcolorefexpro4 petebrook
license: 0
latitude: 30.966128
longitude: -91.568727
accuracy: 12
views: 6
interestingness: 207 out of 250

photo: 6438033141 24ac73268c 7008
owner: 94618813@N00
title: Angola Prison- Pete Brook
originalsecret: null
originalformat: null
o_height: null
o_width: null
datetaken: 2011-11-30 11:49:59
dateupload: 1322772431
tags: angola canonef35mmf14lusm nikcolorefexpro4 petebrook
license: 0
latitude: 30.966128
longitude: -91.568727
accuracy: 12
views: 20
interestingness: 208 out of 250

photo: 6438032473 eacf64a483 7015
owner: 94618813@N00
title: Angola Prison
originalsecret: null
originalformat: null
o_height: null
o_width: null
datetaken: 2011-11-30 11:27:07
dateupload: 1322772422
tags: angola canonef135mmf2lusm nikcolorefexpro4 petebrook
license: 0
latitude: 30.966128
longitude: -91.568727
accuracy: 12
views: 27
interestingness: 209 out of 250

photo: 6438031667 22b2bd7293 7161
owner: 94618813@N00
title: Angola Prison
originalsecret: null
originalformat: null
o_height: null
o_width: null
datetaken: 2011-11-30 11:20:46
dateupload: 1322772414
tags: angola canonef135mmf2lusm nikcolorefexpro4 petebrook
license: 0
latitude: 30.966128
longitude: -91.568727
accuracy: 12
views: 21
interestingness: 210 out of 250

photo: 6437295057 a913ece40e 7001
owner: 21596674@N00
title: IMG_0926
originalsecret: null
originalformat: null
o_height: null
o_width: null
datetaken: 2011-11-22 14:55:17
dateupload: 1322762401
tags: holiday honeymoon vietnam hanoi
license: 0
latitude: 21.01513
longitude: 105.852456
accuracy: 14
views: 0
interestingness: 211 out of 250

photo: 6437131471 fc27ee8b92 7021
owner: 21596674@N00
title: IMG_0918
originalsecret: null
originalformat: null
o_height: null
o_width: null
datetaken: 2011-11-22 13:41:03
dateupload: 1322760276
tags: holiday honeymoon vietnam hanoi
license: 0
latitude: 21.01513
longitude: 105.852456
accuracy: 14
views: 1
interestingness: 212 out of 250

photo: 6435794549 c66e89d5c9 7016
owner: 49844432@N08
title: Platydoris argo
originalsecret: null
originalformat: null
o_height: null
o_width: null
datetaken: 2011-11-30 12:15:01
dateupload: 1322739466
tags: sesimbra prnppparrabida platydorisargo jardimdasgorg?nias
license: 0
latitude: 38.435684
longitude: -9.060316
accuracy: 12
views: 18
interestingness: 213 out of 250

photo: 6435522355 c139c385a9 7155
owner: 21596674@N00
title: IMG_0786
originalsecret: null
originalformat: null
o_height: null
o_width: null
datetaken: 2011-11-21 21:31:04
dateupload: 1322733345
tags: holiday honeymoon vietnam hanoi
license: 0
latitude: 21.01513
longitude: 105.852456
accuracy: 14
views: 0
interestingness: 214 out of 250

photo: 6435264553 737b19db55 7018
owner: 56619626@N05
title: Columbia University
originalsecret: 29a3c1bd45
originalformat: jpg
o_height: 1063
o_width: 1600
datetaken: 2011-10-31 09:36:50
dateupload: 1322727084
tags: newyork manhattan columbiauniversity 2011
license: 5
latitude: 40.807688
longitude: -73.962535
accuracy: 13
views: 20
interestingness: 215 out of 250

photo: 6435262649 b1b00da5ab 7014
owner: 56619626@N05
title: Columbia University
originalsecret: 96e51a038d
originalformat: jpg
o_height: 1063
o_width: 1600
datetaken: 2011-10-31 09:18:56
dateupload: 1322727037
tags: newyork manhattan columbiauniversity 2011
license: 5
latitude: 40.807688
longitude: -73.962535
accuracy: 13
views: 15
interestingness: 216 out of 250

photo: 6435262141 9caf7e424c 7007
owner: 56619626@N05
title: Alma Mater, Columbia University
