
mintime: 1322697600 maxtime: 1322728192.27
numimgs: 246
total pages: 1
visiting only 1 pages ( up to 250 images)
photo: 6433881325 28bcb446fe 7165
owner: 13547802@N05
title: Green Stream - Aurora near Reykjav?k Iceland
originalsecret: 0c62bd0748
originalformat: jpg
o_height: 650
o_width: 950
datetaken: 2011-11-30 22:23:41
dateupload: 1322703280
tags: winter sky mountain lake snow storm reflection green ice weather river photography solar iceland astro arctic aurora magnetic northernlights 2011 arcticphoto
license: 0
latitude: 64.209514
longitude: -21.608905
accuracy: 11
views: 1381
interestingness: 1 out of 246

photo: 6433920107 372d004f1d 7171
owner: 34840363@N08
title: Shibuya
originalsecret: 1d654983a2
originalformat: jpg
o_height: 671
o_width: 1000
datetaken: 2011-12-01 10:44:17
dateupload: 1322703869
tags: leica guy japan japanese tokyo being flash 28mm shibuya sick
license: 0
latitude: 35.658859
longitude: 139.707519
accuracy: 1
views: 1138
interestingness: 2 out of 246

photo: 6434986387 c48a803b6c 7016
owner: 29579683@N04
title: Doubt.
originalsecret: null
originalformat: null
o_height: null
o_width: null
datetaken: 2011-11-24 16:42:05
dateupload: 1322720813
tags: street city portrait people urban italy canon photography eos dof bokeh candid streetphotography tuscany cinematic stefano santucci 135l canoniani 5dmarkii 5d2 5dmii streettogs tastino0 tastino0photography0
license: 0
latitude: 43.769521
longitude: 11.250472
accuracy: 15
views: 347
interestingness: 3 out of 246

photo: 6432094063 67d77234a8 6034
owner: 41684606@N08
title: STORMS AHEAD
originalsecret: null
originalformat: null
o_height: null
o_width: null
datetaken: 2011-03-12 18:03:04
dateupload: 1322723192
tags: ocean longexposure light shadow sea sky bw cloud beach water dark mono big movement westsussex spencer posts stopper leefilters nikond700
license: 0
latitude: 50.780326
longitude: -0.904998
accuracy: 10
views: 365
interestingness: 4 out of 246

photo: 6434987575 3b8022e434 7153
owner: 29965389@N03
title: 
originalsecret: null
originalformat: null
o_height: null
o_width: null
datetaken: 2011-11-13 14:50:14
dateupload: 1322720839
tags: people color colour 35mm canon dirty creta crete dirtyharry nologos 5dmkii dirtyharrry nobanners pleasenobanners pleasenologos
license: 0
latitude: 35.330251
longitude: 24.604396
accuracy: 11
views: 423
interestingness: 5 out of 246

photo: 6433558333 5fdebc59dc 7027
owner: 54826563@N02
title: Uma linda quinta flower a todos meus amigos do Flickr!
originalsecret: 88e1289c72
originalformat: jpg
o_height: 3264
o_width: 4928
datetaken: 2011-09-07 14:48:38
dateupload: 1322698469
tags: blue flower verde green nature beauty azul garden natureza flor jardim belez
license: 0
latitude: -23.553808
longitude: -46.873126
accuracy: 16
views: 227
interestingness: 6 out of 246

photo: 6434722497 eaceb3af82 7016
owner: 29396071@N02
title: M33 NGC 598 Triangulum Galaxy LRGB+HA (reprocess)
originalsecret: 5f9db1a457
originalformat: jpg
o_height: 2299
o_width: 3191
datetaken: 2011-12-04 07:30:32
dateupload: 1322715776
tags: camera sky monochrome field night stars photography pier backyard fotografie photos michigan space ngc shed science images astro fremont observatory telescope galaxy m33 terry astronomy imaging triangulum ha hancock alpha ccd universe wo hydrogen paramount tmb 4000 osc teleskop astronomie byo f7 mks deepsky 598 68mm lrgb autoguider flattener Astrometrydotnet:status=solved qhy5 130ss Astrometrydotnet:version=14400 gt1100s qhy9m wwwastrofactorscom Astrometrydotnet:id=alpha20111215786719
license: 0
latitude: 43.365234
longitude: -85.93892
accuracy: 16
views: 341
interestingness: 7 out of 246

photo: 6434737789 da1b500bf7 7158
owner: 49822414@N07
title: Timbrado Canary
originalsecret: 088860afa5
originalformat: jpg
o_height: 2848
o_width: 2930
datetaken: 2011-09-03 16:55:48
dateupload: 1322716053
tags: birds bloedelconservatory africanfinch vancouverattractions jayeshmodha timbradocanary jayeshmodhanikond90 spanishtimbradocanary bloedelconservatorybirds
license: 0
latitude: 49.26044
longitude: -123.114028
accuracy: 11
views: 163
interestingness: 8 out of 246

photo: 6433192551 12d77874ac 7021
owner: 7383661@N08
title: one week later .......
originalsecret: null
originalformat: null
o_height: null
o_width: null
datetaken: 2011-11-30 15:39:33
dateupload: 1322725200
tags: portrait toronto wednesday lens photography movement downtown library photojournalism police peaceful gazebo beercan yurt stjamespark civildisobedience resistance global socialdocumentary eviction kingst officers thefaceof analeesmith minoltaaf70210mm sonyalphaa33 occupytoronto occupyingtoronto nov23rd2011 metropolitantorontopoliceforce
license: 0
latitude: 43.650686
longitude: -79.373012
accuracy: 16
views: 149
interestingness: 9 out of 246

photo: 6433679729 e3dd1250d4 7030
owner: 47715880@N04
title: Retreating Vapour
originalsecret: null
originalformat: null
o_height: null
o_width: null
datetaken: 2011-11-30 17:01:01
dateupload: 1322700291
tags: sunset lake 3 snow toronto ontario golden long exposure day post image first adobe hour processing beaches 1750 scarborough 28 bluffs non hdr vapour vapor lightroom 500d retreating
license: 0
latitude: 43.705034
longitude: -79.235308
accuracy: 14
views: 344
interestingness: 10 out of 246

photo: 6433533363 6216833974 7031
owner: 45939540@N05
title: Megan float - Mamiya C33
originalsecret: 6384b5c2cc
originalformat: jpg
o_height: 1024
o_width: 1039
datetaken: 2011-11-30 02:01:05
dateupload: 1322698054
tags: 
license: 4
latitude: 45.511791
longitude: -122.675628
accuracy: 11
views: 339
interestingness: 11 out of 246

photo: 6435030273 64819f37dd 7142
owner: 31730886@N03
title: a hop, skip, and a jump
originalsecret: null
originalformat: null
o_height: null
o_width: null
datetaken: 2011-09-27 02:09:28
dateupload: 1322721779
tags: toronto downtown rooftopping occupyrooftops
license: 0
latitude: 43.660482
longitude: -79.385565
accuracy: 15
views: 246
interestingness: 12 out of 246

photo: 6433923725 fd31b79253 7168
owner: 12303751@N00
title: 
originalsecret: null
originalformat: null
o_height: null
o_width: null
datetaken: 2011-11-30 17:44:05
dateupload: 1322703929
tags: california longexposure color 120 6x6 tlr film night mediumformat square negative capitola yashicamat124g c41 kodakpro160
license: 0
latitude: 36.971829
longitude: -121.9544
accuracy: 16
views: 153
interestingness: 13 out of 246

photo: 6435194981 2ff1822456 7009
owner: 30493186@N03
title: Charles Bridge
originalsecret: 8e438b748f
originalformat: jpg
o_height: 656
o_width: 999
datetaken: 2010-10-23 17:14:19
dateupload: 1322725421
tags: bridge charles
license: 0
latitude: 50.086308
longitude: 14.412581
accuracy: 14
views: 121
interestingness: 14 out of 246

photo: 6433561605 f540404b9e 7016
owner: 40904040@N04
title: Wellington harbour
originalsecret: null
originalformat: null
o_height: null
o_width: null
datetaken: 2011-11-13 12:13:03
dateupload: 1322698530
tags: longexposure sea newzealand water monochrome pier wooden jetty wellington barnacles northisland lowtide posts aotearoa minimalist relic shellybay ef70200mmf4lisusm canon5dmarkii silverefexpro2
license: 0
latitude: -41.295091
longitude: 174.821748
accuracy: 14
views: 98
interestingness: 15 out of 246

photo: 6435093631 31d4c1d211 7145
owner: 46489744@N07
title: Another Hibiscus
originalsecret: ba1989e08b
originalformat: jpg
o_height: 2592
o_width: 3872
datetaken: 2011-11-05 11:13:29
dateupload: 1322723178
tags: red flower green nature flora sony hibiscus bud sooc sal75300
license: 0
latitude: 22.451014
longitude: 87.921009
accuracy: 12
views: 88
interestingness: 16 out of 246

photo: 6433827119 20def9c0f4 7171
owner: 26034413@N04
title: Lake Powell Sunset
originalsecret: 5cc28fe6e5
originalformat: jpg
o_height: 400
o_width: 600
datetaken: 2011-11-13 17:22:22
dateupload: 1322702602
tags: usa utah escalante lakepowell gsenm alstrompoint romanamesa sweetestcampspotinthesouthwest
license: 0
latitude: 37.052574
longitude: -111.372528
accuracy: 12
views: 92
interestingness: 17 out of 246

photo: 6433929213 cf23d441c3 7007
owner: 33281223@N08
title: McMeow
originalsecret: 563ff8f8c8
originalformat: jpg
o_height: 4256
o_width: 2832
datetaken: 2011-11-23 10:57:01
dateupload: 1322704015
tags: portrait macro eye animal cat fur nose nikon flash micro whisker nikkor speedlight f28 105mm strobist su800 nikkor105mmf28macro sb900 d3s
license: 0
latitude: 23.181447
longitude: 113.313679
accuracy: 16
views: 156
interestingness: 18 out of 246

photo: 6433615571 ea995361ee 7025
owner: 56845130@N06
title: Heavenly Light at Cape Flattery (Remake)
originalsecret: null
originalformat: null
o_height: null
o_width: null
datetaken: 2011-11-30 17:28:58
dateupload: 1322699338
tags: seattle wood blue trees light jared sky sun color tree green fog pinetree clouds forest photography utah photo washington leaf big high day shadows dof view state image explosion july days trail dew rays washingtonstate epic hdr capeflattery treesilhouettes jaredjohnson1207 johnson1207 cannonpowershota495
license: 0
latitude: 48.384473
longitude: -124.724392
accuracy: 14
views: 95
interestingness: 19 out of 246

photo: 6435151367 46d1a2b841 7006
owner: 39460523@N02
title: ?"Let me light my lamp", says the star, "And never debate if it will help to remove the darkness? ~Rabindranath Tagore
originalsecret: 5427929d38
originalformat: jpg
o_height: 2592
o_width: 3888
datetaken: 2011-11-05 00:35:01
dateupload: 1322724434
tags: flickraward
license: 0
latitude: 31.102223
longitude: 77.17153
accuracy: 13
views: 48
interestingness: 20 out of 246

photo: 6434360561 9bb2ca0e84 7035
owner: 12471248@N08
title: Stranger 036/100
originalsecret: null
originalformat: null
o_height: null
o_width: null
datetaken: 2011-11-28 10:24:11
dateupload: 1322710348
tags: sanfrancisco portrait people unionsquare tailor brooksbrothers 100strangers
license: 0
latitude: 37.787911
longitude: -122.410663
accuracy: 13
views: 102
interestingness: 21 out of 246

photo: 6434231917 c2ee4c9fac 7024
owner: 41304880@N05
title: The Night Is Not Over Yet
originalsecret: 368905db48
originalformat: jpg
o_height: 4288
o_width: 2848
datetaken: 2011-11-28 20:35:14
dateupload: 1322708449
tags: portrait girl fashion night model dress x100 nightonearth strobist
license: 0
latitude: 30.249762
longitude: -97.750082
accuracy: 16
views: 348
interestingness: 22 out of 246

photo: 6434516253 cf8ed51a71 7013
owner: 24186584@N05
title: ~ heavenly autumn with a touch of winter ~
originalsecret: null
originalformat: null
o_height: null
o_width: null
datetaken: 2011-10-08 15:09:53
dateupload: 1322712609
tags: autumn nature weather season landscape earth motherearth fallsnow freshsnow 2011 colorfulcolorado fathersky heavensdarkangel sonydslra200 desbahallison heavensdarkangel2 wolfcreekopeningdayoctober8 dedicated2007photoguy
license: 0
latitude: 37.480852
longitude: -106.848392
accuracy: 11
views: 58
interestingness: 23 out of 246

photo: 6433611675 dc060d051d 7162
owner: 37150128@N02
title: As The Winter Comes...
originalsecret: null
originalformat: null
o_height: null
o_width: null
datetaken: 2009-11-22 13:30:37
dateupload: 1322699283
tags: pink winter portrait cold girl leaves oregon portland model nikon defirenze
license: 0
latitude: 45.450617
longitude: -122.643814
accuracy: 11
views: 71
interestingness: 24 out of 246

photo: 6434972131 b5eef29394 7166
owner: 24161439@N00
title: RD-600
originalsecret: null
originalformat: null
o_height: null
o_width: null
datetaken: 2011-11-29 16:39:09
dateupload: 1322720521
tags: 
license: 0
latitude: 14.646392
longitude: 121.055109
accuracy: 14
views: 144
interestingness: 25 out of 246

photo: 6433766485 13142f5091 7173
owner: 51038833@N08
title: Hard student Life
originalsecret: 82dc2588f1
originalformat: jpg
o_height: 4322
o_width: 3030
datetaken: 2011-11-30 19:25:23
dateupload: 1322701591
tags: friends food cooking colors amazing nikon shot fisheye greece thessaloniki 8mm hdr studentlife citycollege hoxha rokinon rilind
license: 6
latitude: 40.639537
longitude: 22.941373
accuracy: 14
views: 202
interestingness: 26 out of 246

photo: 6434711743 28a76f00bf 7151
owner: 9742303@N02
title: A Happy Ending...
originalsecret: 08a993cedd
originalformat: jpg
o_height: 2110
o_width: 2770
datetaken: 2011-11-30 01:56:41
dateupload: 1322715589
tags: macro book theend picnik odc1 peterchurchmouse margoaustin
license: 0
latitude: 45.531635
longitude: -122.647762
accuracy: 15
views: 56
interestingness: 27 out of 246

photo: 6434982875 565ee88365 7009
owner: 76672675@N00
title: photographers' daughters
originalsecret: null
originalformat: null
o_height: null
o_width: null
datetaken: 2011-07-05 12:23:42
dateupload: 1322720736
tags: girls friends summer archives flickrmeetup instantphoto
license: 0
latitude: 39.968618
longitude: -75.184657
accuracy: 14
views: 121
interestingness: 28 out of 246

photo: 6433827467 db72257442 7016
owner: 26034413@N04
title: Lake Powell Sunset
originalsecret: cfc6d1690a
originalformat: jpg
o_height: 400
o_width: 600
datetaken: 2011-11-13 17:18:28
dateupload: 1322702488
tags: usa utah escalante lakepowell gsenm alstrompoint romanamesa sweetestcampspotinthesouthwest
license: 0
latitude: 37.052574
longitude: -111.372528
accuracy: 12
views: 61
interestingness: 29 out of 246

photo: 6434224397 803b92bc10 7015
owner: 32039444@N05
title: Manhattan Bridge #2
originalsecret: null
originalformat: null
o_height: null
o_width: null
datetaken: 2011-11-27 09:03:23
dateupload: 1322708327
tags: nyc bridge newyork brooklyn photoshop manhattanbridge
license: 0
latitude: 40.700137
longitude: -73.987727
accuracy: 15
views: 35
interestingness: 30 out of 246

photo: 6433684153 a3f4101e84 7153
owner: 29122848@N04
title: Deep Purple Desert - Terlingua, Texas
originalsecret: 256b43771a
originalformat: jpg
o_height: 900
o_width: 1391
datetaken: 2011-04-29 20:22:44
dateupload: 1322700353
tags: usa canon texas terlingua westtexas bigbendnationalpark canonef1740mmf4lusm chisosmountains bigbendranchstatepark texaslandscapes christmasmountains texasmountaintrail adobephotoshoplightroom3 singhraylbwarmingpolarizerfilter
license: 0
latitude: 29.328798
longitude: -103.552772
accuracy: 15
views: 111
interestingness: 31 out of 246

photo: 6435019401 a2af70b9c2 7147
owner: 53892597@N05
title: The wrath of Theia
originalsecret: null
originalformat: null
o_height: null
o_width: null
datetaken: 2011-11-30 15:38:29
dateupload: 1322721541
tags: pictures christmas light portrait woman art lamp girl lady portraits photography nikon colorado photos indoor portraiture potrait selfie d5000 studiojan janclickr
license: 0
latitude: 39.73597
longitude: -104.991531
accuracy: 11
views: 31
interestingness: 32 out of 246

photo: 6434117291 0fe4daae73 7171
owner: 47432611@N07
title: Somewhere Beyond The Clouds
originalsecret: a954020bde
originalformat: jpg
o_height: 600
o_width: 800
datetaken: 2011-11-30 11:35:52
dateupload: 1322706719
tags: weather clouds landscape outdoors silverlake pacificnorthwest vista 111in2011 scavchal scdec12
license: 0
latitude: 46.8882
longitude: -122.379632
accuracy: 16
views: 41
interestingness: 33 out of 246

photo: 6433858639 f20aec89f5 7016
owner: 50294290@N05
title: Day One - 25 Days of Christmas
originalsecret: 5db1313468
originalformat: jpg
o_height: 996
o_width: 1500
datetaken: 2010-12-24 18:23:06
dateupload: 1322702947
tags: christmas blue decorations lights 25daysofchristmas nikond5000 dougmallnikond5000 dougmall
license: 0
latitude: 85.051202
longitude: 179.999771
accuracy: 11
views: 70
interestingness: 34 out of 246

photo: 6434013235 74f30945c4 7028
owner: 47432611@N07
title: Hotwired
originalsecret: 1f3d879f63
originalformat: jpg
o_height: 1067
o_width: 800
datetaken: 2011-11-30 11:38:37
dateupload: 1322705230
tags: hot fence outdoors wire electricfence insulators atsh fencedfriday 111in2011
license: 0
latitude: 46.888248
longitude: -122.379568
accuracy: 16
views: 45
interestingness: 35 out of 246

photo: 6434983425 2fa02c858a 7032
owner: 55544556@N03
title: At the Lake shoreline in the Tetons
originalsecret: a474e60259
originalformat: jpg
o_height: 2528
o_width: 4017
datetaken: 2011-09-23 14:26:50
dateupload: 1322720749
tags: lake mountains fall reflections landscape nikon fallcolors shoreline jackson grandtetons mirrorimage tetons jacksonhole grandtetonnationalpark d300 fallfoilage jacksonwy snowcoveredmountains dcpt dirtcheapphototours rwigginphotos ronniewiggin
license: 0
latitude: 43.479709
longitude: -110.762321
accuracy: 11
views: 57
interestingness: 36 out of 246

photo: 6434437255 10358f0322 7023
owner: 53117932@N05
title: Post Osorno y ceniza del cord?n caulle, aqu? estoy.
originalsecret: null
originalformat: null
o_height: null
o_width: null
datetaken: 2011-12-01 00:51:00
dateupload: 1322711460
tags: square squareformat iphoneography instagramapp xproii uploaded:by=instagram
license: 0
latitude: -39.818689
longitude: -73.229026
accuracy: 11
views: 20
interestingness: 37 out of 246

photo: 6434060645 a3f33728c0 7004
owner: 47432611@N07
title: Motel Mural, Framed
originalsecret: c454a7688f
originalformat: jpg
o_height: 621
o_width: 800
datetaken: 2011-11-30 10:59:19
dateupload: 1322705911
tags: outdoors mural painted motel historical eatonville lightroom localhistory milltown timberindustry sawdustburner scavchal scdec13
license: 0
latitude: 46.866822
longitude: -122.264732
accuracy: 15
views: 42
interestingness: 38 out of 246

photo: 6434209757 7279a167b6 7033
owner: 39104390@N07
title: misstep
originalsecret: null
originalformat: null
o_height: null
o_width: null
datetaken: 2011-11-27 18:05:28
dateupload: 1322708076
tags: ithinkireallyhavetopostsomethingredtomorrow thislittleguywasjusthangingoutonthecardoorandalmostdidntevennotice
license: 0
latitude: 33.953189
longitude: -84.545883
accuracy: 11
views: 24
interestingness: 39 out of 246

photo: 6435226189 698df22a61 7015
owner: 53636170@N02
title: "I'd be unstoppable if i could just get going!"
originalsecret: null
originalformat: null
o_height: null
o_width: null
datetaken: 2011-12-01 07:56:39
dateupload: 1322726199
tags: donnanook lincolnshirewildlifetrusts
license: 0
latitude: 53.475787
longitude: 0.144538
accuracy: 11
views: 50
interestingness: 40 out of 246

photo: 6433779665 3eee55db8f 7141
owner: 69797303@N04
title: The best years of our lives, the hope of it survives.
originalsecret: null
originalformat: null
o_height: null
o_width: null
datetaken: 2011-11-29 23:55:30
dateupload: 1322701790
tags: 
license: 0
latitude: 85.754219
longitude: 124.804687
accuracy: 1
views: 71
interestingness: 41 out of 246

photo: 6434746849 079861233e 7162
owner: 33899809@N05
title: childhood memories
originalsecret: 9a6aae1104
originalformat: jpg
o_height: 1600
o_width: 2400
datetaken: 2011-11-30 22:30:03
dateupload: 1322712623
tags: scotland edinburgh stonehenge schooluniform christeningday tp21
license: 2
latitude: 55.950353
longitude: -3.223943
accuracy: 15
views: 60
interestingness: 42 out of 246

photo: 6434126027 21431872e0 7162
owner: 30913709@N08
title: ~ Starry Night ~
originalsecret: ac8e736d34
originalformat: jpg
o_height: 2660
o_width: 4001
datetaken: 2008-12-25 07:06:22
dateupload: 1322706845
tags: christmas stars star christmaslights holidaylights
license: 0
latitude: 33.047846
longitude: -97.110857
accuracy: 13
views: 69
interestingness: 43 out of 246

photo: 6433793483 e3433a436f 7020
owner: 47432611@N07
title: Bark Of The Pacific Madrone
originalsecret: 97b36a2874
originalformat: jpg
o_height: 1067
o_width: 800
datetaken: 2011-11-30 15:00:11
dateupload: 1322701988
tags: plants tree outdoors bark madrona medicinal madrone pacificmadrone arbutusmenziesii peelingbark 365caws 111in2011 sootoolicksgrave
license: 0
latitude: 46.846852
longitude: -122.353073
accuracy: 15
views: 13
interestingness: 44 out of 246

photo: 6434421999 b728c51815 7149
owner: 28530821@N05
title: day forty three - bye bye November
originalsecret: null
originalformat: null
o_height: null
o_width: null
datetaken: 2011-11-30 23:36:13
dateupload: 1322711707
tags: selfportrait canada home me self hair montreal 365 pinkhair sideways ness 365days
license: 0
latitude: 45.558895
longitude: -73.568415
accuracy: 15
views: 72
interestingness: 45 out of 246

photo: 6433875733 3d0e02d9ed 7159
owner: 67146657@N00
title: Coming in for a Landing
originalsecret: a67266caa5
originalformat: jpg
o_height: 864
o_width: 2592
datetaken: 2009-06-10 02:22:13
dateupload: 1322703203
tags: panorama plane aircraft idaho landing handheld float pontoons coeurdalene lakecoeurdalene waterlanding photocide
license: 0
latitude: 47.669801
longitude: -116.785633
accuracy: 15
views: 38
interestingness: 46 out of 246

photo: 6434640859 7df68a4a7b 7145
owner: 22416663@N05
title: Bolo (Le Gateau)Sans Rival
originalsecret: null
originalformat: null
o_height: null
o_width: null
datetaken: 2011-11-21 14:46:22
dateupload: 1322714453
tags: india cake french philippines goa eggs blogstuff bolo portuguese meringue cashewnuts gateau saffron canon100mmmacro cardamom layered frenchbuttercream daringbakers
license: 0
latitude: 15.35023
longitude: 74.013931
accuracy: 5
views: 65
interestingness: 47 out of 246

photo: 6434054277 5056a4b10f 7023
owner: 70994407@N06
title: Stargazer
originalsecret: null
originalformat: null
o_height: null
o_width: null
datetaken: 2011-08-27 03:53:26
dateupload: 1322705814
tags: texture zoo tiger lion pa only donnie pittsburghzoo ferns invite manipulate memoriesbook
license: 0
latitude: 40.483776
longitude: -79.919319
accuracy: 14
views: 8
interestingness: 48 out of 246

photo: 6434165921 3d2a073ab4 7032
owner: 47432611@N07
title: Pucker Up
originalsecret: a6a3e1e3dd
originalformat: jpg
o_height: 1067
o_width: 800
datetaken: 2011-11-30 12:28:23
dateupload: 1322707413
tags: tree outdoors kiss humour smooch duckpond facialimpressions yelm cochranepark
license: 0
latitude: 46.937766
longitude: -122.610227
accuracy: 16
views: 27
interestingness: 49 out of 246

photo: 6433543545 cabd0e2d06 7005
owner: 67968452@N00
title: PhotonQ-John Bohannon Dance Your Ph.D
originalsecret: ccf271a5c9
originalformat: jpg
o_height: 684
o_width: 912
datetaken: 2011-12-01 01:10:20
dateupload: 1322698400
tags: brussels ted black john fun creativity dance movement europe belgium belgique label bruxelles danse your conference vs phd powerpoint bohannon palaisdesbeauxarts bozar 2011 photonquantique tedx danceyourphd johnbohannon
license: 3
latitude: 50.843982
longitude: 4.358519
accuracy: 16
views: 98
interestingness: 50 out of 246

photo: 6433689639 201c0febd5 7150
owner: 37945735@N00
title: The glow of the holidays
originalsecret: null
originalformat: null
o_height: null
o_width: null
datetaken: 2011-11-30 19:47:09
dateupload: 1322700429
tags: christmas door windows decorations urban canada reflection water night square lights december montr?al steps qu?bec squareformat lanterns normal atrium lampposts squarevictoria 2011 iphoneography instagramapp uploaded:by=instagram foursquare:venue=4b16ac5af964a520cfbb23e3
license: 0
latitude: 45.502189
longitude: -73.560647
accuracy: 16
views: 29
interestingness: 51 out of 246

photo: 6433658967 f4f96e5056 7152
owner: 23141780@N03
title: iPhone/upload
originalsecret: 33165f9674
originalformat: jpg
o_height: 767
o_width: 640
datetaken: 2011-11-30 16:39:52
dateupload: 1322699992
tags: 
license: 0
latitude: 34.053489
longitude: -118.245323
accuracy: 11
views: 277
interestingness: 52 out of 246

photo: 6435035171 6069d1a918 7148
owner: 59731448@N06
title: Thursday 1 December 2011: Loopy
originalsecret: 1fd8ba2b0d
originalformat: jpg
o_height: 1936
o_width: 1936
datetaken: 2011-12-01 12:41:24
dateupload: 1322721889
tags: cameraphone street camera summer apple hoop fun chinatown december clown sydney australia dixon plastic crop nsw newsouthwales hoolahoop streetperformer 365 busker phonecamera performer camerabag app hoola iphone whacky 2011 coventgardenhotel hollahoop iphone4
license: 0
latitude: -33.879314
longitude: 151.204168
accuracy: 15
views: 34
interestingness: 53 out of 246

photo: 6433806879 c58fc9042c 7150
owner: 23032103@N06
title: Southend Airport
originalsecret: null
originalformat: null
o_height: null
o_width: null
datetaken: 2008-02-10 11:54:21
dateupload: 1322702186
tags: aerial essex southend rochford southendairport 1607
license: 0
latitude: 51.569441
longitude: 0.688877
accuracy: 16
views: 32
interestingness: 54 out of 246

photo: 6434837923 5ba903bb74 7159
owner: 30830405@N07
title: Lighting a candle on St. Andrew's Day #TP21
originalsecret: 1829e89764
originalformat: jpg
o_height: 2378
o_width: 3165
datetaken: 2011-11-30 14:18:17
dateupload: 1322717909
tags: finland helsinki tradition myth km uspenskicathedral tp21
license: 3
latitude: 60.168468
longitude: 24.959843
accuracy: 16
views: 45
interestingness: 55 out of 246

photo: 6434555583 263b381bea 7150
owner: 42450712@N06
title: We Came As Romans (2)
originalsecret: null
originalformat: null
o_height: null
o_width: null
datetaken: 2011-11-17 19:55:16
dateupload: 1322713202
tags: canon orlando concert florida livemusic 7d citywalk hardrocklive hrl wecameasromans wwwtheconcertshootercom
license: 0
latitude: 28.473755
longitude: -81.467689
accuracy: 16
views: 17
interestingness: 56 out of 246

photo: 6434307565 5454b10b25 7002
owner: 23396421@N05
title: 326/365: Dark and Dreary
originalsecret: e37fec442e
originalformat: jpg
o_height: 1765
o_width: 2353
datetaken: 2011-11-22 07:16:06
dateupload: 1322709573
tags: 365 project365 iphone4s
license: 0
latitude: 41.591166
longitude: -93.626833
accuracy: 16
views: 37
interestingness: 57 out of 246

photo: 6433432717 a1976c2467 7003
owner: 50782689@N07
title: 140/365; what a mess you've made.
originalsecret: null
originalformat: null
o_height: null
o_width: null
datetaken: 2011-11-29 16:20:29
dateupload: 1322697660
tags: wild portrait girl female self mouth hair model mess paint mud body painted lips piercing bodypaint messy blonde
license: 0
latitude: 55.858743
longitude: -4.242954
accuracy: 11
views: 174
interestingness: 58 out of 246

photo: 6433907177 0b2a1743a3 7031
owner: 40900444@N05
title: missey no.1
originalsecret: dc88a3b591
originalformat: jpg
o_height: 885
o_width: 1328
datetaken: 2011-11-29 17:41:33
dateupload: 1322703659
tags: bw woman girl model women graywolfx47
license: 5
latitude: 34.482115
longitude: -82.642056
accuracy: 14
views: 42
interestingness: 59 out of 246

photo: 6433507823 fd4f18385c 7011
owner: 31116881@N02
title: HUNTERS POINT
originalsecret: null
originalformat: null
o_height: null
o_width: null
datetaken: 2011-11-30 12:33:26
dateupload: 1322697637
tags: digital photography image picture postnobills futura futura2000 marktwo futuradosmil fvtvra canoneoscincodelta markdos fvtvramm
license: 0
latitude: 40.749272
longitude: -73.941249
accuracy: 13
views: 152
interestingness: 60 out of 246

photo: 6434797325 885f4d34f6 7157
owner: 8631563@N02
title: Poser
originalsecret: 362ee1ecbd
originalformat: jpg
o_height: 3138
o_width: 4173
datetaken: 2011-11-20 10:52:11
dateupload: 1322717114
tags: bird geotagged greenfinch blashford geo:lat=50869983 geo:lon=1785746
license: 0
latitude: 50.869983
longitude: -1.785746
accuracy: 16
views: 28
interestingness: 61 out of 246

photo: 6433632907 fc98559674 7168
owner: 7477245@N05
title: An?ncio Cigarros 116
originalsecret: de649d36d2
originalformat: jpg
o_height: 533
o_width: 407
datetaken: 2011-11-30 22:33:15
dateupload: 1322699595
tags: vintage ads advertising marketing moda modelos lingerie carros backgrounds autom?veis utilidades cigarros colorido an?ncios cal?ados propagandas vendas sele??es advertisings promo??es anunciantes modismo eletrodom?sticos reclames revistaplayboy anos1950 anos1980 anos1960 anos1940 fundosparatwitter anos1970 propagandasderevistas agenciasdepropagandas propagandasdassele??es propagandasdeguerra propagandasderevistasantigas propagandasantigasdeautom?veis propagandasantigasdecigarros
license: 4
latitude: -22.913653
longitude: -43.242874
accuracy: 11
views: 14
interestingness: 62 out of 246

photo: 6434693817 2cc3d0285d 7002
owner: 97085466@N00
title: 20111126_160159_Seattle_197.jpg
originalsecret: 59bdf8837e
originalformat: jpg
o_height: 2848
o_width: 4288
datetaken: 2011-11-26 16:01:59
dateupload: 1322715286
tags: seattle washington pikeplacemarket postalley
license: 3
latitude: 47.60873
longitude: -122.340284
accuracy: 16
views: 5
interestingness: 63 out of 246

photo: 6434308329 85d151b70a 7162
owner: 53055958@N00
title: reflection: Frost Bank Tower
originalsecret: null
originalformat: null
o_height: null
o_width: null
datetaken: 2011-11-22 21:34:36
dateupload: 1322709584
tags: city november blue trees urban abstract black southwest west reflection skyline architecture modern night skyscraper work buildings austin gold lights hotel office nikon texas purple angle post radisson south pole austintexas citylights dslr slowshutterspeed frostbanktower 2011 d80 nikond80 jensphotography onecongressavenue
license: 0
latitude: 30.263885
longitude: -97.744889
accuracy: 14
views: 16
interestingness: 64 out of 246

photo: 6433726309 358847f2c6 7035
owner: 50821237@N03
title: Darlington, Concho, Oklahoma Historical Marker
originalsecret: 42ce1b0718
originalformat: jpg
o_height: 4288
o_width: 3216
datetaken: 2011-11-05 05:39:56
dateupload: 1322700986
tags: oklahoma historic darlington elreno concho canadiancounty oklahomahistoricalmarker
license: 1
latitude: 35.591958
longitude: -97.958747
accuracy: 16
views: 13
interestingness: 65 out of 246

photo: 6427716375 645489f54e 7147
owner: 68928012@N00
title: Solothurn sunset
originalsecret: null
originalformat: null
o_height: null
o_width: null
datetaken: 2011-11-26 16:19:33
dateupload: 1322720705
tags: bridge autumn sunset sun mountains switzerland meetup walk hike hills ridge jura wandern solothurn aare intothesun wanderung
license: 0
latitude: 47.20623
longitude: 7.539366
accuracy: 16
views: 20
interestingness: 66 out of 246

photo: 6435204501 b8591f4073 7023
owner: 7676774@N06
title: American Dream
originalsecret: 556fff936a
originalformat: jpg
o_height: 2048
o_width: 3648
datetaken: 2011-11-30 19:20:02
dateupload: 1322725656
tags: old usa newspaper key wsj wallstreetjournal arthurmiller americandream deathofasalesman denverpost willyloman
license: 1
latitude: 39.743131
longitude: -104.886603
accuracy: 13
views: 11
interestingness: 67 out of 246

photo: 6435093667 3a95edbe11 7145
owner: 24161439@N00
title: Ringflash, stripped
originalsecret: null
originalformat: null
o_height: null
o_width: null
datetaken: 2011-11-29 16:41:27
dateupload: 1322723178
tags: 
license: 0
latitude: 14.646392
longitude: 121.055109
accuracy: 14
views: 19
interestingness: 68 out of 246

photo: 6433633369 3d6b5e60fb 7016
owner: 7477245@N05
title: An?ncio Cigarros 118
originalsecret: 4c21edf052
originalformat: jpg
o_height: 533
o_width: 407
datetaken: 2011-11-30 22:33:20
dateupload: 1322699600
tags: vintage ads advertising marketing moda modelos lingerie carros backgrounds autom?veis utilidades cigarros colorido an?ncios cal?ados propagandas vendas sele??es advertisings promo??es anunciantes modismo eletrodom?sticos reclames revistaplayboy anos1950 anos1980 anos1960 anos1940 fundosparatwitter anos1970 propagandasderevistas agenciasdepropagandas propagandasdassele??es propagandasdeguerra propagandasderevistasantigas propagandasantigasdeautom?veis propagandasantigasdecigarros
license: 4
latitude: -22.913653
longitude: -43.242874
accuracy: 11
views: 39
interestingness: 69 out of 246

photo: 6433632679 b7b066a97a 7144
owner: 7477245@N05
title: An?ncio Cigarros 115
originalsecret: d866410a26
originalformat: jpg
o_height: 533
o_width: 407
datetaken: 2011-11-30 22:33:12
dateupload: 1322699592
tags: vintage ads advertising marketing moda modelos lingerie carros backgrounds autom?veis utilidades cigarros colorido an?ncios cal?ados propagandas vendas sele??es advertisings promo??es anunciantes modismo eletrodom?sticos reclames revistaplayboy anos1950 anos1980 anos1960 anos1940 fundosparatwitter anos1970 propagandasderevistas agenciasdepropagandas propagandasdassele??es propagandasdeguerra propagandasderevistasantigas propagandasantigasdeautom?veis propagandasantigasdecigarros
license: 4
latitude: -22.913653
longitude: -43.242874
accuracy: 11
views: 13
interestingness: 70 out of 246

photo: 6435136351 a4ecc9efd5 7015
owner: 36187690@N04
title: ????????????
originalsecret: 8e81da9a9b
originalformat: jpg
o_height: 612
o_width: 612
datetaken: 2011-12-01 16:21:59
dateupload: 1322724119
tags: square squareformat rise iphoneography instagramapp uploaded:by=instagram uploaded:by=flicksquare foursquare:venue=4b7af3d1f964a520e3472fe3 geo:lat=356916788863037 geo:lon=139704664349556
license: 3
latitude: 35.691678
longitude: 139.704664
accuracy: 16
views: 4
interestingness: 71 out of 246

photo: 6435053333 605ec6dab2 7154
owner: 69041036@N06
title: Snow Topped Post box
originalsecret: 6b64cec31b
originalformat: jpg
o_height: 1500
o_width: 2100
datetaken: 2009-02-02 19:46:07
dateupload: 1322722304
tags: lewisham foxes brockley southeastlondon hillyfieldspark se14 brockleycemetery wickhamgardens snowinbrockley foxesinbrockley funfairinhillyfields
license: 0
latitude: 51.462871
longitude: -0.032851
accuracy: 14
views: 0
interestingness: 72 out of 246

photo: 6435012777 4512d22a18 7026
owner: 36187690@N04
title: ???
originalsecret: cdec808313
originalformat: jpg
o_height: 612
o_width: 612
datetaken: 2011-12-01 15:36:38
dateupload: 1322721398
tags: square squareformat rise iphoneography instagramapp uploaded:by=instagram uploaded:by=flicksquare foursquare:venue=4b565633f964a5200b0c28e3 geo:lat=357298963762132 geo:lon=139702534675598
license: 3
latitude: 35.729896
longitude: 139.702534
accuracy: 16
views: 2
interestingness: 73 out of 246

photo: 6434941417 93430a230f 7025
owner: 30079014@N03
title: John Forrest National Park, WA, Australia
originalsecret: 94dc06b517
originalformat: jpg
o_height: 1200
o_width: 800
datetaken: 2011-10-24 12:00:01
dateupload: 1322719926
tags: film nationalpark kodak minoltax700 australia boulders wa westernaustralia kodakgold100 grasstree johnforrestnationalpark xanthorrhoea balgagrass
license: 0
latitude: -31.886449
longitude: 116.093387
accuracy: 16
views: 6
interestingness: 74 out of 246

photo: 6434591453 2ac02a683a 7012
owner: 42450712@N06
title: Korn (16)
originalsecret: null
originalformat: null
o_height: null
o_width: null
datetaken: 2011-11-10 23:13:15
dateupload: 1322713722
tags: canon orlando concert florida livemusic 7d korn citywalk hardrocklive 2011 hrl wwwtheconcertshootercom
license: 0
latitude: 28.473755
longitude: -81.467689
accuracy: 16
views: 24
interestingness: 75 out of 246

photo: 6434591239 1796e3e925 7150
owner: 42450712@N06
title: Korn (15)
originalsecret: null
originalformat: null
o_height: null
o_width: null
datetaken: 2011-11-10 23:13:04
dateupload: 1322713719
tags: canon orlando concert florida livemusic 7d korn citywalk hardrocklive 2011 hrl wwwtheconcertshootercom
license: 0
latitude: 28.473755
longitude: -81.467689
accuracy: 16
views: 4
interestingness: 76 out of 246

photo: 6434591133 6074703b9f 7149
owner: 42450712@N06
title: Korn (14)
originalsecret: null
originalformat: null
o_height: null
o_width: null
datetaken: 2011-11-10 23:12:21
dateupload: 1322713717
tags: canon orlando concert florida livemusic 7d korn citywalk hardrocklive 2011 hrl wwwtheconcertshootercom
license: 0
latitude: 28.473755
longitude: -81.467689
accuracy: 16
views: 4
interestingness: 77 out of 246

photo: 6434590879 2fa2a70d59 7035
owner: 42450712@N06
title: Korn (13)
originalsecret: null
originalformat: null
o_height: null
o_width: null
datetaken: 2011-11-10 23:10:05
dateupload: 1322713714
tags: canon orlando concert florida livemusic 7d korn citywalk hardrocklive 2011 hrl wwwtheconcertshootercom
license: 0
latitude: 28.473755
longitude: -81.467689
accuracy: 16
views: 1
interestingness: 78 out of 246

photo: 6434590697 6acd596705 7034
owner: 42450712@N06
title: Korn (12)
originalsecret: null
originalformat: null
o_height: null
o_width: null
datetaken: 2011-11-10 23:09:41
dateupload: 1322713710
tags: canon orlando concert florida livemusic 7d korn citywalk hardrocklive 2011 hrl wwwtheconcertshootercom
license: 0
latitude: 28.473755
longitude: -81.467689
accuracy: 16
views: 17
interestingness: 79 out of 246

photo: 6434590477 9ef30c0508 7007
owner: 42450712@N06
title: Korn (11)
originalsecret: null
originalformat: null
o_height: null
o_width: null
datetaken: 2011-11-10 23:08:54
dateupload: 1322713707
tags: canon orlando concert florida livemusic 7d korn citywalk hardrocklive 2011 hrl wwwtheconcertshootercom
license: 0
latitude: 28.473755
longitude: -81.467689
accuracy: 16
views: 203
interestingness: 80 out of 246

photo: 6434590219 08da59173e 7019
owner: 42450712@N06
title: Korn (10)
originalsecret: null
originalformat: null
o_height: null
o_width: null
datetaken: 2011-11-10 23:08:38
dateupload: 1322713704
tags: canon orlando concert florida livemusic 7d korn citywalk hardrocklive 2011 hrl wwwtheconcertshootercom
license: 0
latitude: 28.473755
longitude: -81.467689
accuracy: 16
views: 6
interestingness: 81 out of 246

photo: 6434589981 afe73d0277 7033
owner: 42450712@N06
title: Korn (9)
originalsecret: null
originalformat: null
o_height: null
o_width: null
datetaken: 2011-11-10 23:06:43
dateupload: 1322713701
tags: canon orlando concert florida livemusic 7d korn citywalk hardrocklive 2011 hrl wwwtheconcertshootercom
license: 0
latitude: 28.473755
longitude: -81.467689
accuracy: 16
views: 2
interestingness: 82 out of 246

photo: 6434589795 6c6e2902af 7172
owner: 42450712@N06
title: Korn (8)
originalsecret: null
originalformat: null
o_height: null
o_width: null
datetaken: 2011-11-10 23:06:32
dateupload: 1322713698
tags: canon orlando concert florida livemusic 7d korn citywalk hardrocklive 2011 hrl wwwtheconcertshootercom
license: 0
latitude: 28.473755
longitude: -81.467689
accuracy: 16
views: 3
interestingness: 83 out of 246

photo: 6434589539 3d5901ce08 7015
owner: 42450712@N06
title: Korn (7)
originalsecret: null
originalformat: null
o_height: null
o_width: null
datetaken: 2011-11-10 23:06:25
dateupload: 1322713695
tags: canon orlando concert florida livemusic 7d korn citywalk hardrocklive 2011 hrl wwwtheconcertshootercom
license: 0
latitude: 28.473755
longitude: -81.467689
accuracy: 16
views: 2
interestingness: 84 out of 246

photo: 6434589377 7543c2a91b 7022
owner: 42450712@N06
title: Korn (6)
originalsecret: null
originalformat: null
o_height: null
o_width: null
datetaken: 2011-11-10 23:05:38
dateupload: 1322713692
tags: canon orlando concert florida livemusic 7d korn citywalk hardrocklive 2011 hrl wwwtheconcertshootercom
license: 0
latitude: 28.473755
longitude: -81.467689
accuracy: 16
views: 3
interestingness: 85 out of 246

photo: 6434589165 66fc23a8c9 7009
owner: 42450712@N06
title: Korn (5)
originalsecret: null
originalformat: null
o_height: null
o_width: null
datetaken: 2011-11-10 23:05:26
dateupload: 1322713689
tags: canon orlando concert florida livemusic 7d korn citywalk hardrocklive 2011 hrl wwwtheconcertshootercom
license: 0
latitude: 28.473755
longitude: -81.467689
accuracy: 16
views: 18
interestingness: 86 out of 246

photo: 6434589037 16274f1c45 7174
owner: 42450712@N06
title: Korn (4)
originalsecret: null
originalformat: null
o_height: null
o_width: null
datetaken: 2011-11-10 23:04:57
dateupload: 1322713687
tags: canon orlando concert florida livemusic 7d korn citywalk hardrocklive 2011 hrl wwwtheconcertshootercom
license: 0
latitude: 28.473755
longitude: -81.467689
accuracy: 16
views: 2
interestingness: 87 out of 246

photo: 6434588839 594344f363 7160
owner: 42450712@N06
title: Korn (3)
originalsecret: null
originalformat: null
o_height: null
o_width: null
datetaken: 2011-11-10 23:04:53
dateupload: 1322713684
tags: canon orlando concert florida livemusic 7d korn citywalk hardrocklive 2011 hrl wwwtheconcertshootercom
license: 0
latitude: 28.473755
longitude: -81.467689
accuracy: 16
views: 3
interestingness: 88 out of 246

photo: 6434588685 d6024423d3 7175
owner: 42450712@N06
title: Korn (2)
originalsecret: null
originalformat: null
o_height: null
o_width: null
datetaken: 2011-11-10 23:04:33
dateupload: 1322713682
tags: canon orlando concert florida livemusic 7d korn citywalk hardrocklive 2011 hrl wwwtheconcertshootercom
license: 0
latitude: 28.473755
longitude: -81.467689
accuracy: 16
views: 16
interestingness: 89 out of 246

photo: 6434588303 ec9e2b7e9b 7150
owner: 42450712@N06
title: Korn (1)
originalsecret: null
originalformat: null
o_height: null
o_width: null
datetaken: 2011-11-10 23:04:23
dateupload: 1322713676
tags: canon orlando concert florida livemusic 7d korn citywalk hardrocklive 2011 hrl wwwtheconcertshootercom
license: 0
latitude: 28.473755
longitude: -81.467689
accuracy: 16
views: 17
interestingness: 90 out of 246

photo: 6434573315 ba3e49c112 7158
owner: 42450712@N06
title: Five Finger Death Punch (6)
originalsecret: null
originalformat: null
o_height: null
o_width: null
datetaken: 2011-11-19 23:52:49
dateupload: 1322713449
tags: canon orlando concert florida livemusic 7d citywalk hardrocklive ffdp hrl fivefingerdeathpunch wwwtheconcertshootercom
license: 0
latitude: 28.473755
longitude: -81.467689
accuracy: 16
views: 18
interestingness: 91 out of 246

photo: 6434573099 f43fd671d5 7168
owner: 42450712@N06
title: Five Finger Death Punch (5)
originalsecret: null
originalformat: null
o_height: null
o_width: null
datetaken: 2011-11-19 23:51:35
dateupload: 1322713445
tags: canon orlando concert florida livemusic 7d citywalk hardrocklive ffdp hrl fivefingerdeathpunch wwwtheconcertshootercom
license: 0
latitude: 28.473755
longitude: -81.467689
accuracy: 16
views: 15
interestingness: 92 out of 246

photo: 6434572857 6b93abfef9 7007
owner: 42450712@N06
title: Five Finger Death Punch (4)
originalsecret: null
originalformat: null
o_height: null
o_width: null
datetaken: 2011-11-19 23:50:38
dateupload: 1322713442
tags: canon orlando concert florida livemusic 7d citywalk hardrocklive ffdp hrl fivefingerdeathpunch wwwtheconcertshootercom
license: 0
latitude: 28.473755
longitude: -81.467689
accuracy: 16
views: 13
interestingness: 93 out of 246

photo: 6434572611 975beb7413 7035
owner: 42450712@N06
title: Five Finger Death Punch (3)
originalsecret: null
originalformat: null
o_height: null
o_width: null
datetaken: 2011-11-19 23:48:30
dateupload: 1322713438
tags: canon orlando concert florida livemusic 7d citywalk hardrocklive ffdp hrl fivefingerdeathpunch wwwtheconcertshootercom
license: 0
latitude: 28.473755
longitude: -81.467689
accuracy: 16
views: 16
interestingness: 94 out of 246

photo: 6434572117 44b8a64fb0 7144
owner: 42450712@N06
title: Five Finger Death Punch (1)
originalsecret: null
originalformat: null
o_height: null
o_width: null
datetaken: 2011-11-19 23:48:14
dateupload: 1322713431
tags: canon orlando concert florida livemusic 7d citywalk hardrocklive ffdp hrl fivefingerdeathpunch wwwtheconcertshootercom
license: 0
latitude: 28.473755
longitude: -81.467689
accuracy: 16
views: 14
interestingness: 95 out of 246

photo: 6434571915 0709aeaa38 7156
owner: 42450712@N06
title: Five Finger Death Punch (15)
originalsecret: null
originalformat: null
o_height: null
o_width: null
datetaken: 2011-11-19 23:47:58
dateupload: 1322713427
tags: canon orlando concert florida livemusic 7d citywalk hardrocklive ffdp hrl fivefingerdeathpunch wwwtheconcertshootercom
license: 0
latitude: 28.473755
longitude: -81.467689
accuracy: 16
views: 14
interestingness: 96 out of 246

photo: 6434571699 f21cbafc9b 7012
owner: 42450712@N06
title: Five Finger Death Punch (14)
originalsecret: null
originalformat: null
o_height: null
o_width: null
datetaken: 2011-11-19 23:46:52
dateupload: 1322713424
tags: canon orlando concert florida livemusic 7d citywalk hardrocklive ffdp hrl fivefingerdeathpunch wwwtheconcertshootercom
license: 0
latitude: 28.473755
longitude: -81.467689
accuracy: 16
views: 12
interestingness: 97 out of 246

photo: 6434571477 65c32a3fd8 7027
owner: 42450712@N06
title: Five Finger Death Punch (13)
originalsecret: null
originalformat: null
o_height: null
o_width: null
datetaken: 2011-11-19 23:46:48
dateupload: 1322713421
tags: canon orlando concert florida livemusic 7d citywalk hardrocklive ffdp hrl fivefingerdeathpunch wwwtheconcertshootercom
license: 0
latitude: 28.473755
longitude: -81.467689
accuracy: 16
views: 0
interestingness: 98 out of 246

photo: 6434571213 494f8b41d5 7013
owner: 42450712@N06
title: Five Finger Death Punch (12)
originalsecret: null
originalformat: null
o_height: null
o_width: null
datetaken: 2011-11-19 23:46:29
dateupload: 1322713418
tags: canon orlando concert florida livemusic 7d citywalk hardrocklive ffdp hrl fivefingerdeathpunch wwwtheconcertshootercom
license: 0
latitude: 28.473755
longitude: -81.467689
accuracy: 16
views: 15
interestingness: 99 out of 246

photo: 6434570911 7301f4305b 7029
owner: 42450712@N06
title: Five Finger Death Punch (11)
originalsecret: null
originalformat: null
o_height: null
o_width: null
datetaken: 2011-11-19 23:46:16
dateupload: 1322713414
tags: canon orlando concert florida livemusic 7d citywalk hardrocklive ffdp hrl fivefingerdeathpunch wwwtheconcertshootercom
license: 0
latitude: 28.473755
longitude: -81.467689
accuracy: 16
views: 12
interestingness: 100 out of 246

photo: 6434570695 33b6481bee 7156
owner: 42450712@N06
title: Five Finger Death Punch (10)
originalsecret: null
originalformat: null
o_height: null
o_width: null
datetaken: 2011-11-19 23:46:12
dateupload: 1322713411
tags: canon orlando concert florida livemusic 7d citywalk hardrocklive ffdp hrl fivefingerdeathpunch wwwtheconcertshootercom
license: 0
latitude: 28.473755
longitude: -81.467689
accuracy: 16
views: 17
interestingness: 101 out of 246

photo: 6434570479 ffb5bbbca5 7004
owner: 42450712@N06
title: Five Finger Death Punch (9)
originalsecret: null
originalformat: null
o_height: null
o_width: null
datetaken: 2011-11-19 23:46:06
dateupload: 1322713407
tags: canon orlando concert florida livemusic 7d citywalk hardrocklive ffdp hrl fivefingerdeathpunch wwwtheconcertshootercom
license: 0
latitude: 28.473755
longitude: -81.467689
accuracy: 16
views: 14
interestingness: 102 out of 246

photo: 6434570259 3664dfa2a5 7020
owner: 42450712@N06
title: Five Finger Death Punch (8)
originalsecret: null
originalformat: null
o_height: null
o_width: null
datetaken: 2011-11-19 23:45:31
dateupload: 1322713404
tags: canon orlando concert florida livemusic 7d citywalk hardrocklive ffdp hrl fivefingerdeathpunch wwwtheconcertshootercom
license: 0
latitude: 28.473755
longitude: -81.467689
accuracy: 16
views: 15
interestingness: 103 out of 246

photo: 6434569859 0e7c6b1e15 7171
owner: 42450712@N06
title: Five Finger Death Punch (7)
originalsecret: null
originalformat: null
o_height: null
o_width: null
datetaken: 2011-11-19 23:45:07
dateupload: 1322713401
tags: canon orlando concert florida livemusic 7d citywalk hardrocklive ffdp hrl fivefingerdeathpunch wwwtheconcertshootercom
license: 0
latitude: 28.473755
longitude: -81.467689
accuracy: 16
views: 15
interestingness: 104 out of 246

photo: 6434555353 031047dbaa 7005
owner: 42450712@N06
title: We Came As Romans (1)
originalsecret: null
originalformat: null
o_height: null
o_width: null
datetaken: 2011-11-17 19:54:41
dateupload: 1322713199
tags: canon orlando concert florida livemusic 7d citywalk hardrocklive hrl wecameasromans wwwtheconcertshootercom
license: 0
latitude: 28.473755
longitude: -81.467689
accuracy: 16
views: 24
interestingness: 105 out of 246

photo: 6434555115 afcf5c6cb5 7170
owner: 42450712@N06
title: We Came As Romans (4)
originalsecret: null
originalformat: null
o_height: null
o_width: null
datetaken: 2011-11-17 19:53:38
dateupload: 1322713196
tags: canon orlando concert florida livemusic 7d citywalk hardrocklive hrl wecameasromans wwwtheconcertshootercom
license: 0
latitude: 28.473755
longitude: -81.467689
accuracy: 16
views: 3
interestingness: 106 out of 246

photo: 6434554801 c40db5cdcc 7027
owner: 42450712@N06
title: We Came As Romans (3)
originalsecret: null
originalformat: null
o_height: null
o_width: null
datetaken: 2011-11-17 19:52:54
dateupload: 1322713191
tags: canon orlando concert florida livemusic 7d citywalk hardrocklive hrl wecameasromans wwwtheconcertshootercom
license: 0
latitude: 28.473755
longitude: -81.467689
accuracy: 16
views: 3
interestingness: 107 out of 246

photo: 6434545981 2dcee61fe8 7158
owner: 42450712@N06
title: D.R.U.G.S (1)
originalsecret: null
originalformat: null
o_height: null
o_width: null
datetaken: 2011-11-17 19:10:26
dateupload: 1322713062
tags: canon orlando concert florida livemusic drugs 7d citywalk hardrocklive hrl wwwtheconcertshootercom
license: 0
latitude: 28.473755
longitude: -81.467689
accuracy: 16
views: 1
interestingness: 108 out of 246

photo: 6434545707 45dd1cfed0 7153
owner: 42450712@N06
title: D.R.U.G.S (6)
originalsecret: null
originalformat: null
o_height: null
o_width: null
datetaken: 2011-11-17 19:08:52
dateupload: 1322713058
tags: canon orlando concert florida livemusic drugs 7d citywalk hardrocklive hrl wwwtheconcertshootercom
license: 0
latitude: 28.473755
longitude: -81.467689
accuracy: 16
views: 1
interestingness: 109 out of 246

photo: 6434545625 e19d36977d 7030
owner: 42505156@N00
title: At Papermoon Diner
originalsecret: bab564d4c6
originalformat: jpg
o_height: 720
o_width: 431
datetaken: 2011-11-30 23:17:37
dateupload: 1322713057
tags: uploaded:by=flicksquare foursquare:venue=4ad4c018f964a520acf020e3 geo:lat=393224101 geo:lon=766213365
license: 3
latitude: 39.32241
longitude: -76.621336
accuracy: 16
views: 5
interestingness: 110 out of 246

photo: 6434545469 7bf4359ca2 7144
owner: 42450712@N06
title: D.R.U.G.S (5)
originalsecret: null
originalformat: null
o_height: null
o_width: null
datetaken: 2011-11-17 19:06:43
dateupload: 1322713055
tags: canon orlando concert florida livemusic drugs 7d citywalk hardrocklive hrl wwwtheconcertshootercom
license: 0
latitude: 28.473755
longitude: -81.467689
accuracy: 16
views: 8
interestingness: 111 out of 246

photo: 6434545207 bd93f2dd30 7004
owner: 42450712@N06
title: D.R.U.G.S (4)
originalsecret: null
originalformat: null
o_height: null
o_width: null
datetaken: 2011-11-17 19:06:27
dateupload: 1322713051
tags: canon orlando concert florida livemusic drugs 7d citywalk hardrocklive hrl wwwtheconcertshootercom
license: 0
latitude: 28.473755
longitude: -81.467689
accuracy: 16
views: 7
interestingness: 112 out of 246

photo: 6434544959 fa2fa5f03c 7008
owner: 42450712@N06
title: D.R.U.G.S (3)
originalsecret: null
originalformat: null
o_height: null
o_width: null
datetaken: 2011-11-17 19:06:09
dateupload: 1322713047
tags: canon orlando concert florida livemusic drugs 7d citywalk hardrocklive hrl wwwtheconcertshootercom
license: 0
latitude: 28.473755
longitude: -81.467689
accuracy: 16
views: 1
interestingness: 113 out of 246

photo: 6434544711 80276c70ee 7151
owner: 42450712@N06
title: D.R.U.G.S (2)
originalsecret: null
originalformat: null
o_height: null
o_width: null
datetaken: 2011-11-17 19:05:40
dateupload: 1322713044
tags: canon orlando concert florida livemusic drugs 7d citywalk hardrocklive hrl wwwtheconcertshootercom
license: 0
latitude: 28.473755
longitude: -81.467689
accuracy: 16
views: 0
interestingness: 114 out of 246

photo: 6434536411 197bc03d08 7029
owner: 42450712@N06
title: Rev Theory (3)
originalsecret: null
originalformat: null
o_height: null
o_width: null
datetaken: 2011-11-19 20:35:43
dateupload: 1322712922
tags: canon orlando concert florida livemusic 7d citywalk hatebreed hardrocklive hrl wwwtheconcertshootercom
license: 0
latitude: 28.473755
longitude: -81.467689
accuracy: 16
views: 0
interestingness: 115 out of 246

photo: 6434536161 6cbdc787d9 7007
owner: 42450712@N06
title: Rev Theory (2)
originalsecret: null
originalformat: null
o_height: null
o_width: null
datetaken: 2011-11-19 20:34:30
dateupload: 1322712918
tags: canon orlando concert florida livemusic 7d citywalk hatebreed hardrocklive hrl wwwtheconcertshootercom
license: 0
latitude: 28.473755
longitude: -81.467689
accuracy: 16
views: 5
interestingness: 116 out of 246

photo: 6434535883 d7fe08918e 7144
owner: 42450712@N06
title: Rev Theory (1)
originalsecret: null
originalformat: null
o_height: null
o_width: null
datetaken: 2011-11-19 20:34:22
dateupload: 1322712914
tags: canon orlando concert florida livemusic 7d citywalk hatebreed hardrocklive hrl wwwtheconcertshootercom
license: 0
latitude: 28.473755
longitude: -81.467689
accuracy: 16
views: 0
interestingness: 117 out of 246

photo: 6434535595 4d5dca1043 7023
owner: 42450712@N06
title: Rev Theory (7)
originalsecret: null
originalformat: null
o_height: null
o_width: null
datetaken: 2011-11-19 20:34:14
dateupload: 1322712909
tags: canon orlando concert florida livemusic 7d citywalk hatebreed hardrocklive hrl wwwtheconcertshootercom
license: 0
latitude: 28.473755
longitude: -81.467689
accuracy: 16
views: 5
interestingness: 118 out of 246

photo: 6434535451 b672475ba1 7034
owner: 83929648@N00
title: i365 menu
originalsecret: null
originalformat: null
o_height: null
o_width: null
datetaken: 2011-11-30 17:23:15
dateupload: 1322712908
tags: menu i365
license: 0
latitude: 47.652833
longitude: -122.313667
accuracy: 16
views: 8
interestingness: 119 out of 246

photo: 6434535405 b4efb300e1 7025
owner: 42450712@N06
title: Rev Theory (6)
originalsecret: null
originalformat: null
o_height: null
o_width: null
datetaken: 2011-11-19 20:33:57
dateupload: 1322712906
tags: canon orlando concert florida livemusic 7d citywalk hatebreed hardrocklive hrl wwwtheconcertshootercom
license: 0
latitude: 28.473755
longitude: -81.467689
accuracy: 16
views: 0
interestingness: 120 out of 246

photo: 6434535185 66a97f225f 7142
owner: 42450712@N06
title: Rev Theory (5)
originalsecret: null
originalformat: null
o_height: null
o_width: null
datetaken: 2011-11-19 20:33:38
dateupload: 1322712903
tags: canon orlando concert florida livemusic 7d citywalk hatebreed hardrocklive hrl wwwtheconcertshootercom
license: 0
latitude: 28.473755
longitude: -81.467689
accuracy: 16
views: 5
interestingness: 121 out of 246

photo: 6434534943 dd07d5f899 7017
owner: 42450712@N06
title: Rev Theory (4)
originalsecret: null
originalformat: null
o_height: null
o_width: null
datetaken: 2011-11-19 20:32:46
dateupload: 1322712899
tags: canon orlando concert florida livemusic 7d citywalk hatebreed hardrocklive hrl wwwtheconcertshootercom
license: 0
latitude: 28.473755
longitude: -81.467689
accuracy: 16
views: 0
interestingness: 122 out of 246

photo: 6434521011 ac81ab2d32 7169
owner: 42450712@N06
title: All That Remains (3)
originalsecret: null
originalformat: null
o_height: null
o_width: null
datetaken: 2011-11-19 22:25:04
dateupload: 1322712678
tags: canon orlando concert florida livemusic 7d citywalk hardrocklive hrl allthatremains wwwtheconcertshootercom
license: 0
latitude: 28.473755
longitude: -81.467689
accuracy: 16
views: 8
interestingness: 123 out of 246

photo: 6434520791 07e842ba1f 7024
owner: 42450712@N06
title: All That Remains (2)
originalsecret: null
originalformat: null
o_height: null
o_width: null
datetaken: 2011-11-19 22:23:02
dateupload: 1322712675
tags: canon orlando concert florida livemusic 7d citywalk hardrocklive hrl allthatremains wwwtheconcertshootercom
license: 0
latitude: 28.473755
longitude: -81.467689
accuracy: 16
views: 7
interestingness: 124 out of 246

photo: 6434520629 2e9753b342 7016
owner: 42450712@N06
title: All That Remains (1)
originalsecret: null
originalformat: null
o_height: null
o_width: null
datetaken: 2011-11-19 22:22:53
dateupload: 1322712673
tags: canon orlando concert florida livemusic 7d citywalk hardrocklive hrl allthatremains wwwtheconcertshootercom
license: 0
latitude: 28.473755
longitude: -81.467689
accuracy: 16
views: 3
interestingness: 125 out of 246

photo: 6434520437 3b9390dfcc 7035
owner: 42450712@N06
title: All That Remains (8)
originalsecret: null
originalformat: null
o_height: null
o_width: null
datetaken: 2011-11-19 22:20:55
dateupload: 1322712670
tags: canon orlando concert florida livemusic 7d citywalk hardrocklive hrl allthatremains wwwtheconcertshootercom
license: 0
latitude: 28.473755
longitude: -81.467689
accuracy: 16
views: 0
interestingness: 126 out of 246

photo: 6434520219 bd2bef4ac7 7163
owner: 42450712@N06
title: All That Remains (7)
originalsecret: null
originalformat: null
o_height: null
o_width: null
datetaken: 2011-11-19 22:18:41
dateupload: 1322712666
tags: canon orlando concert florida livemusic 7d citywalk hardrocklive hrl allthatremains wwwtheconcertshootercom
license: 0
latitude: 28.473755
longitude: -81.467689
accuracy: 16
views: 8
interestingness: 127 out of 246

photo: 6434520051 08ba158e61 7152
owner: 42450712@N06
title: All That Remains (6)
originalsecret: null
originalformat: null
o_height: null
o_width: null
datetaken: 2011-11-19 22:17:34
dateupload: 1322712664
tags: canon orlando concert florida livemusic 7d citywalk hardrocklive hrl allthatremains wwwtheconcertshootercom
license: 0
latitude: 28.473755
longitude: -81.467689
accuracy: 16
views: 10
interestingness: 128 out of 246

photo: 6434519793 daa605ece3 7144
owner: 42450712@N06
title: All That Remains (5)
originalsecret: null
originalformat: null
o_height: null
o_width: null
datetaken: 2011-11-19 22:17:09
dateupload: 1322712660
tags: canon orlando concert florida livemusic 7d citywalk hardrocklive hrl allthatremains wwwtheconcertshootercom
license: 0
latitude: 28.473755
longitude: -81.467689
accuracy: 16
views: 3
interestingness: 129 out of 246

photo: 6434519611 308a5928d6 7165
owner: 42450712@N06
title: All That Remains (4)
originalsecret: null
originalformat: null
o_height: null
o_width: null
datetaken: 2011-11-19 22:16:36
dateupload: 1322712657
tags: canon orlando concert florida livemusic 7d citywalk hardrocklive hrl allthatremains wwwtheconcertshootercom
license: 0
latitude: 28.473755
longitude: -81.467689
accuracy: 16
views: 6
interestingness: 130 out of 246

photo: 6434310773 d81c0373a7 7023
owner: 10965794@N00
title: Devil Dinosaur vs. Godzilla
originalsecret: null
originalformat: null
o_height: null
o_width: null
datetaken: 2011-11-29 22:52:19
dateupload: 1322709621
tags: show november boy moon comics print poster sketch nc comic dinosaur drawing north books godzilla autograph artists writers convention comicbook carolina devil writer marvel signed autographed morrisville inscribed moonboy srtist
license: 0
latitude: 35.859256
longitude: -78.819313
accuracy: 16
views: 13
interestingness: 131 out of 246

photo: 6434309721 d6f3e4222a 7017
owner: 10965794@N00
title: Zombie Professor Zoom
originalsecret: null
originalformat: null
o_height: null
o_width: null
datetaken: 2011-11-29 22:52:00
dateupload: 1322709605
tags: show november black comics print poster sketch dc nc comic zoom drawing zombie flash north books autograph artists writers convention comicbook carolina writer professor signed autographed morrisville inscribed zombified srtist
license: 0
latitude: 35.859256
longitude: -78.819313
accuracy: 16
views: 11
interestingness: 132 out of 246

photo: 6434308999 2cc420a9a7 7005
owner: 10965794@N00
title: Zombie Professor Zoom aka Black Flash
originalsecret: null
originalformat: null
o_height: null
o_width: null
datetaken: 2011-11-29 22:48:59
dateupload: 1322709594
tags: show november black comics print poster sketch dc nc comic zoom drawing zombie flash north books autograph artists writers convention comicbook carolina writer professor signed autographed morrisville inscribed zombified srtist
license: 0
latitude: 35.859256
longitude: -78.819313
accuracy: 16
views: 19
interestingness: 133 out of 246

photo: 6434051475 0a9126d558 7005
owner: 82779205@N00
title: Tree lighting ceremony
originalsecret: ca4e609ce8
originalformat: jpg
o_height: 1936
o_width: 2592
datetaken: 2011-11-30 21:14:20
dateupload: 1322705771
tags: moblog apartment onthego
license: 3
latitude: 40.6725
longitude: -73.972001
accuracy: 16
views: 31
interestingness: 134 out of 246

photo: 6433935951 d96230fc38 7169
owner: 40900444@N05
title: missey_no.2
originalsecret: 44f71d4d38
originalformat: jpg
o_height: 804
o_width: 764
datetaken: 2011-11-29 17:41:23
dateupload: 1322704119
tags: portrait bw woman girl model graywolfx47
license: 5
latitude: 34.482027
longitude: -82.641928
accuracy: 14
views: 51
interestingness: 135 out of 246

photo: 6433918671 c60a74983f 7170
owner: 33281223@N08
title: McMeow
originalsecret: 8c66b035c2
originalformat: jpg
o_height: 2165
o_width: 2832
datetaken: 2011-11-23 10:57:01
dateupload: 1322703846
tags: portrait macro eye animal cat fur nose nikon flash micro whisker nikkor speedlight f28 105mm strobist su800 nikkor105mmf28macro sb900 d3s
license: 0
latitude: 23.181433
longitude: 113.313669
accuracy: 16
views: 10
interestingness: 136 out of 246

photo: 6433653269 bcd321fa7c 7002
owner: 12149399@N02
title: High school football: Jaylon Smith evades tackler
originalsecret: 96c662a4f3
originalformat: jpg
o_height: 787
o_width: 1138
datetaken: 2011-10-14 19:36:39
dateupload: 1322699903
tags: school game field sketch back football high sac indiana running smith title bishop tackle fortwayne luers jaylon evade zollner akvis dwenger
license: 0
latitude: 41.110771
longitude: -85.114656
accuracy: 15
views: 17
interestingness: 137 out of 246

photo: 6433633125 1a40a6742a 7156
owner: 7477245@N05
title: An?ncio Cigarros 117
originalsecret: 9b2aea9ef1
originalformat: jpg
o_height: 533
o_width: 407
datetaken: 2011-11-30 22:33:17
dateupload: 1322699597
tags: vintage ads advertising marketing moda modelos lingerie carros backgrounds autom?veis utilidades cigarros colorido an?ncios cal?ados propagandas vendas sele??es advertisings promo??es anunciantes modismo eletrodom?sticos reclames revistaplayboy anos1950 anos1980 anos1960 anos1940 fundosparatwitter anos1970 propagandasderevistas agenciasdepropagandas propagandasdassele??es propagandasdeguerra propagandasderevistasantigas propagandasantigasdeautom?veis propagandasantigasdecigarros
license: 4
latitude: -22.913653
longitude: -43.242874
accuracy: 11
views: 50
interestingness: 138 out of 246

photo: 6434508481 b5eb216c6e 7017
owner: 65073328@N00
title: 2011-11-21 Dray Family 013 - shaded
originalsecret: 9803e782ee
originalformat: jpg
o_height: 1600
o_width: 1074
datetaken: 2011-11-21 16:14:33
dateupload: 1322712500
tags: hat familyportraits taylor rachelle dreamcoat dreamcoatphotography draperfamily
license: 0
latitude: -27.273913
longitude: 152.979319
accuracy: 16
views: 20
interestingness: 139 out of 246

photo: 6435080819 2ffb050165 7142
owner: 8432336@N08
title: Cadillac Mountain
originalsecret: 1b176a678c
originalformat: jpg
o_height: 1200
o_width: 1600
datetaken: 2010-08-13 13:54:22
dateupload: 1322722900
tags: maine summervacation 2010 cadillacmountain acadianationalpark mountdesertisle cadillacmountaintrail
license: 0
latitude: 44.35484
longitude: -68.219711
accuracy: 16
views: 5
interestingness: 140 out of 246

photo: 6433655561 4802159225 7019
owner: 77725780@N00
title: Full house!  #awesome
originalsecret: 766c92b000
originalformat: jpg
o_height: 720
o_width: 540
datetaken: 2011-11-30 19:38:58
dateupload: 1322699938
tags: uploaded:by=flicksquare foursquare:venue=4d232f2f9822a090189effaf geo:lon=739834785461426 geo:lat=407436154627516
license: 4
latitude: 40.743615
longitude: -73.983478
accuracy: 16
views: 108
interestingness: 141 out of 246

photo: 6434841957 422f25130b 7143
owner: 50285467@N04
title: Tom Morello
originalsecret: null
originalformat: null
o_height: null
o_width: null
datetaken: 2011-11-29 20:38:02
dateupload: 1322717991
tags: rageagainstthemachine tommorello ows owsla occupywallstreet occupylosangeles
license: 0
latitude: 34.053852
longitude: -118.243598
accuracy: 16
views: 10
interestingness: 142 out of 246

photo: 6433632463 912a9b6717 7143
owner: 7477245@N05
title: An?ncio Cigarros 114
originalsecret: 586789f002
originalformat: jpg
o_height: 533
o_width: 407
datetaken: 2011-11-30 22:33:09
dateupload: 1322699589
tags: vintage ads advertising marketing moda modelos lingerie carros backgrounds autom?veis utilidades cigarros colorido an?ncios cal?ados propagandas vendas sele??es advertisings promo??es anunciantes modismo eletrodom?sticos reclames revistaplayboy anos1950 anos1980 anos1960 anos1940 fundosparatwitter anos1970 propagandasderevistas agenciasdepropagandas propagandasdassele??es propagandasdeguerra propagandasderevistasantigas propagandasantigasdeautom?veis propagandasantigasdecigarros
license: 4
latitude: -22.913653
longitude: -43.242874
accuracy: 11
views: 28
interestingness: 143 out of 246

photo: 6433632251 00a80d9a5b 7016
owner: 7477245@N05
title: An?ncio Cigarros 113
originalsecret: 2ab766441c
originalformat: jpg
o_height: 533
o_width: 407
datetaken: 2011-11-30 22:33:06
dateupload: 1322699586
tags: vintage ads advertising marketing moda modelos lingerie carros backgrounds autom?veis utilidades cigarros colorido an?ncios cal?ados propagandas vendas sele??es advertisings promo??es anunciantes modismo eletrodom?sticos reclames revistaplayboy anos1950 anos1980 anos1960 anos1940 fundosparatwitter anos1970 propagandasderevistas agenciasdepropagandas propagandasdassele??es propagandasdeguerra propagandasderevistasantigas propagandasantigasdeautom?veis propagandasantigasdecigarros
license: 4
latitude: -22.913653
longitude: -43.242874
accuracy: 11
views: 36
interestingness: 144 out of 246

photo: 6433632061 0a15474eee 7160
owner: 7477245@N05
title: An?ncio Cigarros 112
originalsecret: c9e98d0575
originalformat: jpg
o_height: 533
o_width: 407
datetaken: 2011-11-30 22:33:03
dateupload: 1322699583
tags: vintage ads advertising marketing moda modelos lingerie carros backgrounds autom?veis utilidades cigarros colorido an?ncios cal?ados propagandas vendas sele??es advertisings promo??es anunciantes modismo eletrodom?sticos reclames revistaplayboy anos1950 anos1980 anos1960 anos1940 fundosparatwitter anos1970 propagandasderevistas agenciasdepropagandas propagandasdassele??es propagandasdeguerra propagandasderevistasantigas propagandasantigasdeautom?veis propagandasantigasdecigarros
license: 4
latitude: -22.913653
longitude: -43.242874
accuracy: 11
views: 48
interestingness: 145 out of 246

photo: 6433631853 2f129a2172 7154
owner: 7477245@N05
title: An?ncio Cigarros 111
originalsecret: 8ee24d61d2
originalformat: jpg
o_height: 533
o_width: 407
datetaken: 2011-11-30 22:33:00
dateupload: 1322699580
tags: vintage ads advertising marketing moda modelos lingerie carros backgrounds autom?veis utilidades cigarros colorido an?ncios cal?ados propagandas vendas sele??es advertisings promo??es anunciantes modismo eletrodom?sticos reclames revistaplayboy anos1950 anos1980 anos1960 anos1940 fundosparatwitter anos1970 propagandasderevistas agenciasdepropagandas propagandasdassele??es propagandasdeguerra propagandasderevistasantigas propagandasantigasdeautom?veis propagandasantigasdecigarros
license: 4
latitude: -22.913653
longitude: -43.242874
accuracy: 11
views: 39
interestingness: 146 out of 246

photo: 6433631663 669139d9c7 7030
owner: 7477245@N05
title: An?ncio Cigarros 110
originalsecret: 398fe6b065
originalformat: jpg
o_height: 533
o_width: 407
datetaken: 2011-11-30 22:32:57
dateupload: 1322699577
tags: vintage ads advertising marketing moda modelos lingerie carros backgrounds autom?veis utilidades cigarros colorido an?ncios cal?ados propagandas vendas sele??es advertisings promo??es anunciantes modismo eletrodom?sticos reclames revistaplayboy anos1950 anos1980 anos1960 anos1940 fundosparatwitter anos1970 propagandasderevistas agenciasdepropagandas propagandasdassele??es propagandasdeguerra propagandasderevistasantigas propagandasantigasdeautom?veis propagandasantigasdecigarros
license: 4
latitude: -22.913653
longitude: -43.242874
accuracy: 11
views: 33
interestingness: 147 out of 246

photo: 6433631465 34efd2f735 7169
owner: 7477245@N05
title: An?ncio Cigarros 109
originalsecret: 7927fc6bd8
originalformat: jpg
o_height: 533
o_width: 407
datetaken: 2011-11-30 22:32:55
dateupload: 1322699575
tags: vintage ads advertising marketing moda modelos lingerie carros backgrounds autom?veis utilidades cigarros colorido an?ncios cal?ados propagandas vendas sele??es advertisings promo??es anunciantes modismo eletrodom?sticos reclames revistaplayboy anos1950 anos1980 anos1960 anos1940 fundosparatwitter anos1970 propagandasderevistas agenciasdepropagandas propagandasdassele??es propagandasdeguerra propagandasderevistasantigas propagandasantigasdeautom?veis propagandasantigasdecigarros
license: 4
latitude: -22.913653
longitude: -43.242874
accuracy: 11
views: 35
interestingness: 148 out of 246

photo: 6433631265 f1c8b57a1e 7017
owner: 7477245@N05
title: An?ncio Cigarros 108
originalsecret: e160f26904
originalformat: jpg
o_height: 533
o_width: 407
datetaken: 2011-11-30 22:32:52
dateupload: 1322699572
tags: vintage ads advertising marketing moda modelos lingerie carros backgrounds autom?veis utilidades cigarros colorido an?ncios cal?ados propagandas vendas sele??es advertisings promo??es anunciantes modismo eletrodom?sticos reclames revistaplayboy anos1950 anos1980 anos1960 anos1940 fundosparatwitter anos1970 propagandasderevistas agenciasdepropagandas propagandasdassele??es propagandasdeguerra propagandasderevistasantigas propagandasantigasdeautom?veis propagandasantigasdecigarros
license: 4
latitude: -22.913653
longitude: -43.242874
accuracy: 11
views: 40
interestingness: 149 out of 246

photo: 6433631069 e95bb04628 7170
owner: 7477245@N05
title: An?ncio Cigarros 107
originalsecret: e391ce3464
originalformat: jpg
o_height: 533
o_width: 407
datetaken: 2011-11-30 22:32:49
dateupload: 1322699569
tags: vintage ads advertising marketing moda modelos lingerie carros backgrounds autom?veis utilidades cigarros colorido an?ncios cal?ados propagandas vendas sele??es advertisings promo??es anunciantes modismo eletrodom?sticos reclames revistaplayboy anos1950 anos1980 anos1960 anos1940 fundosparatwitter anos1970 propagandasderevistas agenciasdepropagandas propagandasdassele??es propagandasdeguerra propagandasderevistasantigas propagandasantigasdeautom?veis propagandasantigasdecigarros
license: 4
latitude: -22.913653
longitude: -43.242874
accuracy: 11
views: 23
interestingness: 150 out of 246

photo: 6433630899 223c5eea06 7027
owner: 7477245@N05
title: An?ncio Cigarros 106
originalsecret: 488c74f87f
originalformat: jpg
o_height: 533
o_width: 407
datetaken: 2011-11-30 22:32:46
dateupload: 1322699566
tags: vintage ads advertising marketing moda modelos lingerie carros backgrounds autom?veis utilidades cigarros colorido an?ncios cal?ados propagandas vendas sele??es advertisings promo??es anunciantes modismo eletrodom?sticos reclames revistaplayboy anos1950 anos1980 anos1960 anos1940 fundosparatwitter anos1970 propagandasderevistas agenciasdepropagandas propagandasdassele??es propagandasdeguerra propagandasderevistasantigas propagandasantigasdeautom?veis propagandasantigasdecigarros
license: 4
latitude: -22.913653
longitude: -43.242874
accuracy: 11
views: 50
interestingness: 151 out of 246

photo: 6433630695 bc5581048b 7175
owner: 7477245@N05
title: An?ncio Cigarros 105
originalsecret: 44d0ac64ec
originalformat: jpg
o_height: 533
o_width: 407
datetaken: 2011-11-30 22:32:43
dateupload: 1322699563
tags: vintage ads advertising marketing moda modelos lingerie carros backgrounds autom?veis utilidades cigarros colorido an?ncios cal?ados propagandas vendas sele??es advertisings promo??es anunciantes modismo eletrodom?sticos reclames revistaplayboy anos1950 anos1980 anos1960 anos1940 fundosparatwitter anos1970 propagandasderevistas agenciasdepropagandas propagandasdassele??es propagandasdeguerra propagandasderevistasantigas propagandasantigasdeautom?veis propagandasantigasdecigarros
license: 4
latitude: -22.913653
longitude: -43.242874
accuracy: 11
views: 25
interestingness: 152 out of 246

photo: 6433630487 dd33567917 7159
owner: 7477245@N05
title: An?ncio Cigarros 104
originalsecret: 8c43d9184a
originalformat: jpg
o_height: 533
o_width: 407
datetaken: 2011-11-30 22:32:41
dateupload: 1322699561
tags: vintage ads advertising marketing moda modelos lingerie carros backgrounds autom?veis utilidades cigarros colorido an?ncios cal?ados propagandas vendas sele??es advertisings promo??es anunciantes modismo eletrodom?sticos reclames revistaplayboy anos1950 anos1980 anos1960 anos1940 fundosparatwitter anos1970 propagandasderevistas agenciasdepropagandas propagandasdassele??es propagandasdeguerra propagandasderevistasantigas propagandasantigasdeautom?veis propagandasantigasdecigarros
license: 4
latitude: -22.913653
longitude: -43.242874
accuracy: 11
views: 27
interestingness: 153 out of 246

photo: 6433630283 e8b92fb09e 7147
owner: 7477245@N05
title: An?ncio Cigarros 103
originalsecret: a78484643e
originalformat: jpg
o_height: 533
o_width: 407
datetaken: 2011-11-30 22:32:38
dateupload: 1322699558
tags: vintage ads advertising marketing moda modelos lingerie carros backgrounds autom?veis utilidades cigarros colorido an?ncios cal?ados propagandas vendas sele??es advertisings promo??es anunciantes modismo eletrodom?sticos reclames revistaplayboy anos1950 anos1980 anos1960 anos1940 fundosparatwitter anos1970 propagandasderevistas agenciasdepropagandas propagandasdassele??es propagandasdeguerra propagandasderevistasantigas propagandasantigasdeautom?veis propagandasantigasdecigarros
license: 4
latitude: -22.913653
longitude: -43.242874
accuracy: 11
views: 29
interestingness: 154 out of 246

photo: 6433630077 f5dcb5b3ce 7018
owner: 7477245@N05
title: An?ncio Cigarros 102
originalsecret: 9c71e075fc
originalformat: jpg
o_height: 533
o_width: 407
datetaken: 2011-11-30 22:32:35
dateupload: 1322699555
tags: vintage ads advertising marketing moda modelos lingerie carros backgrounds autom?veis utilidades cigarros colorido an?ncios cal?ados propagandas vendas sele??es advertisings promo??es anunciantes modismo eletrodom?sticos reclames revistaplayboy anos1950 anos1980 anos1960 anos1940 fundosparatwitter anos1970 propagandasderevistas agenciasdepropagandas propagandasdassele??es propagandasdeguerra propagandasderevistasantigas propagandasantigasdeautom?veis propagandasantigasdecigarros
license: 4
latitude: -22.913653
longitude: -43.242874
accuracy: 11
views: 44
interestingness: 155 out of 246

photo: 6433629867 bbc2ef9e4f 7029
owner: 7477245@N05
title: An?ncio Cigarros 101
originalsecret: d669e961e1
originalformat: jpg
o_height: 533
o_width: 407
datetaken: 2011-11-30 22:32:32
dateupload: 1322699552
tags: propagandasantigasdeautom?veis propagandasantigasdecigarros carros reclames an?ncios propagandas colorido vintage moda modismo advertising ads promo??es fundosparatwitter backgrounds propagandasderevistasantigas anunciantes marketing vendas sele??es agenciasdepropagandas advertisings anos1940 anos1950 anos1960 anos1970 anos1980 propagandasdassele??es propagandasdeguerra modelos autom?veis utilidades cigarros eletrodom?sticos cal?ados propagandasderevistas revistaplayboy lingerie
license: 4
latitude: -22.913653
longitude: -43.242874
accuracy: 11
views: 31
interestingness: 156 out of 246

photo: 6433570873 edfc8db819 7156
owner: 10570305@N07
title: All I post are #seattle #sunset  I need to branch out.
originalsecret: e156de7f56
originalformat: jpg
o_height: 612
o_width: 612
datetaken: 2011-11-30 19:17:58
dateupload: 1322698678
tags: square squareformat hefe iphoneography instagramapp uploaded:by=instagram
license: 0
latitude: 47.621245
longitude: -122.361722
accuracy: 15
views: 10
interestingness: 157 out of 246

photo: 6434672845 db4f58d4da 7173
owner: 55899488@N00
title: Dessert after the 'broccoli rave'
originalsecret: 48257b2ec8
originalformat: jpg
o_height: 2448
o_width: 3264
datetaken: 2011-11-30 20:47:06
dateupload: 1322714946
tags: wine redwoodcity iphone sauternes gdzlla
license: 1
latitude: 37.445966
longitude: -122.223474
accuracy: 16
views: 26
interestingness: 158 out of 246

photo: 6434431067 428c244f4d 7020
owner: 76696114@N00
title: Truth Telling
originalsecret: 0fafac5b28
originalformat: jpg
o_height: 1496
o_width: 3242
datetaken: 2011-11-30 15:54:03
dateupload: 1322711371
tags: campus com bumpersticker collegeofmarin kentfieldca
license: 0
latitude: 37.954
longitude: -122.5495
accuracy: 16
views: 19
interestingness: 159 out of 246

photo: 6434211643 16765fe45a 7009
owner: 66908321@N00
title: 2011-11-30 at 13-11-55
originalsecret: 177ac32e96
originalformat: jpg
o_height: 638
o_width: 850
datetaken: 2011-11-30 13:11:55
dateupload: 1322708106
tags: newyorkcity usa ny postoffice usps
license: 0
latitude: 40.732
longitude: -73.9905
accuracy: 16
views: 15
interestingness: 160 out of 246

photo: 6435156499 23ec93c083 7030
owner: 53650850@N02
title: At Print ad
originalsecret: null
originalformat: null
o_height: null
o_width: null
datetaken: 2011-11-30 23:29:03
dateupload: 1322724543
tags: uploaded:by=flicksquare foursquare:venue=4ed4e2ea0aafb91627045dd4 geo:lat=10785952 geo:lon=106693497
license: 0
latitude: 10.785952
longitude: 106.693497
accuracy: 16
views: 2
interestingness: 161 out of 246

photo: 6435105855 e34a5c63ae 7143
owner: 25577721@N02
title: Ngeteh jap.... fuhh... amoi kt meja depan pakai t-shirt #turnedred.... :-)
originalsecret: null
originalformat: null
o_height: null
o_width: null
datetaken: 2011-11-30 23:10:53
dateupload: 1322723453
tags: uploaded:by=flicksquare foursquare:venue=4e9e754c9a52cd825ce6f73a geo:lat=2684223 geo:lon=101970334
license: 0
latitude: 2.684223
longitude: 101.970334
accuracy: 16
views: 1
interestingness: 162 out of 246

photo: 6435084169 ae904ae36b 7175
owner: 29704269@N03
title: At ??? (Shibuya Sta.)
originalsecret: 28504426ce
originalformat: jpg
o_height: 960
o_width: 1280
datetaken: 2011-12-01 16:02:51
dateupload: 1322722971
tags: uploaded:by=flicksquare geo:lat=356586561469944 geo:lon=139701161384583 foursquare:venue=4b093eeff964a520e51423e3
license: 0
latitude: 35.658656
longitude: 139.701161
accuracy: 16
views: 1
interestingness: 163 out of 246

photo: 6434980183 4c8176140c 7020
owner: 69559488@N07
title: ????????(???)
originalsecret: null
originalformat: null
o_height: null
o_width: null
datetaken: 2011-12-01 15:24:32
dateupload: 1322720672
tags: foursquare:venue=4b5a3a54f964a520cdb528e3 uploaded:by=flicksquare geo:lat=356707024451267 geo:lon=139696633815765
license: 0
latitude: 35.670702
longitude: 139.696633
accuracy: 16
views: 0
interestingness: 164 out of 246

photo: 6434933427 336954a002 7030
owner: 47943004@N07
title: At Sebastianstrasse
originalsecret: null
originalformat: null
o_height: null
o_width: null
datetaken: 2011-12-01 07:09:30
dateupload: 1322719770
tags: foursquare:venue=4b6b5ba7f964a5203c032ce3 geo:lat=474079128061905 geo:lon=974761962890625 uploaded:by=flicksquare
license: 1
latitude: 47.407912
longitude: 9.747619
accuracy: 16
views: 0
interestingness: 165 out of 246

photo: 6434921309 99859e113e 7019
owner: 17194335@N00
title: My third apple beer
originalsecret: 8c5a913345
originalformat: jpg
o_height: 612
o_width: 612
datetaken: 2011-11-30 22:05:28
dateupload: 1322719528
tags: uploaded:by=flicksquare foursquare:venue=483691cff964a520ec4f1fe3 geo:lat=4552254608 geo:lon=122677884
license: 1
latitude: 45.522546
longitude: -122.677884
accuracy: 16
views: 13
interestingness: 166 out of 246

photo: 6434885249 b8416bd759 7033
owner: 28110754@N04
title: ?????
originalsecret: f1d1233b06
originalformat: jpg
o_height: 540
o_width: 720
datetaken: 2011-12-01 14:53:24
dateupload: 1322718804
tags: uploaded:by=flicksquare foursquare:venue=4c0cc41398102d7f001ae106 geo:lat=356253613913265 geo:lon=139723895788193
license: 2
latitude: 35.625361
longitude: 139.723895
accuracy: 16
views: 1
interestingness: 167 out of 246

photo: 6434800029 f1086a47a8 7013
owner: 9049900@N06
title: At Shooting Star Cafe
originalsecret: null
originalformat: null
o_height: null
o_width: null
datetaken: 2011-11-30 21:26:11
dateupload: 1322717171
tags: geo:lat=37801115 uploaded:by=flicksquare foursquare:venue=4a723ab5f964a520a9da1fe3 geo:lon=12226998936
license: 0
latitude: 37.801115
longitude: -122.269989
accuracy: 16
views: 0
interestingness: 168 out of 246

photo: 6434787505 71d5877c0d 7146
owner: 69559488@N07
title: ?????????????????????????????????
originalsecret: null
originalformat: null
o_height: null
o_width: null
datetaken: 2011-12-01 14:22:08
dateupload: 1322716928
tags: geo:lat=35669454 uploaded:by=flicksquare foursquare:venue=4e5fa10a18a8bc94706bcf72 geo:lon=139709118
license: 0
latitude: 35.669454
longitude: 139.709118
accuracy: 16
views: 1
interestingness: 169 out of 246

photo: 6434777909 6b8e950eb9 7171
owner: 89087926@N00
title: You in the jungle now!
originalsecret: null
originalformat: null
o_height: null
o_width: null
datetaken: 2011-12-01 00:19:06
dateupload: 1322716746
tags: uploaded:by=flicksquare foursquare:venue=4b232555f964a520ce5324e3 geo:lat=361220342119886 geo:lon=115170879364014
license: 1
latitude: 36.122034
longitude: -115.170879
accuracy: 16
views: 1
interestingness: 170 out of 246

photo: 6434755953 0ede0f7fcd 7005
owner: 53650850@N02
title: At Tini World Pasteur
originalsecret: null
originalformat: null
o_height: null
o_width: null
datetaken: 2011-11-30 21:13:03
dateupload: 1322716383
tags: uploaded:by=flicksquare foursquare:venue=4d3c1eab6b3d236a863c5e64 geo:lat=107839393615723 geo:lon=106692534685135
license: 0
latitude: 10.783939
longitude: 106.692534
accuracy: 16
views: 0
interestingness: 171 out of 246

photo: 6434752463 60b2bd8f74 7155
owner: 53650850@N02
title: At H?i M? Thu?t Tphcm
originalsecret: null
originalformat: null
o_height: null
o_width: null
datetaken: 2011-11-30 21:12:03
dateupload: 1322716323
tags: uploaded:by=flicksquare foursquare:venue=4e2fb42ae4cdb5a70d6b435c geo:lat=107834799371252 geo:lon=106692395210266
license: 0
latitude: 10.783479
longitude: 106.692395
accuracy: 16
views: 0
interestingness: 172 out of 246

photo: 6434745619 2aa89ed0bd 7141
owner: 12716287@N00
title: ????
originalsecret: 55c20f0b37
originalformat: jpg
o_height: 720
o_width: 537
datetaken: 2011-12-01 14:10:01
dateupload: 1322716201
tags: uploaded:by=flicksquare foursquare:venue=4ed6cf0061afca7b24beb53c geo:lat=35461199031794 geo:lon=13961589503747
license: 0
latitude: 35.461199
longitude: 139.615895
accuracy: 16
views: 0
interestingness: 173 out of 246

photo: 6434739133 8c2def2d9a 7174
owner: 44438489@N06
title: ??????
originalsecret: null
originalformat: null
o_height: null
o_width: null
datetaken: 2011-12-01 14:08:00
dateupload: 1322716080
tags: uploaded:by=flicksquare foursquare:venue=4b5532e5f964a5205dde27e3 geo:lat=35655769 geo:lon=139693729
license: 0
latitude: 35.655769
longitude: 139.693729
accuracy: 16
views: 0
interestingness: 174 out of 246

photo: 6434697685 bf8e146d10 7018
owner: 65889456@N00
title: That biweekly roundtrip. #troffice #flowworking ahead.
originalsecret: fd2a088028
originalformat: jpg
o_height: 720
o_width: 431
datetaken: 2011-12-01 05:55:53
dateupload: 1322715353
tags: uploaded:by=flicksquare foursquare:venue=4b45cf0af964a5209e1026e3 geo:lat=585966182131315 geo:lon=161833307147026
license: 5
latitude: 58.596618
longitude: 16.18333
accuracy: 16
views: 1
interestingness: 175 out of 246

photo: 6434616455 9c3f822b87 7151
owner: 16457826@N00
title: This night is beignets -- B-E-I-G-N-E-T-S!
originalsecret: c9525e2d28
originalformat: jpg
o_height: 720
o_width: 537
datetaken: 2011-11-30 23:34:48
dateupload: 1322714088
tags: geo:lon=73983359 uploaded:by=flicksquare foursquare:venue=4b30200ef964a5207ff624e3 geo:lat=4072617225
license: 4
latitude: 40.726172
longitude: -73.983359
accuracy: 16
views: 4
interestingness: 176 out of 246

photo: 6434587249 2614e0fe0b 7003
owner: 22562314@N00
title: Pigging out on sushi
originalsecret: null
originalformat: null
o_height: null
o_width: null
datetaken: 2011-11-30 23:27:41
dateupload: 1322713661
tags: uploaded:by=flicksquare foursquare:venue=4e58157b18a82d0a334f70de geo:lat=47619118 geo:lon=122338757
license: 0
latitude: 47.619118
longitude: -122.338757
accuracy: 16
views: 0
interestingness: 177 out of 246

photo: 6434522079 9b7ccd8457 7144
owner: 40406826@N03
title: ????????????????????????????
originalsecret: 087957a584
originalformat: jpg
o_height: 540
o_width: 685
datetaken: 2011-12-01 13:11:35
dateupload: 1322712695
tags: uploaded:by=flicksquare foursquare:venue=4b74d049f964a5207bf32de3 geo:lat=356691815041263 geo:lon=139772713333368
license: 0
latitude: 35.669181
longitude: 139.772713
accuracy: 16
views: 1
interestingness: 178 out of 246

photo: 6434476267 9c2f755eb6 7010
owner: 16457826@N00
title: Uhhhh AMAZING
originalsecret: 18d2e2bb62
originalformat: jpg
o_height: 537
o_width: 720
datetaken: 2011-11-30 23:00:29
dateupload: 1322712029
tags: uploaded:by=flicksquare foursquare:venue=3fd66200f964a520a5e41ee3 geo:lat=40727011 geo:lon=73983931
license: 4
latitude: 40.727011
longitude: -73.983931
accuracy: 16
views: 3
interestingness: 179 out of 246

photo: 6434460149 b76e536644 7031
owner: 31170509@N03
title: ?????????????
originalsecret: null
originalformat: null
o_height: null
o_width: null
datetaken: 2011-11-30 19:56:27
dateupload: 1322711787
tags: uploaded:by=flicksquare foursquare:venue=4ed6fa98b8f7e740d0a22ca9 geo:lat=40788415 geo:lon=140759908
license: 0
latitude: 40.788415
longitude: 140.759908
accuracy: 16
views: 0
interestingness: 180 out of 246

photo: 6434438991 4be5ab49e3 7144
owner: 59988616@N05
title: ??????
originalsecret: null
originalformat: null
o_height: null
o_width: null
datetaken: 2011-12-01 12:51:25
dateupload: 1322711485
tags: uploaded:by=flicksquare foursquare:venue=4bbc61f4e436ef3b89715664 geo:lat=3564361489 geo:lon=13966992
license: 0
latitude: 35.643614
longitude: 139.66992
accuracy: 16
views: 0
interestingness: 181 out of 246

photo: 6434396251 347b6f9386 7028
owner: 15446699@N04
title: At Coffee Bay
originalsecret: null
originalformat: null
o_height: null
o_width: null
datetaken: 2011-12-01 12:41:20
dateupload: 1322710880
tags: uploaded:by=flicksquare foursquare:venue=4e814111b803f70793df6d5d geo:lat=37553506 geo:lon=126927676
license: 0
latitude: 37.553506
longitude: 126.927676
accuracy: 16
views: 0
interestingness: 182 out of 246

photo: 6434334263 820fd2cf4f 7030
owner: 59988616@N05
title: ??????????
originalsecret: null
originalformat: null
o_height: null
o_width: null
datetaken: 2011-12-01 12:26:14
dateupload: 1322709974
tags: uploaded:by=flicksquare foursquare:venue=4bcd29bab6c49c74051e9591 geo:lat=35643887 geo:lon=139670372
license: 0
latitude: 35.643887
longitude: 139.670372
accuracy: 16
views: 1
interestingness: 183 out of 246

photo: 6434325651 327649a7bf 7005
owner: 12716287@N00
title: ??????????????????????
originalsecret: 247e0e40b6
originalformat: jpg
o_height: 720
o_width: 537
datetaken: 2011-12-01 12:24:14
dateupload: 1322709854
tags: uploaded:by=flicksquare foursquare:venue=4e8d78ea77c8aa870707dba6 geo:lat=35653953 geo:lon=139705662
license: 0
latitude: 35.653953
longitude: 139.705662
accuracy: 16
views: 0
interestingness: 184 out of 246

photo: 6434294313 d387fc4f77 7144
owner: 64179859@N05
title: ?????????
originalsecret: null
originalformat: null
o_height: null
o_width: null
datetaken: 2011-12-01 12:16:10
dateupload: 1322709370
tags: uploaded:by=flicksquare foursquare:venue=4b6504cdf964a520cadf2ae3 geo:lat=356966237124651 geo:lon=139682251811028
license: 0
latitude: 35.696623
longitude: 139.682251
accuracy: 16
views: 2
interestingness: 185 out of 246

photo: 6434265459 43bd7ef299 7016
owner: 29704269@N03
title: At ???? ?????????
originalsecret: cd2c713c40
originalformat: jpg
o_height: 1280
o_width: 960
datetaken: 2011-12-01 12:09:07
dateupload: 1322708947
tags: uploaded:by=flicksquare foursquare:venue=4e7ffd87e5fa9ee502217d2b geo:lat=356615689839217 geo:lon=139702522440475
license: 0
latitude: 35.661568
longitude: 139.702522
accuracy: 16
views: 0
interestingness: 186 out of 246

photo: 6434069493 81541ddacb 7171
owner: 16851998@N00
title: At Mos Eisley
originalsecret: null
originalformat: null
o_height: null
o_width: null
datetaken: 2011-11-30 21:20:45
dateupload: 1322706045
tags: uploaded:by=flicksquare foursquare:venue=4ba6abb8f964a520af6739e3 geo:lat=40717989272649 geo:lon=739575684070587
license: 0
latitude: 40.717989
longitude: -73.957568
accuracy: 16
views: 1
interestingness: 187 out of 246

photo: 6433973585 51ec347423 7175
owner: 55899488@N00
title: Liquid inspiration for dinner ideas.
originalsecret: 8f5852445d
originalformat: jpg
o_height: 2448
o_width: 3264
datetaken: 2011-11-30 17:42:49
dateupload: 1322704661
tags: wine iphone gdzlla moulisenm?doc
license: 1
latitude: 37.445966
longitude: -122.223474
accuracy: 16
views: 23
interestingness: 188 out of 246

photo: 6433968985 bbf2789aef 7161
owner: 20494010@N00
title: Made in China. cc: @abcworldnews
originalsecret: 1ef7f1dd56
originalformat: jpg
o_height: 612
o_width: 612
datetaken: 2011-11-30 17:56:34
dateupload: 1322704594
tags: uploaded:by=flicksquare foursquare:venue=49f50f7af964a5208c6b1fe3 geo:lat=37673641 geo:lon=122464817
license: 0
latitude: 37.673641
longitude: -122.464817
accuracy: 16
views: 1
interestingness: 189 out of 246

photo: 6433965257 a3d901e890 7011
owner: 23257298@N00
title: Waiting for Beirut w/ @danijela
originalsecret: null
originalformat: null
o_height: null
o_width: null
datetaken: 2011-11-30 19:55:40
dateupload: 1322704540
tags: uploaded:by=flicksquare foursquare:venue=4bb5245e2f70c9b61bcd8330 geo:lat=4304372712 geo:lon=8791566
license: 0
latitude: 43.043727
longitude: -87.91566
accuracy: 16
views: 0
interestingness: 190 out of 246

photo: 6433964807 53bd37876b 7145
owner: 46263194@N00
title: Loved the Mark Giglio show
originalsecret: null
originalformat: null
o_height: null
o_width: null
datetaken: 2011-11-30 20:55:33
dateupload: 1322704533
tags: uploaded:by=flicksquare foursquare:venue=483c33f9f964a52017501fe3 geo:lat=377591969104425 geo:lon=122421383857727
license: 0
latitude: 37.759196
longitude: -122.421383
accuracy: 16
views: 1
interestingness: 191 out of 246

photo: 6433871465 232698a74c 7168
owner: 24741597@N00
title: Let's get this party started! #BCLions
originalsecret: 33bb477e3a
originalformat: jpg
o_height: 612
o_width: 612
datetaken: 2011-11-30 17:32:24
dateupload: 1322703144
tags: uploaded:by=flicksquare foursquare:venue=4aa6f277f964a520964b20e3 geo:lat=492765688066604 geo:lon=123111934661865
license: 4
latitude: 49.276568
longitude: -123.111934
accuracy: 16
views: 1
interestingness: 192 out of 246

photo: 6433765295 ec52acd738 7146
owner: 77725780@N00
title: Team @foursquare heckling @krave during the 4SQ Dev Meetup
originalsecret: 03df251320
originalformat: jpg
o_height: 612
o_width: 612
datetaken: 2011-11-30 20:06:12
dateupload: 1322701572
tags: uploaded:by=flicksquare foursquare:venue=4d232f2f9822a090189effaf geo:lon=739834785461426 geo:lat=407436154627516
license: 4
latitude: 40.743615
longitude: -73.983478
accuracy: 16
views: 135
interestingness: 193 out of 246

photo: 6433761675 5087268ea4 7009
owner: 29704269@N03
title: At partyground
originalsecret: 2554a64c0b
originalformat: jpg
o_height: 960
o_width: 1280
datetaken: 2011-12-01 10:05:19
dateupload: 1322701519
tags: geo:lon=139703049659729 uploaded:by=flicksquare foursquare:venue=4c32e07aed37a593ae816c03 geo:lat=356614957330086
license: 0
latitude: 35.661495
longitude: 139.703049
accuracy: 16
views: 0
interestingness: 194 out of 246

photo: 6433750655 9d4f9009d6 7014
owner: 29441903@N03
title: Sarah & Ian
originalsecret: null
originalformat: null
o_height: null
o_width: null
datetaken: 2011-10-01 20:15:54
dateupload: 1322701353
tags: wedding photos surrealphotography jeremydavies
license: 0
latitude: 29.790377
longitude: -95.814943
accuracy: 14
views: 42
interestingness: 195 out of 246

photo: 6433725053 6d648f6563 7025
owner: 24741597@N00
title: Waiting to get into @bcplace to celebrate one awesome season by the @bclions! #99GC #CFL Champions!
originalsecret: 489413cc74
originalformat: jpg
o_height: 720
o_width: 537
datetaken: 2011-11-30 16:56:07
dateupload: 1322700967
tags: uploaded:by=flicksquare foursquare:venue=4aa6f277f964a520964b20e3 geo:lat=492765688066604 geo:lon=123111934661865
license: 4
latitude: 49.276568
longitude: -123.111934
accuracy: 16
views: 6
interestingness: 196 out of 246

photo: 6433684769 31c39e7cc6 7035
owner: 57612278@N05
title: At Body Arts
originalsecret: null
originalformat: null
o_height: null
o_width: null
datetaken: 2011-11-30 19:46:02
dateupload: 1322700362
tags: geo:lat=4224138 uploaded:by=flicksquare foursquare:venue=4ed6cdeebe7b356715f7304f geo:lon=83742495
license: 0
latitude: 42.24138
longitude: -83.742495
accuracy: 16
views: 0
interestingness: 197 out of 246

photo: 6433667973 03d2d3cbf6 7002
owner: 22890855@N05
title: Papaya drink!
originalsecret: 70b42ab510
originalformat: jpg
o_height: 720
o_width: 540
datetaken: 2011-11-30 16:42:02
dateupload: 1322700122
tags: geo:lat=40778998 uploaded:by=flicksquare foursquare:venue=3fd66200f964a52074e81ee3 geo:lon=73953866
license: 0
latitude: 40.778998
longitude: -73.953866
accuracy: 16
views: 1
interestingness: 198 out of 246

photo: 6433619287 3b1c35760a 7034
owner: 12716287@N00
title: ????????
originalsecret: 00b580d3de
originalformat: jpg
o_height: 612
o_width: 612
datetaken: 2011-12-01 09:29:55
dateupload: 1322699395
tags: uploaded:by=flicksquare foursquare:venue=4b132d4af964a520249523e3 geo:lat=356682249089102 geo:lon=139601139128208
license: 0
latitude: 35.668224
longitude: 139.601139
accuracy: 16
views: 0
interestingness: 199 out of 246

photo: 6433607261 4bf3aca0d2 7033
owner: 11369446@N05
title: At Judy's Pet Depot
originalsecret: null
originalformat: null
o_height: null
o_width: null
datetaken: 2011-11-30 16:26:58
dateupload: 1322699218
tags: uploaded:by=flicksquare foursquare:venue=4b99afd3f964a5200a8c35e3 geo:lat=340577106 geo:lon=11844265131
license: 0
latitude: 34.05771
longitude: -118.442651
accuracy: 16
views: 0
interestingness: 200 out of 246

photo: 6433566635 2ff17fd999 7148
owner: 14702116@N06
title: Sunset from a Seattle houseboat.
originalsecret: null
originalformat: null
o_height: null
o_width: null
datetaken: 2011-11-30 16:12:48
dateupload: 1322698608
tags: uploaded:by=flicksquare geo:lat=476400729698977 geo:lon=122336207844188 foursquare:venue=4df50a3345dd4e269345ffa1
license: 0
latitude: 47.640072
longitude: -122.336207
accuracy: 16
views: 7
interestingness: 201 out of 246

photo: 6433562681 b9db7d7fd6 7006
owner: 14702116@N06
title: Sunset from the houseboat community.
originalsecret: null
originalformat: null
o_height: null
o_width: null
datetaken: 2011-11-30 16:12:48
dateupload: 1322698548
tags: uploaded:by=flicksquare foursquare:venue=4e150e79ae60a0ac062fe728 geo:lat=4763557 geo:lon=12233933
license: 0
latitude: 47.63557
longitude: -122.33933
accuracy: 16
views: 1
interestingness: 202 out of 246

photo: 6433547631 65fc7609d7 7173
owner: 17762333@N00
title: Organised 07/11/11 #project365
originalsecret: 8f14d9d476
originalformat: jpg
o_height: 1536
o_width: 1536
datetaken: 2011-11-07 16:17:33
dateupload: 1322698288
tags: november 7th 2011 project365
license: 0
latitude: 51.759333
longitude: -1.225167
accuracy: 16
views: 0
interestingness: 203 out of 246

photo: 6433542965 6092972d36 7020
owner: 17762333@N00
title: Diversion 06/11/11 #project365
originalsecret: 7959993002
originalformat: jpg
o_height: 1536
o_width: 1536
datetaken: 2011-11-06 11:11:54
dateupload: 1322698211
tags: november 6th 2011 project365
license: 0
latitude: 51.756833
longitude: -1.208334
accuracy: 16
views: 0
interestingness: 204 out of 246

photo: 6433537725 06c1b4b984 7142
owner: 17762333@N00
title: Saints 05/11/11 #project365
originalsecret: 6007ffe2fa
originalformat: jpg
o_height: 1536
o_width: 1536
datetaken: 2011-11-05 11:47:22
dateupload: 1322698124
tags: november 5th 2011 project365
license: 0
latitude: 51.753166
longitude: -1.261334
accuracy: 16
views: 0
interestingness: 205 out of 246

photo: 6433530313 2df0335b1f 7160
owner: 56445203@N07
title: #delicia
originalsecret: null
originalformat: null
o_height: null
o_width: null
datetaken: 2011-11-30 22:06:44
dateupload: 1322698004
tags: uploaded:by=flicksquare geo:lat=3736112 geo:lon=38495523 foursquare:venue=4e7bd6eb7d8be4806601e0b6
license: 0
latitude: -3.736112
longitude: -38.495523
accuracy: 16
views: 0
interestingness: 206 out of 246

photo: 6434611687 c73a485a1f 7003
owner: 74916883@N00
title: Post Office
originalsecret: 8db938dba1
originalformat: jpg
o_height: 2736
o_width: 3648
datetaken: 2011-09-27 16:16:13
dateupload: 1322714012
tags: mesaverdenp
license: 0
latitude: 37.169622
longitude: -108.481892
accuracy: 16
views: 96
interestingness: 207 out of 246

photo: 6433576301 e06c3cbcf7 7019
owner: 8673428@N06
title: Shades of Kathmandu - Advertising Poster
originalsecret: null
originalformat: null
o_height: null
o_width: null
datetaken: 2011-12-01 00:16:33
dateupload: 1322698760
tags: 
license: 0
latitude: 51.622952
longitude: -8.888336
accuracy: 15
views: 12
interestingness: 208 out of 246

photo: 6435217881 e9ee3dfef4 7030
owner: 28197691@N00
title: Mickey Hart Band setlist 2011-11-30: McDonald Theatre, Eugene, Oregon (a Kesey Entertainment venue)
originalsecret: df5d7b08c2
originalformat: jpg
o_height: 2448
o_width: 3264
datetaken: 2011-11-30 23:43:19
dateupload: 1322726001
tags: 
license: 1
latitude: 44.048666
longitude: -123.093334
accuracy: 16
views: 3
interestingness: 209 out of 246

photo: 6435079419 b875faf455 7146
owner: 28197691@N00
title: Mickey in red, oh, trouble ahead?!
originalsecret: 3b5510ce29
originalformat: jpg
o_height: 2448
o_width: 3264
datetaken: 2011-11-30 22:58:24
dateupload: 1322722872
tags: 
license: 1
latitude: 44.048333
longitude: -123.093167
accuracy: 16
views: 0
interestingness: 210 out of 246

photo: 6435060179 27e6994187 7009
owner: 28197691@N00
title: Don't (WS)Panic! Dave Schools is here with Mickey.
originalsecret: 80db0d3402
originalformat: jpg
o_height: 2448
o_width: 3264
datetaken: 2011-11-30 22:52:07
dateupload: 1322722450
tags: 
license: 1
latitude: 44.048166
longitude: -123.093
accuracy: 16
views: 0
interestingness: 211 out of 246

photo: 6434901313 a2b1142eb7 7144
owner: 13738810@N08
title: Honey
originalsecret: 35c7e48765
originalformat: png
o_height: 1000
o_width: 747
datetaken: 2011-12-01 00:58:52
dateupload: 1322719132
tags: 
license: 0
latitude: 26.570109
longitude: -81.946463
accuracy: 16
views: 1
interestingness: 212 out of 246

photo: 6434819295 a556eba47d 7001
owner: 28197691@N00
title: Mickey Hart Band setlist tease; not readable from here, but I see two sets!
originalsecret: df0846c27f
originalformat: jpg
o_height: 2448
o_width: 3264
datetaken: 2011-11-30 21:30:40
dateupload: 1322717546
tags: 
license: 1
latitude: 44.0485
longitude: -123.093167
accuracy: 16
views: 0
interestingness: 213 out of 246

photo: 6434578271 7eb0f51bc7 7035
owner: 28197691@N00
title: And so is the band! (@deadheadland)
originalsecret: ff938435e0
originalformat: jpg
o_height: 2448
o_width: 3264
datetaken: 2011-11-30 20:21:02
dateupload: 1322713524
tags: 
license: 1
latitude: 44.048333
longitude: -123.093
accuracy: 16
views: 0
interestingness: 214 out of 246

photo: 6434575257 e255f82748 7157
owner: 28197691@N00
title: Mickey's here! (@deadheadland)
originalsecret: 2f2e388ff2
originalformat: jpg
o_height: 2448
o_width: 3264
datetaken: 2011-11-30 20:22:43
dateupload: 1322713478
tags: 
license: 1
latitude: 44.048666
longitude: -123.093
accuracy: 16
views: 0
interestingness: 215 out of 246

photo: 6434528797 ffc8fff1d8 7172
owner: 42450712@N06
title: Hatebreed (5)
originalsecret: null
originalformat: null
o_height: null
o_width: null
datetaken: 2011-11-19 21:19:23
dateupload: 1322712796
tags: 
license: 0
latitude: 28.473755
longitude: -81.467689
accuracy: 16
views: 0
interestingness: 216 out of 246

photo: 6434528619 bb2d6b3de9 7016
owner: 42450712@N06
title: Hatebreed (4)
originalsecret: null
originalformat: null
o_height: null
o_width: null
datetaken: 2011-11-19 21:18:02
dateupload: 1322712792
tags: 
license: 0
latitude: 28.473755
longitude: -81.467689
accuracy: 16
