
mintime: 1322697600 maxtime: 1324512427.5
numimgs: 10
total pages: 1
visiting only 1 pages ( up to 250 images)
photo: 6443436067 50f8d1d200 7169
owner: 81035653@N00
title: O Holy Father, help me
originalsecret: null
originalformat: null
o_height: null
o_width: null
datetaken: 2011-08-15 11:30:43
dateupload: 1322931599
tags: street old city summer people woman streets castle history me church saint walking square geotagged town hall topf50 women energy pattern child cross heart cathedral market andrea father hill capital sightseeing central relaxing scenic atmosphere pedestrian down charm lord tourist sneakers beggar holy chapels nicholas architect help slovenia latin shops ljubljana local topf100 wandering beloved begging pozzo laibach strolling ljubljanica misleading eldery aching lubiana methodius 100faves 50faves stolnica jo?e nikolaja svetega ple?nikits geo:lon=14508911 geo:lat=46050646
license: 0
latitude: 46.050338
longitude: 14.507521
accuracy: 16
views: 7798
interestingness: 1 out of 10

photo: 3906395550 0c4459cc1d 3592
owner: 27112342@N03
title: Empower Women.   Make Our Ladies "Powerful" n Stay Closer.
originalsecret: null
originalformat: null
o_height: null
o_width: null
datetaken: 2009-09-14 06:25:37
dateupload: 1323432600
tags: sunset brazil tower art sunrise energy dubai power president soe silhoutte sow bestshot smorgasbord googleimages brightspark blueribbonwinner dilma 5photosaday enstantane platinumphoto anawesomeshot colorphotoaward aplusphoto agradephoto flickraward flickerdiamond diamonclassphotographer inspirationhappiness eperke brillianteyejewel concordians brilliantphotography fabulousflicks overtheshot elitephotgraphy artofimages flickrmasterpieces veryimportantphotos winklerians
license: 0
latitude: 25.269409
longitude: 55.30846
accuracy: 8
views: 1306
interestingness: 2 out of 10

photo: 6459556065 62080ef716 7032
owner: 10626707@N02
title: Standing movie set
originalsecret: null
originalformat: null
o_height: null
o_width: null
datetaken: 2011-12-05 15:21:17
dateupload: 1323193435
tags: cinema rome history set reflections movie ancient fake imperial studios riflessi antico hdr reflexes storia cinecitta imperiale tonemapping nespyxel stefanoscarselli cinecittalucespa
license: 0
latitude: 41.853236
longitude: 12.571921
accuracy: 15
views: 1009
interestingness: 3 out of 10

photo: 5355959996 625affe2c7 5122
owner: 52674600@N02
title: Feel No Way
originalsecret: null
originalformat: null
o_height: null
o_width: null
datetaken: 2011-01-14 09:53:06
dateupload: 1323289775
tags: road blackandwhite bw white canada silhouette landscape photo novascotia noiretblanc canondslr petertosh elmsdale canoneos60d avardwoolaver
license: 0
latitude: 44.988962
longitude: -63.517756
accuracy: 13
views: 297
interestingness: 4 out of 10

photo: 6471100715 e50d1b93ca 7150
owner: 10948723@N02
title: Central Park, New York
originalsecret: null
originalformat: null
o_height: null
o_width: null
datetaken: 2011-11-26 10:50:34
dateupload: 1323258779
tags: newyorkcity newyork canon centralpark bigapple bowbridge newyorkbridges xmax30321 mostbeautifulcentralpark centralparkinfallcolors autumnatcentralpark newyorkfallcolors
license: 0
latitude: 40.782398
longitude: -73.965553
accuracy: 14
views: 909
interestingness: 5 out of 10

photo: 6458692785 904b7d0e12 7031
owner: 58141116@N00
title: The Russian battleship Tsesarevich
originalsecret: 3b0a30efa6
originalformat: jpg
o_height: 1673
o_width: 2480
datetaken: 2011-12-05 09:26:25
dateupload: 1323077185
tags: sunset sea england colin portland britishisles russia britain navy standrewscross portsmouth battleship hmsvictory royalnavy whiteensign predreadnought tsesarevich maritimequest frigatern
license: 2
latitude: 50.576042
longitude: -2.434501
accuracy: 11
views: 130
interestingness: 6 out of 10

photo: 6459159561 156f4a5649 7006
owner: 89017202@N00
title: O Pensador, de Rodin
originalsecret: f7bec2c636
originalformat: jpg
o_height: 1334
o_width: 957
datetaken: 2008-10-19 09:16:03
dateupload: 1323085992
tags: argentina bronze buenosaires arte dante escultura rodin grafite estupidez dantealighieri picha??o vandalismo augusterodin divinacom?dia artespl?sticas opoeta ignor?ncia
license: 1
latitude: -34.60852
longitude: -58.373538
accuracy: 11
views: 109
interestingness: 7 out of 10

photo: 6448695725 e495938f83 7172
owner: 54595324@N04
title: Scuderia
originalsecret: 61fe501df5
originalformat: jpg
o_height: 2581
o_width: 3872
datetaken: 2011-12-03 14:01:28
dateupload: 1323011339
tags: sf auto blue winter red italy cars beautiful beauty car race america canon outside eos rebel cool interesting italian automobile warm track italia european skies connecticut greenwich engine fast ct sunny convertible ferrari best explore miller more motor lighter carbon expensive avenue quick powerful rare scuderia exclusive fastest extraordinary v8 automobiles dealership naturally f430 putnam limerock lakeville 2011 explored 200mph aspirated shutterspeedphotos
license: 0
latitude: 41.025249
longitude: -73.629623
accuracy: 11
views: 147
interestingness: 8 out of 10

photo: 6477875527 205ac4e529 7031
owner: 43732391@N00
title: Giardini Naxos History
originalsecret: 08b17d2145
originalformat: jpg
o_height: 1536
o_width: 2048
datetaken: 2011-12-03 07:16:39
dateupload: 1323368346
tags: italy history sicily storia giardininaxos
license: 0
latitude: 37.828768
longitude: 15.266876
accuracy: 11
views: 92
interestingness: 9 out of 10

photo: 6468497707 739efbf8ee 7165
owner: 48287603@N07
title: A Gargantuan Leap
originalsecret: null
originalformat: null
o_height: null
o_width: null
datetaken: 2011-03-09 00:37:45
dateupload: 1323212916
tags: latinamerica southamerica argentina waterfall powerful gargantadeldiablo iguazufalls travisallen 2011travel
license: 0
latitude: -25.60246
longitude: -54.57201
accuracy: 11
views: 25
interestingness: 10 out of 10

photo: 6446034815 355ac58963 7162
owner: 39779537@N05
title: Jaguar XKR-S - Explored
originalsecret: null
originalformat: null
o_height: null
o_width: null
datetaken: 2011-08-04 17:41:33
dateupload: 1322909894
tags: uk red english car speed 50mm hp nikon power fast gb jag british jaguar 500 f18 powerful supercar v8 speeddemon darkred bhp d90 afd xkrs lucianbickerton
license: 0
latitude: 52.387884
longitude: 4.540958
accuracy: 14
views: 141
interestingness: 11 out of 10

photo: 6447543467 c0bd9329cd 7141
owner: 42567542@N08
title: Blurring Capitol, Blurring Decisions
originalsecret: null
originalformat: null
o_height: null
o_width: null
datetaken: 2011-12-02 12:00:00
dateupload: 1322932664
tags: usa film architecture 50mm iso100 washingtondc nikon kodak bokeh politics congress capitolhill fm2 ektar kodakektar100
license: 0
latitude: 38.892953
longitude: -77.020812
accuracy: 14
views: 132
interestingness: 12 out of 10

photo: 6458991613 82aa73b104 7009
owner: 28531664@N00
title: The Young Woman And The Sea - IMRAN? -- 500+ Views! Explored! iPhone 4S Photo
originalsecret: null
originalformat: null
o_height: null
o_width: null
datetaken: 2011-12-03 16:15:51
dateupload: 1323083003
tags: ocean life pink sunset sky music ny newyork fall love beach clouds nikon october marine seasons peaceful philosophy romance foliage imran iphone oceanfront 2011 smithpoint imrananwar flickraward
license: 0
latitude: 40.732
longitude: -72.866834
accuracy: 16
views: 535
interestingness: 13 out of 10

photo: 6459347341 496560deeb 7017
owner: 27869077@N05
title: The Beneficiary of a Thousand Smiles
originalsecret: null
originalformat: null
o_height: null
o_width: null
datetaken: 2011-12-04 15:47:26
dateupload: 1323177821
tags: motion love with magic happiness it backstreet karma kindness mojo understanding meaning feelin thepath soulpatrol livingwell itwasabeautifulsunrise viewminder iwatchedthesunrisethismorning andithoughtabouteverything ithoughtabouthowluckyiam tohavefoundthispath ortohavethispathfindme howamillionrandomoccurencesputmehere ivegottowatchmoreofthem yougottagooutshootinwithme itllchangeyou apartofsomethingbigger lovesharing youthese daysgivin tyronewells~together
license: 0
latitude: 41.889059
longitude: -87.639291
accuracy: 15
views: 197
interestingness: 14 out of 10

photo: 6480808081 859bcfd652 7033
owner: 30015005@N03
title: The Lady and the Dolphin
originalsecret: null
originalformat: null
o_height: null
o_width: null
datetaken: 2011-12-06 09:15:11
dateupload: 1323417577
tags: london fountain girl lady sunrise person droplets dolphin statues silhoutte goldenhour towerhill rimlight
license: 0
latitude: 51.506275
longitude: -0.073857
accuracy: 16
views: 83
interestingness: 15 out of 10

photo: 6470176285 5303f2ca69 7029
owner: 46633509@N06
title: Heaven in Sight
originalsecret: null
originalformat: null
o_height: null
o_width: null
datetaken: 2011-08-01 06:53:52
dateupload: 1323238782
tags: trees lake snow mountains reflection water clouds canon rocks granite sierras highsierras johnmuirwilderness littlelakesvalley bearcreekspire chickenfootlake mtmills mtdade mtabbott rmbimages
license: 0
latitude: 37.517046
longitude: -118.785781
accuracy: 11
views: 65
interestingness: 16 out of 10

photo: 6445015367 af4a97fcf1 7028
owner: 25355186@N06
title: E V O L U T I O N
originalsecret: null
originalformat: null
o_height: null
o_width: null
datetaken: 2011-11-30 23:47:03
dateupload: 1322960040
tags: november music toronto ontario canada artwork space release jazz evolution celebration ambient electronic cosmic newage 2011 bsquare musicparty julianray katrinray
license: 0
latitude: 43.666241
longitude: -79.378345
accuracy: 15
views: 94
interestingness: 17 out of 10

photo: 6456783491 104c62fede 7146
owner: 35154766@N05
title: Bubble Butt in The Mall
originalsecret: null
originalformat: null
o_height: null
o_width: null
datetaken: 2011-12-04 15:29:35
dateupload: 1323050252
tags: man muscle bodybuilder tough powerful built solid niceass nicebutt bigbutt stocky nicebooty nicecake mascuine
license: 0
latitude: 30.673583
longitude: -88.121294
accuracy: 15
views: 59
interestingness: 18 out of 10

photo: 6436147873 5a64741eab 7167
owner: 43499552@N03
title: FALLEN HEROES
originalsecret: d2a90a50fa
originalformat: jpg
o_height: 2912
o_width: 2912
datetaken: 2011-11-19 13:24:54
dateupload: 1322746212
tags: county uk blue trees england sky green english beautiful rural canon landscape countryside kent flora village britain villages east ww2 warmemorial counties naturelovers 2011 kentweald thisphotorocks adamswaine mostbeautifulpicturesmbppictures wwwadamswainecouk kentishvillages
license: 0
latitude: 51.33591
longitude: 0.30614
accuracy: 11
views: 48
interestingness: 19 out of 10

photo: 6481048741 a584741227 7171
owner: 49530741@N08
title: Evolution!
originalsecret: null
originalformat: null
o_height: null
o_width: null
datetaken: 2011-12-07 13:12:51
dateupload: 1323444903
tags: world auto show cars car race racecar hp track xx diego evolution ferrari bologna motor supercar bonny evo motorshow maranello horsepower supercars combo pirelli 599 2011 hypercar bonometti 599xx bonnny
license: 0
latitude: 44.504821
longitude: 11.345159
accuracy: 11
views: 57
interestingness: 20 out of 10

photo: 6452536637 64107b0b99 7156
owner: 43732391@N00
title: The fisherman
originalsecret: 8d5177cff1
originalformat: jpg
o_height: 1536
o_width: 2048
datetaken: 2011-12-03 15:01:46
dateupload: 1323006066
tags: italy portraits europa europe italia sicily ritratti sicilia giardininaxos
license: 0
latitude: 37.82931
longitude: 15.268592
accuracy: 11
views: 31
interestingness: 21 out of 10

photo: 6446860465 6fc404902c 7146
owner: 28539365@N04
title: On the Edge of the Abyss - Rte 864 - Iceland
originalsecret: null
originalformat: null
o_height: null
o_width: null
datetaken: 2011-08-04 17:39:39
dateupload: 1322924082
tags: waterfall iceland power deep falling workshop lee edge powerful dettifoss abyss bottomless gndfilter leefilter nonaceos vatnaj?kullnationalpark
license: 0
latitude: 65.815244
longitude: -16.383806
accuracy: 16
views: 77
interestingness: 22 out of 10

photo: 6434383543 63cab3b34a 7159
owner: 23434307@N02
title: DXB5166
originalsecret: null
originalformat: null
o_height: null
o_width: null
datetaken: 2011-10-16 23:23:59
dateupload: 1322710696
tags: 
license: 0
latitude: -41.268001
longitude: 174.783897
accuracy: 13
views: 57
interestingness: 23 out of 10

photo: 6479318663 7aa86346ae 7016
owner: 49511688@N04
title: THE RED PONY >      Y Merlod coch
originalsecret: f10897cc71
originalformat: jpg
o_height: 1800
o_width: 1200
datetaken: 2011-12-05 09:10:21
dateupload: 1323389164
tags: wales pony welshpony mountainpony redpony baypony
license: 0
latitude: 51.5664
longitude: -3.353576
accuracy: 10
views: 44
interestingness: 24 out of 10

photo: 6448919383 9670bc99d3 7023
owner: 44793175@N04
title: Three Ways
originalsecret: 6ae79bf12d
originalformat: jpg
o_height: 2848
o_width: 4288
datetaken: 2011-12-03 14:16:42
dateupload: 1322949812
tags: sea sky cloud ferry waves isleofwight solent ryde nikkorlens nikond300 twjp
license: 0
latitude: 50.790093
longitude: -1.108417
accuracy: 15
views: 17
interestingness: 25 out of 10

photo: 6445345631 73168c35d3 7170
owner: 95492938@N00
title: Words Of Wisdom
originalsecret: fe83e528b1
originalformat: jpg
o_height: 3072
o_width: 2304
datetaken: 2011-12-03 12:21:16
dateupload: 1322894007
tags: gay sign march message politics rally sydney australia rights lgbt bible hydepark equalrights proverbs marriageequality kaptainkobold 3rddecember laborparty yourfave protext
license: 1
latitude: -33.870602
longitude: 151.212065
accuracy: 15
views: 47
interestingness: 26 out of 10

photo: 6474467075 6656e4207b 7168
owner: 37756131@N02
title: Arrivederci Firenze
originalsecret: null
originalformat: null
o_height: null
o_width: null
datetaken: 2011-10-30 18:44:01
dateupload: 1323307214
tags: italy panorama night river florence twilight italia perspective campanile tuscany florencia nocturna firenze bluehour duomo arno toscana pontevecchio crep?sculo santacroce palazzovecchio panor?mica piazzalemichelangelo fiumearno ponteallegrazie corridoiovasariano piazzalemichelangiolo horaazul 5x1vertical
license: 3
latitude: 43.762408
longitude: 11.264752
accuracy: 16
views: 56
interestingness: 27 out of 10

photo: 6456894929 a416035171 7163
owner: 50042777@N02
title: 50 years ago
originalsecret: null
originalformat: null
o_height: null
o_width: null
datetaken: 2011-08-14 12:35:10
dateupload: 1323051461
tags: 
license: 0
latitude: 43.161366
longitude: -79.245071
accuracy: 10
views: 48
interestingness: 28 out of 10

photo: 6478771187 71e065250b 7015
owner: 65772092@N06
title: towards the light - para a luz
originalsecret: 054e29bcf1
originalformat: jpg
o_height: 639
o_width: 800
datetaken: 2009-03-31 17:49:46
dateupload: 1323380622
tags: portugal church lisboa lisbon kirche cloister lissabon kreuzgang mosteirodosj?ronimos jer?nimosmonastery bel?m hieronymuskloster manuelism manuelinik
license: 0
latitude: 38.69797
longitude: -9.206006
accuracy: 15
views: 10
interestingness: 29 out of 10

photo: 6445103007 2e4168983b 7172
owner: 28539365@N04
title: Dettifoss, the Most Powerful Waterfall in Europe V - Rte 864 - Iceland
originalsecret: null
originalformat: null
o_height: null
o_width: null
datetaken: 2011-08-04 17:38:08
dateupload: 1322889262
tags: waterfall iceland power workshop lee powerful dettifoss gndfilter leefilter nonaceos vatnaj?kullnationalpark
license: 0
latitude: 65.815244
longitude: -16.383806
accuracy: 16
views: 44
interestingness: 30 out of 10

photo: 6452053741 7178c9a6d9 7170
owner: 40873058@N00
title: crested serpent eagle juvenile
originalsecret: null
originalformat: null
o_height: null
o_width: null
datetaken: 2011-12-03 11:46:46
dateupload: 1322999335
tags: 
license: 0
latitude: 12.751032
longitude: 77.330703
accuracy: 11
views: 11
interestingness: 31 out of 10

photo: 6479283587 2f99c361d3 7026
owner: 54519541@N04
title: 1933 Dusenberg SJ
originalsecret: 18c2698e01
originalformat: jpg
o_height: 499
o_width: 800
datetaken: 2011-01-30 20:39:17
dateupload: 1323388557
tags: california la losangeles socal lax southerncalifornia wilshire wilshireblvd petersen petersenautomotivemuseum petersenmuseum 6060 6060wilshireblvd socalmuseum 1933dusenbergsj 1933dusenberg 1933dusenbergsjconvertiblecoupe 1933dusenbergsjconvertible 1933dusenbergsjconvertiblebymurphy
license: 0
latitude: 34.06253
longitude: -118.361179
accuracy: 16
views: 13
interestingness: 32 out of 10

photo: 6481189789 503ef81671 7002
owner: 43569344@N06
title: Sleeping Swans
originalsecret: b057a1866c
originalformat: jpg
o_height: 933
o_width: 1400
datetaken: 2011-12-09 09:45:43
dateupload: 1323427042
tags: sleeping beauty birds swans pollution environment oildrum paxtonpits sigma120400mm
license: 0
latitude: 52.250295
longitude: -0.251483
accuracy: 12
views: 13
interestingness: 33 out of 10

photo: 6450270687 71339c18ac 7032
owner: 71077941@N02
title: Ice Surfer
originalsecret: null
originalformat: null
o_height: null
o_width: null
datetaken: 2007-01-01 00:00:00
dateupload: 1322968598
tags: travel feet ice island penguin ross surfer antarctica surfing rossisland adelie adeliepenguin flickrtravelaward
license: 0
latitude: -66.089364
longitude: -62.929687
accuracy: 1
views: 24
interestingness: 34 out of 10

photo: 6446684189 03be95f5f3 7170
owner: 59009904@N04
title: Wisconsin River Spillway
originalsecret: e26d4da5be
originalformat: jpg
o_height: 480
o_width: 640
datetaken: 1980-01-01 00:00:27
dateupload: 1322921485
tags: blue water river flow powerful
license: 0
latitude: 44.512176
longitude: -89.5372
accuracy: 9
views: 20
interestingness: 35 out of 10

photo: 6447934419 e4c8ff2c27 7026
owner: 35477558@N04
title: JU-87
originalsecret: 96e7521316
originalformat: jpg
o_height: 2000
o_width: 3008
datetaken: 2011-03-20 02:23:37
dateupload: 1322937382
tags: canada museum model aviation dive manitoba german western ww2 bomber junkers ju87
license: 3
latitude: 49.895878
longitude: -97.221729
accuracy: 14
views: 36
interestingness: 36 out of 10

photo: 6461003055 8650081b57 7166
owner: 61997941@N00
title: Late rose
originalsecret: null
originalformat: null
o_height: null
o_width: null
datetaken: 2011-12-05 11:27:54
dateupload: 1323155614
tags: pink rose germany town december jena thuringia strong fading powerful lasting
license: 0
latitude: 50.932685
longitude: 11.585941
accuracy: 11
views: 12
interestingness: 37 out of 10

photo: 6475969375 61b781f5b0 7157
owner: 8981098@N07
title: Bou Inania medersa.
originalsecret: eb1182b8eb
originalformat: jpg
o_height: 2516
o_width: 1887
datetaken: 2011-10-12 18:35:29
dateupload: 1323335905
tags: africa travel canon geotagged minaret mosque morocco fez maroc fes peregrin medressa f?selbali medrasa medersabouinania alma?rib ???????????? lindadevolder powershotsx30 f?zelbali
license: 0
latitude: 34.051877
longitude: -5.002384
accuracy: 12
views: 8
interestingness: 38 out of 10

photo: 6446807757 0965d39448 7007
owner: 35365070@N08
title: Powerful
originalsecret: 8d37b05aed
originalformat: jpg
o_height: 930
o_width: 789
datetaken: 2011-11-26 12:18:10
dateupload: 1322923334
tags: black colour face muscles fur gorilla paigntonzoo poweful
license: 0
latitude: 50.438921
longitude: -3.560943
accuracy: 11
views: 9
interestingness: 39 out of 10

photo: 6452537767 fa76bb66ed 7144
owner: 43732391@N00
title: The beautiful lady
originalsecret: a78707d208
originalformat: jpg
o_height: 1279
o_width: 1707
datetaken: 2011-12-03 15:51:13
dateupload: 1323006081
tags: italy portraits europa europe italia sicily ritratti sicilia giardininaxos
license: 0
latitude: 37.828904
longitude: 15.266876
accuracy: 11
views: 33
interestingness: 40 out of 10

photo: 6474860679 632ed2ded7 7170
owner: 73009531@N00
title: IkonVisuals1778
originalsecret: null
originalformat: null
o_height: null
o_width: null
datetaken: 2011-10-29 00:22:31
dateupload: 1323313669
tags: portrait woman sexy feet girl beautiful tattoo flesh female dark asian spread model breasts toes sitting skin fierce sensual mysterious barefeet sultry emotional cleavage lowkey seductive powerful indonesian malay alluring longlegs legsspread canon400d
license: 0
latitude: 1.450641
longitude: 103.814245
accuracy: 16
views: 208
interestingness: 41 out of 10

photo: 6436913007 03130ea2f9 7008
owner: 43732391@N00
title: Anagni (FR) - Vicolo Menchi
originalsecret: 443ba9f3c1
originalformat: jpg
o_height: 1536
o_width: 2048
datetaken: 2011-10-03 08:49:25
dateupload: 1322757351
tags: italy europa europe italia lazio frosinone latium ciociaria
license: 0
latitude: 41.744164
longitude: 13.162307
accuracy: 10
views: 31
interestingness: 42 out of 10

photo: 6452538739 d9b238cc6a 7019
owner: 35715563@N04
title: P&WV Fairbanks Morse H-20-44 on Western Maryland bridge at Wheeler Bottom
originalsecret: 8147d1d2b1
originalformat: jpg
o_height: 322
o_width: 546
datetaken: 2011-12-04 10:11:35
dateupload: 1323006095
tags: county west virginia pittsburgh pennsylvania bottom maryland penn western wheeler bo fayette bowest
license: 0
latitude: 39.994465
longitude: -79.596462
accuracy: 16
views: 45
interestingness: 43 out of 10

photo: 6440724041 dfbf024b3a 7157
owner: 8229764@N02
title: God Of Ducks
originalsecret: a5f7a7ce86
originalformat: jpg
o_height: 2848
o_width: 4272
datetaken: 2011-12-01 14:01:58
dateupload: 1322818041
tags: canada bird george duck bc britishcolumbia c ducks parade migratory sanctuary ladner reifel westhamisland
license: 4
latitude: 49.098283
longitude: -123.179064
accuracy: 16
views: 17
interestingness: 44 out of 10

photo: 6469892125 8014e2cbc2 7024
owner: 26260636@N07
title: HAWORTH - Railway Station
originalsecret: a87522dbbb
originalformat: jpg
o_height: 1944
o_width: 2592
datetaken: 2011-12-01 17:12:39
dateupload: 1323233727
tags: uk greatbritain england station britain yorkshire north rail railway bahnhof angleterre gar yorkshiredales anglia haworth gara 2011
license: 0
latitude: 53.831279
longitude: -1.948227
accuracy: 16
views: 8
interestingness: 45 out of 10

photo: 6458231047 7fe2a61cc4 7160
owner: 73009531@N00
title: IkonVisuals1765
originalsecret: null
originalformat: null
o_height: null
o_width: null
datetaken: 2011-10-29 00:22:14
dateupload: 1323068397
tags: portrait woman sexy feet girl beautiful tattoo flesh female dark asian spread model breasts toes sitting skin fierce sensual mysterious barefeet sultry emotional cleavage lowkey seductive powerful indonesian malay alluring longlegs legsspread canon400d
license: 0
latitude: 1.450625
longitude: 103.814245
accuracy: 16
views: 224
interestingness: 46 out of 10

photo: 6452538513 35f069a151 7151
owner: 43732391@N00
title: The beautiful girl
originalsecret: 4eb70560f5
originalformat: jpg
o_height: 984
o_width: 1383
datetaken: 2011-12-03 15:54:00
dateupload: 1323006092
tags: italy portraits europa europe italia sicily ritratti sicilia giardininaxos
license: 0
latitude: 37.82931
longitude: 15.267562
accuracy: 11
views: 28
interestingness: 47 out of 10

photo: 6449013677 4b841b797d 7146
owner: 24359997@N06
title: Arc de Triomphe
originalsecret: null
originalformat: null
o_height: null
o_width: null
datetaken: 2011-10-15 19:34:19
dateupload: 1322950936
tags: city trip travel blue vacation sky sculpture holiday paris france building art history cars tourism monument circle de dawn lights golden town nikon warm traffic symbol dusk capital arc triomphe spot tourist hour mm tones monumental 18105 alen d90 ajan
license: 0
latitude: 48.873762
longitude: 2.295198
accuracy: 14
views: 25
interestingness: 48 out of 10

photo: 6467570371 2fc4713175 7171
owner: 12549947@N04
title: Budge it, nudge it.
originalsecret: null
originalformat: null
o_height: null
o_width: null
datetaken: 2011-12-04 11:49:28
dateupload: 1323201515
tags: hamburgdecemberchristmasweihnachtencanon7dgermany
license: 0
latitude: 53.542143
longitude: 9.972152
accuracy: 14
views: 5
interestingness: 49 out of 10

photo: 6477938637 7a1eb40369 7022
owner: 57669468@N00
title: Sports Car
originalsecret: 87935b9bbb
originalformat: jpg
o_height: 2031
o_width: 3296
datetaken: 2011-12-08 13:27:59
dateupload: 1323377120
tags: red italy franklin italian fiat spyder sportscar
license: 0
latitude: 42.520612
longitude: -83.28716
accuracy: 15
views: 15
interestingness: 50 out of 10

photo: 6443524235 7e2e82d036 7005
owner: 77141600@N00
title: Flying Tank
originalsecret: c4ba636f9f
originalformat: jpg
o_height: 1996
o_width: 2983
datetaken: 2010-10-16 18:18:40
dateupload: 1322862288
tags: bird animal raw dinosaur reptile australia aves pacificocean newsouthwales tetrapod animalia lari wollongong vertebrate skua reptilia charadriiformes theropoda dinosauria saurian chordate chordata metazoa bilateria deuterostomia craniata vertebrata gnathostomata teleostomi osteichthyes sarcopterygii tetrapoda amniota romeriida diapsida archosauromorpha archosauria saurischia coelurosauria maniraptora euornithes neornithes sauria pelagictrip eukaryote sossa brownskua eukaryota neoaves stercorarius deuterostome neognathae archosaur teleost stercorariidae amniote stercorariusantarcticus craniate antarcticskua wollongongpelagic diapsid southernskua charadriiform reptiliomorpha dvocphotocontest birdscategory unikont opisthokont southernoceansseabirdstudyassociation thesandrak southerngreatskua ha?koakoa
license: 0
latitude: -34.445423
longitude: 150.986824
accuracy: 16
views: 19
interestingness: 51 out of 10

photo: 6450166979 b729950f0c 7150
owner: 10139097@N02
title: End of the day
originalsecret: 69087fae67
originalformat: jpg
o_height: 1296
o_width: 1944
datetaken: 2011-11-20 15:31:06
dateupload: 1322966915
tags: ohio bus john bill kent kevin dad unit2345 unit6738
license: 0
latitude: 41.151895
longitude: -81.372717
accuracy: 16
views: 7
interestingness: 52 out of 10

photo: 6475498147 117aefaaac 7163
owner: 43732391@N00
title: Sorge una nuova alba
originalsecret: 5755eaa5b8
originalformat: jpg
o_height: 1536
o_width: 2048
datetaken: 2011-12-03 07:17:32
dateupload: 1323324922
tags: sicily taormina
license: 0
latitude: 37.856422
longitude: 15.291252
accuracy: 11
views: 16
interestingness: 53 out of 10

photo: 6457328817 b81637b680 7013
owner: 46848480@N00
title: Stone Plover
originalsecret: null
originalformat: null
o_height: null
o_width: null
datetaken: 2011-12-03 00:00:02
dateupload: 1323056144
tags: birds wildlife migratory kaveri sanctuary islets cauvery birdparadise stoneplover ranganthittubirdsanctuary drsalimali avianbreedinggrounds riversidenestingsitesforbirds
license: 0
latitude: 12.424171
longitude: 76.701403
accuracy: 16
views: 20
interestingness: 54 out of 10

photo: 6476979409 b50cacaae2 7008
owner: 61113806@N05
title: The Luxor & Mandalay Bay
originalsecret: null
originalformat: null
o_height: null
o_width: null
datetaken: 2011-09-06 13:59:13
dateupload: 1323355643
tags: city longexposure vegas light moon dice gambling money craps sign sphinx architecture night digital canon buildings cards eos rebel hotel power desert pyramid lasvegas nevada ace rich fame entrance casino structure resort poker palmtree moonlight thestrip roulette tall mandalaybay luxor powerful slots greed blackjack wealth slotmachine gambler carrottop 2011 crissangel luxorhotelandcasino xti
license: 0
latitude: 36.095918
longitude: -115.173336
accuracy: 16
views: 10
interestingness: 55 out of 10

photo: 6471611751 966e3d17a3 7163
owner: 46848480@N00
title: Stone Plover keeping a wary eye on the Marsh Crocodile
originalsecret: null
originalformat: null
o_height: null
o_width: null
datetaken: 2011-12-07 19:46:59
dateupload: 1323267419
tags: islets mugger migratorybirds marshcrocodile birdparadise stoneplover cauveryriver birdssanctuary ranganthittubirdsanctuary drsalimali avianbreedinggrounds riversidenestingsitesforbirds kaveriwildlife
license: 0
latitude: 12.423815
longitude: 76.703474
accuracy: 15
views: 9
interestingness: 56 out of 10

photo: 6469895871 60d598e164 7155
owner: 26260636@N07
title: HAWORTH - Railway Station
originalsecret: b8c0f92b6f
originalformat: jpg
o_height: 2319
o_width: 1739
datetaken: 2011-12-01 17:16:48
dateupload: 1323233782
tags: uk greatbritain england station britain yorkshire north rail railway bahnhof angleterre gar yorkshiredales anglia haworth gara 2011
license: 0
latitude: 53.831402
longitude: -1.948539
accuracy: 16
views: 0
interestingness: 57 out of 10

photo: 6467313731 58732ffb3a 7018
owner: 46848480@N00
title: Stone Plovers
originalsecret: null
originalformat: null
o_height: null
o_width: null
datetaken: 2011-12-03 00:01:43
dateupload: 1323198351
tags: river islets cauvery migratorybirds birdparadise stoneplover birdssanctuary ranganthittubirdsanctuary drsalimali avianbreedinggrounds riversidenestingsitesforbirds kaveriwildlife
license: 0
latitude: 12.423521
longitude: 76.703109
accuracy: 15
views: 2
interestingness: 58 out of 10

photo: 6467284709 ce8fb6070d 7172
owner: 46848480@N00
title: Black Headed Ibis & Stone Plover & the Indian Pond Heron
originalsecret: null
originalformat: null
o_height: null
o_width: null
datetaken: 2011-12-03 00:01:27
dateupload: 1323198005
tags: river blackheadedibis islets indianpondheron cauvery migratorybirds birdparadise stoneplover birdssanctuary ranganthittubirdsanctuary drsalimali avianbreedinggrounds riversidenestingsitesforbirds kaveriwildlife
license: 0
latitude: 12.423521
longitude: 76.703109
accuracy: 15
views: 1
interestingness: 59 out of 10

photo: 6451840661 91345c6a3c 7023
owner: 28524283@N07
title: Church of Our Lady Before Tyn
originalsecret: null
originalformat: null
o_height: null
o_width: null
datetaken: 2011-11-29 14:34:44
dateupload: 1322995682
tags: old autumn houses roof our sky house cold history church water lamp statue architecture lady canon buildings river square graffiti j town photo concert movement opera catholic photographer czech prague spires gothic steps tram praha before gas ii memory revolution 5d classical lamps roads baroque vltava revolt mk tyn glynne pritchard jesuits 1385 beggers chr?m hussites t?nsk?
license: 0
latitude: 50.087037
longitude: 14.42065
accuracy: 15
views: 9
interestingness: 60 out of 10

photo: 6449253131 ac26b633fa 7009
owner: 92607898@N00
title: CC4K Dec3rd: Joke So Powerful It Can STOP TIME
originalsecret: 3ac862ffaf
originalformat: jpg
o_height: 3000
o_width: 4000
datetaken: 2011-12-03 14:21:38
dateupload: 1322954098
tags: show bar comedy audience live grin onstage comedian stageset sohotheatre comedy4kids comedyclub4kids matthighton matthewhighton
license: 3
latitude: 51.514124
longitude: -0.133037
accuracy: 15
views: 7
interestingness: 61 out of 10

photo: 6445030867 00d9d36ebc 7030
owner: 31864021@N08
title: Titi ? muttonbird ? sooty shearwater ? Puffinus griseus
originalsecret: null
originalformat: null
o_height: null
o_width: null
datetaken: 2011-11-08 17:48:56
dateupload: 1322887907
tags: cruise bird nature canon wildlife shearwater titi seabird muttonbird puffinus puffinusgriseus sootyshearwater
license: 0
latitude: -44.530779
longitude: 166.821899
accuracy: 8
views: 2
interestingness: 62 out of 10

photo: 6445029453 e217555701 7161
owner: 31864021@N08
title: Titi ? muttonbird ? sooty shearwater ? Puffinus griseus
originalsecret: null
originalformat: null
o_height: null
o_width: null
datetaken: 2011-11-08 17:46:00
dateupload: 1322887880
tags: cruise bird nature canon wildlife shearwater titi seabird muttonbird puffinus puffinusgriseus sootyshearwater
license: 0
latitude: -44.530779
longitude: 166.821899
accuracy: 8
views: 2
interestingness: 63 out of 10

photo: 6445028291 be1e4fc074 7025
owner: 31864021@N08
title: Titi ? muttonbird ? sooty shearwater ? Puffinus griseus
originalsecret: null
originalformat: null
o_height: null
o_width: null
datetaken: 2011-11-08 17:40:42
dateupload: 1322887858
tags: cruise bird nature canon wildlife shearwater titi seabird muttonbird puffinus puffinusgriseus sootyshearwater
license: 0
latitude: -44.530779
longitude: 166.821899
accuracy: 8
views: 1
interestingness: 64 out of 10

photo: 6445026871 3f1edf9864 7007
owner: 31864021@N08
title: Titi ? muttonbird ? sooty shearwater ? Puffinus griseus
originalsecret: null
originalformat: null
o_height: null
o_width: null
datetaken: 2011-11-08 17:33:12
dateupload: 1322887833
tags: cruise bird nature canon wildlife shearwater titi seabird muttonbird puffinus puffinusgriseus sootyshearwater
license: 0
latitude: -44.530779
longitude: 166.821899
accuracy: 8
views: 1
interestingness: 65 out of 10

photo: 6445025247 b8e2218041 7174
owner: 31864021@N08
title: Titi ? muttonbird ? sooty shearwater ? Puffinus griseus
originalsecret: null
originalformat: null
o_height: null
o_width: null
datetaken: 2011-11-08 14:14:27
dateupload: 1322887804
tags: cruise bird nature canon wildlife shearwater titi seabird muttonbird puffinus puffinusgriseus sootyshearwater
license: 0
latitude: -44.530779
longitude: 166.821899
accuracy: 8
views: 2
interestingness: 66 out of 10

photo: 6445024699 784a12560e 7020
owner: 31864021@N08
title: Titi ? muttonbird ? sooty shearwater ? Puffinus griseus
originalsecret: null
originalformat: null
o_height: null
o_width: null
datetaken: 2011-11-08 12:41:43
dateupload: 1322887795
tags: cruise bird nature canon wildlife shearwater titi seabird muttonbird puffinus puffinusgriseus sootyshearwater
license: 0
latitude: -44.530779
longitude: 166.821899
accuracy: 8
views: 1
interestingness: 67 out of 10

photo: 6445023993 14b92d883d 7174
owner: 31864021@N08
title: Titi ? muttonbird ? sooty shearwater ? Puffinus griseus
originalsecret: null
originalformat: null
o_height: null
o_width: null
datetaken: 2011-11-08 12:41:33
dateupload: 1322887782
tags: cruise bird nature canon wildlife shearwater titi seabird muttonbird puffinus puffinusgriseus sootyshearwater
license: 0
latitude: -44.530779
longitude: 166.821899
accuracy: 8
views: 1
interestingness: 68 out of 10

photo: 6445022415 b0141663a4 7175
owner: 31864021@N08
title: Titi ? muttonbird ? sooty shearwater ? Puffinus griseus
originalsecret: null
originalformat: null
o_height: null
o_width: null
datetaken: 2011-11-06 19:37:29
dateupload: 1322887753
tags: cruise bird nature canon wildlife shearwater titi seabird muttonbird puffinus puffinusgriseus sootyshearwater
license: 0
latitude: -44.530779
longitude: 166.821899
accuracy: 8
views: 1
interestingness: 69 out of 10

photo: 6445021247 800df51d24 7002
owner: 31864021@N08
title: Titi ? muttonbird ? sooty shearwater ? Puffinus griseus
originalsecret: null
originalformat: null
o_height: null
o_width: null
datetaken: 2011-11-06 19:26:06
dateupload: 1322887733
tags: cruise bird nature canon wildlife shearwater titi seabird muttonbird puffinus puffinusgriseus sootyshearwater
license: 0
latitude: -44.530779
longitude: 166.821899
accuracy: 8
views: 2
interestingness: 70 out of 10

photo: 6445020659 2a526d11b6 7020
owner: 31864021@N08
title: Titi ? muttonbird ? sooty shearwater ? Puffinus griseus
originalsecret: null
originalformat: null
o_height: null
o_width: null
datetaken: 2011-11-06 19:25:58
dateupload: 1322887723
tags: cruise bird nature canon wildlife shearwater titi seabird muttonbird puffinus puffinusgriseus sootyshearwater
license: 0
latitude: -44.530779
longitude: 166.821899
accuracy: 8
views: 2
interestingness: 71 out of 10

photo: 6439659493 c6640fd0f6 7003
owner: 64464890@N07
title: Grey Heron (Ardea cinerea)
originalsecret: null
originalformat: null
o_height: null
o_width: null
datetaken: 2010-12-20 11:33:19
dateupload: 1322796599
tags: africa white fish black bird heron neck grey bill asia europe long head large off ardea ghana frogs tern sanctuary colder rajasthan bittern bharatpur resident regions snipes cinerea keoladeo sshaped
license: 0
latitude: 27.180286
longitude: 77.512664
accuracy: 11
views: 0
interestingness: 72 out of 10

photo: 6474710695 4495f81046 7004
owner: 70396338@N00
title: Mike van Graan delivers a powerful message in the panel session "Outside the Comfort Zone"
originalsecret: e7854fecd2
originalformat: jpg
o_height: 2400
o_width: 3600
datetaken: 2011-10-05 11:57:02
dateupload: 1323311235
tags: vic day3 aus keynote speakers melbourneconventioncentre rudelyinterrupted 5thworldsummitonartsandculture
license: 0
latitude: -37.825378
longitude: 144.953012
accuracy: 14
views: 0
interestingness: 73 out of 10

photo: 6474707009 913a7c4516 7153
owner: 70396338@N00
title: Mike van Graan delivers a powerful message in the panel session "Outside the Comfort Zone"
originalsecret: 3f69bf0bf3
originalformat: jpg
o_height: 2400
o_width: 3600
datetaken: 2011-10-05 11:56:31
dateupload: 1323311176
tags: vic day3 aus keynote speakers melbourneconventioncentre rudelyinterrupted 5thworldsummitonartsandculture
license: 0
latitude: -37.825378
longitude: 144.953012
accuracy: 14
views: 0
interestingness: 74 out of 10

photo: 6469102515 8bc9b34f35 7142
owner: 33424113@N00
title: #HarlemRiverDrive is one most powerful albums I've ever heard. #waxpoetics #Latin
originalsecret: null
originalformat: null
o_height: null
o_width: null
datetaken: 2011-12-06 17:38:36
dateupload: 1323221916
tags: square squareformat earlybird iphoneography instagramapp uploaded:by=instagram foursquare:venue=423a1a00f964a52036201fe3
license: 0
latitude: 45.512149
longitude: -122.625214
accuracy: 16
views: 0
interestingness: 75 out of 10

photo: 6467551379 ab542247bd 7168
owner: 56619626@N05
title: Musicians at Occupy Wall Street
originalsecret: a65c1f3b77
originalformat: jpg
o_height: 1063
o_width: 1600
datetaken: 2011-10-30 13:15:50
dateupload: 1323201279
tags: musician newyork manhattan libertysquare 2011 zuccottipark occupywallstreet
license: 5
latitude: 40.709318
longitude: -74.011276
accuracy: 16
views: 38
interestingness: 76 out of 10

photo: 6467550727 5e903a7e81 7171
owner: 56619626@N05
title: Photographer at Occupy Wall Street
originalsecret: 73b56fbce8
originalformat: jpg
o_height: 1600
o_width: 1063
datetaken: 2011-10-30 13:15:41
dateupload: 1323201271
tags: newyork photographer manhattan libertysquare 2011 zuccottipark occupywallstreet
license: 5
latitude: 40.709318
longitude: -74.011276
accuracy: 16
views: 39
interestingness: 77 out of 10

photo: 6446983555 6c86fd1864 7142
owner: 83311527@N00
title: Cilgerran Castle, Nr Cardigan, Pembrokeshire
originalsecret: 4b08f14c0d
originalformat: jpg
o_height: 2592
o_width: 3872
datetaken: 2011-03-25 00:00:04
dateupload: 1322925772
tags: castle march 25 d200 2011 cilgerran pembrikwshire
license: 0
latitude: 52.052701
longitude: -4.62799
accuracy: 11
views: 4
interestingness: 78 out of 10

photo: 6467552529 8802254f10 7032
owner: 56619626@N05
title: BMW M5 (US)
originalsecret: 1ed4b2fe2c
originalformat: jpg
o_height: 1063
o_width: 1600
datetaken: 2011-11-18 20:24:55
dateupload: 1323201294
tags: losangeles f10 bmw m5 laautoshow 2011
license: 5
latitude: 34.041877
longitude: -118.269453
accuracy: 14
views: 12
interestingness: 79 out of 10

photo: 6467550383 f71a94bb02 7019
owner: 56619626@N05
title: Occupy Wall Street
originalsecret: 2a48db4563
originalformat: jpg
o_height: 1600
o_width: 1247
datetaken: 2011-10-30 13:04:07
dateupload: 1323201266
tags: newyork manhattan libertysquare 2011 zuccottipark occupywallstreet
license: 5
latitude: 40.709318
longitude: -74.011276
accuracy: 16
views: 36
interestingness: 80 out of 10

photo: 6437370603 9a16b0734a 7014
owner: 23525093@N07
title: "The most powerful weapon on earth is the human soul on fire." ~ Field Marshal Ferdinand Foch
originalsecret: 9837e59196
originalformat: jpg
o_height: 683
o_width: 1024
datetaken: 2011-11-26 04:27:42
dateupload: 1322763438
tags: blue sky beach sunrise twilight flames
license: 0
latitude: 42.427891
longitude: -70.979661
accuracy: 13
views: 14
interestingness: 81 out of 10

photo: 6444367549 9968a47507 7012
owner: 49072197@N02
title: Crashing Waves
originalsecret: null
originalformat: null
o_height: null
o_width: null
datetaken: 2011-11-25 13:10:13
dateupload: 1322876228
tags: beach waves pacificocean pacificcoasthighwaycalifornia
license: 0
latitude: 35.631885
longitude: -121.162773
accuracy: 16
views: 1
interestingness: 82 out of 10

photo: 6435052179 26992bc8dc 7163
owner: 70839015@N03
title: late autumn afternoon
originalsecret: null
originalformat: null
o_height: null
o_width: null
datetaken: 2011-11-30 23:51:17
dateupload: 1322722277
tags: light denver tabor 17thavenue
license: 0
latitude: 39.749631
longitude: -104.995651
accuracy: 14
views: 0
interestingness: 83 out of 10

photo: 6444366645 42c507c29f 7172
owner: 49072197@N02
title: Crashing Waves
originalsecret: null
originalformat: null
o_height: null
o_width: null
datetaken: 2011-11-25 13:07:32
dateupload: 1322876211
tags: beach waves pacificcoasthighwaycalifornia
license: 0
latitude: 35.631885
longitude: -121.162773
accuracy: 16
views: 2
interestingness: 84 out of 10

photo: 6479296767 fe0dc29f5d 7012
owner: 9298466@N03
title: Powerful stuff - War Horse @ New London Theatre (318/365)
originalsecret: 14f3976af7
originalformat: jpg
o_height: 2100
o_width: 1588
datetaken: 2011-12-08 22:24:31
dateupload: 1323388796
tags: 
license: 0
latitude: 51.515167
longitude: -0.1225
accuracy: 16
views: 0
interestingness: 85 out of 10

photo: 6465253751 fc0946a49b 7142
owner: 46848480@N00
title: Intermediate Egret and Stone Plovers
originalsecret: null
originalformat: null
o_height: null
o_width: null
datetaken: 2011-12-03 00:01:03
dateupload: 1323169519
tags: 
license: 0
latitude: 12.424019
longitude: 76.702337
accuracy: 16
views: 0
interestingness: 86 out of 10

photo: 6465252045 1480fcd045 7171
owner: 46848480@N00
title: Intermediate Egret and Stone Plovers
originalsecret: null
originalformat: null
o_height: null
o_width: null
datetaken: 2011-12-03 00:01:00
dateupload: 1323169480
tags: 
license: 0
latitude: 12.424019
longitude: 76.702337
accuracy: 16
views: 1
interestingness: 87 out of 10

photo: 6465251577 b3f3e56710 7147
owner: 46848480@N00
title: Intermediate Egret and a couple of Stone Plovers
originalsecret: null
originalformat: null
o_height: null
o_width: null
datetaken: 2011-12-03 00:00:59
dateupload: 1323169470
tags: 
license: 0
latitude: 12.424019
longitude: 76.702337
accuracy: 16
views: 1
interestingness: 88 out of 10

photo: 6465250867 bcf79f5e23 7146
owner: 46848480@N00
title: Intermediate Egret and a couple of Stone Plovers
originalsecret: null
originalformat: null
o_height: null
o_width: null
datetaken: 2011-12-03 00:00:58
dateupload: 1323169454
tags: 
license: 0
latitude: 12.424019
longitude: 76.702337
accuracy: 16
views: 6
interestingness: 89 out of 10

photo: 6463236845 21713c5904 7003
owner: 7903090@N06
title: SPAD S.XIII
originalsecret: null
originalformat: null
o_height: null
o_width: null
datetaken: 2011-11-26 14:59:42
dateupload: 1323135653
tags: 
license: 0
latitude: 33.435649
longitude: -112.005765
accuracy: 15
views: 0
interestingness: 90 out of 10

photo: 6459619221 d97f1a871d 7155
owner: 29515734@N04
title: Chaak's Wrath
originalsecret: null
originalformat: null
o_height: null
o_width: null
datetaken: 2009-12-15 17:35:42
dateupload: 1323093029
tags: 
license: 2
latitude: 20.247863
longitude: -89.64655
accuracy: 9
views: 18
interestingness: 91 out of 10

photo: 6452143323 e39050baa2 7031
owner: 29353381@N05
title: Bertha & Ethelbert
originalsecret: 9194237ce3
originalformat: jpg
o_height: 3000
o_width: 4000
datetaken: 2011-12-01 12:59:07
dateupload: 1323000687
tags: 
license: 0
latitude: 51.279145
longitude: 1.086122
accuracy: 15
views: 3
interestingness: 92 out of 10

photo: 6449442673 498970af2d 7026
owner: 8080806@N04
title: Scott's car
originalsecret: 53fe1b4539
originalformat: jpg
o_height: 2448
o_width: 3264
datetaken: 2011-12-02 17:23:32
dateupload: 1322956777
tags: 
license: 0
latitude: 28.649333
longitude: -81.1525
accuracy: 16
views: 3
interestingness: 93 out of 10

photo: 6437761393 58b803fff3 7143
owner: 68739465@N05
title: Melkein kuin voikukkanen
originalsecret: null
originalformat: null
o_height: null
o_width: null
datetaken: 2011-01-01 00:08:05
dateupload: 1322768843
tags: 
license: 0
latitude: 60.446995
longitude: 22.263954
accuracy: 16
views: 0
interestingness: 94 out of 10

photo: 6437711627 5377d654ee 7015
owner: 10216976@N05
title: Dettifoss
originalsecret: 7e536de32c
originalformat: jpg
o_height: 750
o_width: 1000
datetaken: 2011-12-01 20:35:42
dateupload: 1322769265
tags: 
license: 6
latitude: 65.750939
longitude: -16.358642
accuracy: 7
views: 6
interestingness: 95 out of 10

photo: 6447690257 12f75b9a3a 7149
owner: 43732391@N00
title: The sunrise of my new life (L'alba della mia nuova vita)
originalsecret: d40d7993b6
originalformat: jpg
o_height: 1536
o_width: 2048
datetaken: 2011-12-03 07:16:27
dateupload: 1322934421
tags: sea coast europa europe italia mare nike sicily coastline sicilia giardininaxos
license: 0
latitude: 37.829717
longitude: 15.269966
accuracy: 11
views: 127
interestingness: 96 out of 10

photo: 6452147147 c85dc05c04 7029
owner: 29353381@N05
title: Ethelbert
originalsecret: 0b8a897286
originalformat: jpg
o_height: 4000
o_width: 3000
datetaken: 2011-12-01 12:59:22
dateupload: 1323000745
tags: 
license: 0
latitude: 51.279199
longitude: 1.08608
accuracy: 15
views: 6
interestingness: 97 out of 10

photo: 6446833517 d620610681 7002
owner: 70668581@N03
title: Communist ruins
originalsecret: null
originalformat: null
o_height: null
o_width: null
datetaken: 2011-10-28 15:34:31
dateupload: 1322923709
tags: field germany europe saxony suburb geography stories landforms riesa saxonystory cityareas
license: 0
latitude: 51.30615
longitude: 13.312339
accuracy: 11
views: 5
interestingness: 98 out of 10

photo: 6463514755 dcd8edfd51 7028
owner: 31818133@N08
title: Yellowstone_Reflections09
originalsecret: null
originalformat: null
o_height: null
o_width: null
datetaken: 2011-12-05 20:41:45
dateupload: 1323139305
tags: sapphirepool yellowstonnationalpark
license: 0
latitude: 44.47967
longitude: -110.855026
accuracy: 11
views: 5
interestingness: 99 out of 10

photo: 6469935197 dab296a935 7030
owner: 36957700@N00
title: 2011-12-06_340_Super Taster
originalsecret: ddeef17e04
originalformat: jpg
o_height: 1200
o_width: 1600
datetaken: 2011-12-06 15:20:51
dateupload: 1323234414
tags: sign candid
license: 0
latitude: 32.250459
longitude: -110.909568
accuracy: 16
views: 6
interestingness: 100 out of 10

photo: 6464343849 fe93b304ea 7143
owner: 10845359@N02
title: Christmas Tree 3
originalsecret: 04825ef3d0
originalformat: jpg
o_height: 2304
o_width: 3456
datetaken: 2011-12-05 16:06:28
dateupload: 1323151181
tags: 
license: 4
latitude: 45.493562
longitude: -122.867295
accuracy: 15
views: 0
interestingness: 101 out of 10

photo: 6444205569 c883d981be 7167
owner: 56091178@N00
title: 2.5.11 Oshkosh Rally - Grand National #5 TIm Doehling
originalsecret: 043753d49e
originalformat: jpg
o_height: 1288
o_width: 1936
datetaken: 2011-02-05 14:13:58
dateupload: 1322873154
tags: 
license: 5
latitude: 44.026047
longitude: -88.519206
accuracy: 15
views: 2
interestingness: 102 out of 10

Total images queried: 10
