
mintime: 1322697600 maxtime: 1322809171.17
numimgs: 253
total pages: 2
visiting only 2 pages ( up to 500 images)
photo: 6437535465 cf062b9815 7153
owner: 41258884@N05
title: Lettieri
originalsecret: null
originalformat: null
o_height: null
o_width: null
datetaken: 2011-12-01 13:10:03
dateupload: 1322765732
tags: street people bw toronto reflection newspaper streetphotography read headlines 85mmstreetphotographycontest
license: 0
latitude: 43.670378
longitude: -79.390919
accuracy: 16
views: 1660
interestingness: 1 out of 253

photo: 6435388517 8955d962ec 7148
owner: 64881935@N06
title: The red fence
originalsecret: 0de033879f
originalformat: jpg
o_height: 667
o_width: 1000
datetaken: 2011-10-14 11:15:54
dateupload: 1322730075
tags: red metal canon fence reading dof bokeh depthoffield berkshire hff canon5dmkii 5dmkii fencefriday
license: 0
latitude: 51.456805
longitude: -0.967368
accuracy: 16
views: 322
interestingness: 2 out of 253

photo: 6306651341 c7e4129a12 6032
owner: 26405526@N00
title: dogs at an exhibition #1
originalsecret: null
originalformat: null
o_height: null
o_width: null
datetaken: 2011-11-02 20:55:46
dateupload: 1322736780
tags: blackandwhite bw dog square 11 exhibition hund sw ausstellung 1x1 quadratisch westlicht schwarzundweiss thelittledoglaughed canoneos50d schwarzundweis canonefs1585mmf3556isusm xxxwork wwwwestlichtat
license: 0
latitude: 48.201945
longitude: 16.341739
accuracy: 16
views: 170
interestingness: 3 out of 253

photo: 6437988365 b7a6bf64a7 7034
owner: 30829023@N03
title: All The Lights That Light The Way..........
originalsecret: null
originalformat: null
o_height: null
o_width: null
datetaken: 2011-11-01 19:06:53
dateupload: 1322771867
tags: uk longexposure england leaf unitedkingdom southbank embankment northbank lcw canon1022 lighttails londonboroughofsouthwark canon450d nd500 allthelightsthatlighttheway lightcraftworkshop
license: 0
latitude: 51.50465
longitude: -0.076025
accuracy: 16
views: 137
interestingness: 4 out of 253

photo: 6424079087 ba78b21977 7160
owner: 33062170@N08
title: iPod Shuffle2 - Because The Night
originalsecret: null
originalformat: null
o_height: null
o_width: null
datetaken: 2011-11-26 18:10:23
dateupload: 1322745900
tags: street camera uk winter portrait woman white girl smile fashion st lady female night dark hair manchester 50mm evening claire hands women focus soft dof bokeh box circles f14 coat teeth flash style smith off tony ring leopard blond shallow softbox tib hotpix tonysmith strobist bokehbokeh tonysmithhotpix
license: 0
latitude: 53.483251
longitude: -2.23583
accuracy: 15
views: 961
interestingness: 5 out of 253

photo: 6438239563 5de54911f9 7164
owner: 44436788@N03
title: ** Le soleil va se noyer dans le Saint-Laurent **
originalsecret: null
originalformat: null
o_height: null
o_width: null
datetaken: 2011-08-24 18:06:30
dateupload: 1322774994
tags: sunset sky cloud sun reflection soleil reflet ciel qu?bec nuage coucherdesoleil stlawrenceriver fleuvesaintlaurent naturesfinest coth supershot bej fantasticnature grandm?tis anawesomeshot flickraward lovely~lovelyphoto blinkagain
license: 0
latitude: 48.63171
longitude: -68.119178
accuracy: 11
views: 128
interestingness: 6 out of 253

photo: 6436531895 be820373da 7148
owner: 30989531@N06
title: Morning clouds in Ocean City, MD HDR
originalsecret: null
originalformat: null
o_height: null
o_width: null
datetaken: 2011-06-26 06:13:39
dateupload: 1322753519
tags: beach clouds photoshop nikon fisheye oceancity ocmd oceancitymaryland photomatix colorefex oceangallery oceancityboardwalk d700 nikond700 davedicello hdrexposed oceangalleryboardwalk
license: 0
latitude: 38.333245
longitude: -75.083849
accuracy: 16
views: 160
interestingness: 7 out of 253

photo: 6435681729 7d172f434e 7158
owner: 49927055@N08
title: ugly
originalsecret: 1c45746ef9
originalformat: jpg
o_height: 1900
o_width: 1267
datetaken: 2011-12-01 14:29:41
dateupload: 1322737127
tags: light brick film window set movie studio fire photography war shanghai bokeh burnt odc songjiang mimokhair
license: 0
latitude: 30.997181
longitude: 121.235389
accuracy: 11
views: 75
interestingness: 8 out of 253

photo: 6436389527 c9cb76b667 7026
owner: 21202660@N00
title: "I Only Go for the Cars"
originalsecret: d7470484e2
originalformat: jpg
o_height: 2000
o_width: 2000
datetaken: 2011-12-01 07:34:29
dateupload: 1322750069
tags: show ranch ladies girls hot car colorado db loveland bailey rod don custom budweiser goodguys
license: 0
latitude: 40.445183
longitude: -104.986896
accuracy: 12
views: 184
interestingness: 9 out of 253

photo: 6436337041 83a9109ba3 7035
owner: 31509777@N02
title: Guarrinza
originalsecret: null
originalformat: null
o_height: null
o_width: null
datetaken: 2011-06-30 14:49:08
dateupload: 1322749312
tags: trekking spain aragon caminhada pyrenees gr11 zuriza pireneus
license: 0
latitude: 42.860473
longitude: -0.707343
accuracy: 16
views: 86
interestingness: 10 out of 253

photo: 6435302861 37b727be44 7008
owner: 35159253@N04
title: Upwards, Sidewards
originalsecret: null
originalformat: null
o_height: null
o_width: null
datetaken: 2011-11-29 19:58:21
dateupload: 1322727926
tags: light sunset lines sand shadows roots curious mangroves itsgoodtoknow putingbagwis
license: 0
latitude: -36.902479
longitude: 174.876508
accuracy: 13
views: 122
interestingness: 11 out of 253

photo: 6438303739 e9bb0a8874 7150
owner: 28989801@N06
title: Dream of flying to the Moon
originalsecret: null
originalformat: null
o_height: null
o_width: null
datetaken: 2011-11-19 10:41:56
dateupload: 1322775817
tags: moon bondi blackwhite sydney australia dreaming deer nsw sculpturebythesea 2011 samyang nikon80200mmf28afd ericlam d7000 bluemonkey08 nikond7000 rokinon85mmf14
license: 0
latitude: -33.898026
longitude: 151.275601
accuracy: 13
views: 149
interestingness: 12 out of 253

photo: 6435837293 b74f2c6177 7009
owner: 60779584@N00
title: A Man with An Umbrella
originalsecret: 01595e7612
originalformat: jpg
o_height: 768
o_width: 833
datetaken: 2011-12-01 03:52:21
dateupload: 1322740341
tags: travel venice blackandwhite bw italy man 2004 umbrella bench reading glasses minoltaa1
license: 0
latitude: 45.43904
longitude: 12.327711
accuracy: 15
views: 143
interestingness: 13 out of 253

photo: 6434631125 0a710ddec4 7172
owner: 24513622@N07
title: Reading Room
originalsecret: null
originalformat: null
o_height: null
o_width: null
datetaken: 2011-11-14 11:34:00
dateupload: 1322714303
tags: wood old windows light window boston architecture photoshop table reading lights library room massachusetts historic read hdr photomatix cs5 topazadjust
license: 0
latitude: 42.312561
longitude: -71.088676
accuracy: 11
views: 61
interestingness: 14 out of 253

photo: 6437333371 56922f3149 7155
owner: 15719674@N06
title: BPL
originalsecret: null
originalformat: null
o_height: null
o_width: null
datetaken: 2011-09-08 15:01:41
dateupload: 1322762917
tags: boston canon eos reading books study 5d canon5d studying bostonpubliclibrary publiclibrary 1635 mark2 1635f28 5d2 5dmark2 canon5d2 canoneos5dmark2 canoneos5d2
license: 0
latitude: 42.3496
longitude: -71.077315
accuracy: 15
views: 70
interestingness: 15 out of 253

photo: 6435979633 21a694a34f 7159
owner: 39652005@N04
title: Tibetan Refugee Camp, Delhi
originalsecret: null
originalformat: null
o_height: null
o_width: null
datetaken: 2011-11-30 02:15:13
dateupload: 1322743208
tags: street portrait people mountains face eyes faces delhi expressions streetphotography tibet east elderly tibetan northeast himalayas streetportraits olddelhi majnukatila peoplephotography bestpictures toppictures tibetanculture tibetanrefugeecamp bestphotography delhiphotography himalyanrange kunalrajputphotography kunalrajput
license: 0
latitude: 28.643999
longitude: 77.091003
accuracy: 5
views: 67
interestingness: 16 out of 253

photo: 6436133095 2699c4a347 7175
owner: 34419668@N08
title: Eskilstuna, S?dermanland, Sweden
originalsecret: 70afb902af
originalformat: jpg
o_height: 692
o_width: 1024
datetaken: 1942-01-01 00:00:00
dateupload: 1322745950
tags: riksantikvarie?mbetet theswedishnationalheritageboard
license: 7
latitude: 59.377725
longitude: 16.516571
accuracy: 11
views: 690
interestingness: 17 out of 253

photo: 6433448315 0d374329c7 7006
owner: 27869077@N05
title: Whirlwind
originalsecret: null
originalformat: null
o_height: null
o_width: null
datetaken: 2011-11-24 00:46:09
dateupload: 1322770389
tags: love happiness karma kindness understanding makinout soulpatrol turntheheatup viewminder decembercraziness christmasmojomagic thelovelock thinkinaboutthehorizontalhula
license: 0
latitude: 41.909136
longitude: -87.675683
accuracy: 15
views: 155
interestingness: 18 out of 253

photo: 6433546815 d38038411c 7171
owner: 33564585@N02
title: Mesquite in the Mesquite Dunes
originalsecret: a0bcb75650
originalformat: jpg
o_height: 533
o_width: 800
datetaken: 2011-11-06 16:00:03
dateupload: 1322698274
tags: california ca shadow mountains gold nationalpark sand unitedstates desert dunes dune ngc mesquite deathvalley stovepipewells deathvalleynationalpark mesquitedunes
license: 0
latitude: 36.608391
longitude: -117.109348
accuracy: 16
views: 120
interestingness: 19 out of 253

photo: 6436315331 9ae7e6ee74 7015
owner: 53018678@N05
title: big hard sun
originalsecret: null
originalformat: null
o_height: null
o_width: null
datetaken: 2010-12-21 07:00:01
dateupload: 1322748995
tags: sky sunrise landscape dawn towers warmth revival
license: 0
latitude: 29.988095
longitude: -90.005836
accuracy: 11
views: 45
interestingness: 20 out of 253

photo: 6439747529 d22f993fc8 7150
owner: 57785371@N08
title: Christianity
originalsecret: null
originalformat: null
o_height: null
o_width: null
datetaken: 2011-12-01 21:51:16
dateupload: 1322797960
tags: cemetery louisiana thoughts
license: 0
latitude: 29.953689
longitude: -90.077713
accuracy: 11
views: 63
interestingness: 21 out of 253

photo: 6439757545 f4535d033f 7016
owner: 15948105@N00
title: If you're going to San Francisco... umm... Diego, be sure to wear some flowers in your hair...
originalsecret: null
originalformat: null
o_height: null
o_width: null
datetaken: 2011-12-01 17:32:41
dateupload: 1322798116
tags: street flowers sleeping dog field sign walking san funny bokeh guitar walk homeless jesus diego ground sd depth ashi occupy photowalking fachler occupysd
license: 0
latitude: 32.713951
longitude: -117.16228
accuracy: 14
views: 83
interestingness: 22 out of 253

photo: 6439325943 70db0b550d 7030
owner: 52294488@N00
title: MATHS
originalsecret: 2c26b177a7
originalformat: jpg
o_height: 3264
o_width: 4928
datetaken: 2011-12-01 17:17:13
dateupload: 1322790895
tags: home 35mm nikon mod w synth dslr 18 wes maths muz digi 2011 myfirstdslr myfirstnikon d5100 mylifechangingday
license: 6
latitude: 0.000000
longitude: 0.000000
accuracy: 16
views: 74
interestingness: 23 out of 253

photo: 6436126975 5e2b524621 7173
owner: 64829840@N00
title: Be careful about reading health books.  You may die of a misprint.  ~Mark Twain
originalsecret: 47e39c9c61
originalformat: jpg
o_height: 2312
o_width: 3016
datetaken: 2011-11-20 21:11:47
dateupload: 1322745846
tags: autumn leaves yellow photography reading leaf dof books health marktwain canonpowershot selectedcolor seasongreetingsdigital
license: 3
latitude: 45.503579
longitude: 9.948806
accuracy: 11
views: 50
interestingness: 24 out of 253

photo: 6436269995 117531f755 7175
owner: 51035725708@N01
title: Detail of the rose and the switch
originalsecret: null
originalformat: null
o_height: null
o_width: null
datetaken: 2011-10-22 12:03:50
dateupload: 1322748312
tags: pink red wallpaper muro verde green leaves amsterdam rose wall foglie painting switch mural decoration rosa rosso oudekerk decorazione pittura cartadaparati dipinto interruttore sootc pixelthis iphoneography
license: 0
latitude: 52.374
longitude: 4.8985
accuracy: 16
views: 74
interestingness: 25 out of 253

photo: 6436104565 99ceaf5aee 7154
owner: 34419668@N08
title: Stockholm, Uppland, Sweden
originalsecret: deb9230dab
originalformat: jpg
o_height: 713
o_width: 1024
datetaken: 1945-01-01 00:00:00
dateupload: 1322745448
tags: riksantikvarie?mbetet theswedishnationalheritageboard
license: 7
latitude: 59.327484
longitude: 18.055933
accuracy: 16
views: 425
interestingness: 26 out of 253

photo: 6437268609 deb8ac97b1 7146
owner: 48882304@N04
title: IMG_3071_2_3_Normandy, circa 1200?
originalsecret: 434602c3fa
originalformat: jpg
o_height: 4555
o_width: 3082
datetaken: 2011-11-25 11:55:26
dateupload: 1322762039
tags: park mountains tower canon observation island washington state watch mount constitution moran hdr orcas watchtower 3xp caucases 50d
license: 0
latitude: 48.678295
longitude: -122.831611
accuracy: 13
views: 27
interestingness: 27 out of 253

photo: 6438428355 8552ef2194 7013
owner: 39793483@N03
title: NGC2244 (The AstroTech RC setup saga continues ...)
originalsecret: null
originalformat: null
o_height: null
o_width: null
datetaken: 2011-12-01 16:38:40
dateupload: 1322777419
tags: rc paramount paramountme ha3nm astrotech10 fstl6303moagnarrowbandastrondon
license: 0
latitude: 40.769215
longitude: -73.903012
accuracy: 15
views: 50
interestingness: 28 out of 253

photo: 6435102677 99f8bd8181 7154
owner: 72203909@N00
title: Sleeping Beauty LXIV...
originalsecret: null
originalformat: null
o_height: null
o_width: null
datetaken: 2011-07-11 14:30:35
dateupload: 1322740800
tags: ireland sleeping people dublin woman man concrete reading pier nap sitting sleep read sleepy sit napping sleepingbeauty dunlaoghaire
license: 0
latitude: 53.293794
longitude: -6.128407
accuracy: 16
views: 99
interestingness: 29 out of 253

photo: 6439847301 0cf2e29769 7017
owner: 49220404@N06
title: Above and Beyond
originalsecret: 2c5b931441
originalformat: jpg
o_height: 1050
o_width: 829
datetaken: 2011-11-04 23:39:14
dateupload: 1322799539
tags: above streetart 1 streetartist arrows bankers streetartistabove
license: 0
latitude: 25.79537
longitude: -80.205023
accuracy: 15
views: 64
interestingness: 30 out of 253

photo: 6439886911 26af62d3f5 7147
owner: 54896858@N02
title: Kait in the Leaves
originalsecret: 14d601e212
originalformat: jpg
o_height: 800
o_width: 1000
datetaken: 2011-11-26 15:53:55
dateupload: 1322800227
tags: road lighting bridge autumn girls light portrait people color tree fall nature girl beautiful beauty smile leaves female rural forest canon pose landscape eos model pretty afternoon natural modeling pennsylvania gorgeous country posing foliage pa leroy berks berkscounty countypark kromis eos7d canoneos7d leroykromis lakimages kaithelm
license: 0
latitude: 40.282384
longitude: -75.948514
accuracy: 14
views: 114
interestingness: 31 out of 253

photo: 6435952345 f64f4aa949 7008
owner: 34419668@N08
title: Trondheim, S?r-Tr?ndelag, Norway
originalsecret: f983a0c016
originalformat: jpg
o_height: 687
o_width: 1024
datetaken: 1948-07-01 00:00:00
dateupload: 1322742688
tags: riksantikvarie?mbetet theswedishnationalheritageboard
license: 7
latitude: 63.430181
longitude: 10.397293
accuracy: 16
views: 195
interestingness: 32 out of 253

photo: 6436069373 f5bbb401e4 7027
owner: 34419668@N08
title: H?rn?sand, ?ngermanland, Sweden
originalsecret: ea4dbd73ce
originalformat: jpg
o_height: 703
o_width: 1024
datetaken: 1944-01-01 00:00:00
dateupload: 1322744838
tags: riksantikvarie?mbetet theswedishnationalheritageboard
license: 7
latitude: 62.63297
longitude: 17.940545
accuracy: 15
views: 238
interestingness: 33 out of 253

photo: 6439981571 e94a763249 7158
owner: 25208635@N02
title: I am Curious
originalsecret: 16ba6c4380
originalformat: jpg
o_height: 1000
o_width: 1500
datetaken: 2011-12-01 10:28:56
dateupload: 1322801966
tags: scale fun solar model space science system planet physics curious curiosity solarsystem odc ourdailychallenge
license: 0
latitude: 53.52823
longitude: -113.526148
accuracy: 15
views: 82
interestingness: 34 out of 253

photo: 6437007753 871525906d 7007
owner: 57757461@N02
title: 159/365: dutra highway.
originalsecret: null
originalformat: null
o_height: null
o_width: null
datetaken: 2011-11-24 12:33:20
dateupload: 1322758600
tags: brazil cars brasil highway driving saopaulo sp 365 dutra
license: 0
latitude: -23.463699
longitude: -46.495385
accuracy: 14
views: 29
interestingness: 35 out of 253

photo: 6439499705 1a70b88ed8 7156
owner: 11185080@N03
title: Incensed Heckler led away from  #n30 #strike Pensions Protest Preston Flag Market  - Too much of the  Daily Mail & that Murdoch comic The S** resulting in the long arm of the law
originalsecret: null
originalformat: null
o_height: null
o_width: null
datetaken: 2011-11-30 04:27:25
dateupload: 1322794060
tags: uk england bw english monochrome digital photoshop nikon zoom north wide sigma lancashire adobe 400 preston british 400asa lenses nikond1x black7white d1x alienskinexposure nikonsigma sigma1835mmf3545dasphericalautofocuszoom
license: 0
latitude: 53.758752
longitude: -2.699149
accuracy: 16
views: 83
interestingness: 36 out of 253

photo: 6434393593 2f7934391a 7162
owner: 25708357@N03
title: DSC_1500s Viandas y Escobas - Produce and Brooms
originalsecret: null
originalformat: null
o_height: null
o_width: null
datetaken: 2011-10-14 09:26:59
dateupload: 1322710845
tags: 
license: 0
latitude: 18.300974
longitude: -66.244329
accuracy: 16
views: 43
interestingness: 37 out of 253

photo: 6436030943 5ee6b443a0 7017
owner: 34419668@N08
title: Marstrand, Bohusl?n, Sweden
originalsecret: 8c5ae0d085
originalformat: jpg
o_height: 711
o_width: 1024
datetaken: 1948-08-01 00:00:00
dateupload: 1322744147
tags: riksantikvarie?mbetet theswedishnationalheritageboard
license: 7
latitude: 57.88787
longitude: 11.584739
accuracy: 16
views: 217
interestingness: 38 out of 253

photo: 6439895723 804520252d 7143
owner: 37871041@N02
title: [?] How to win a Photography Competition
originalsecret: null
originalformat: null
o_height: null
o_width: null
datetaken: 2011-09-16 06:03:30
dateupload: 1322800383
tags: international loupe awards insults professional editing clean photography panasonic gh2 canon fd lens 28mm f28 andy kaufman tony clifton win corrupt masters ford shelby cobra gt500 fake shonks unprofessional loopy westway
license: 0
latitude: -34.00749
longitude: 151.191959
accuracy: 13
views: 90
interestingness: 39 out of 253

photo: 6439362353 676e87f153 7014
owner: 53055958@N00
title: Enchanted Rock mosaic
originalsecret: null
originalformat: null
o_height: null
o_width: null
datetaken: 2011-12-01 18:07:28
dateupload: 1322791648
tags: statepark november cliff mountain vortex southwest west nature landscape outside outdoors nikon worship rocks texas power weekend south trails bluesky hike nativeamerican dome granite indians dslr hillcountry fredericksburg ancients scrub arid monoliths enchantedrock fredericksburgtexas pinkgranite windsong enchantedrockstatepark texasstatepark 2011 energyfields glowingrock tonkawa d80 worshipped nikond80 spiralenergy singingrock jensphotography llanouplift tonkawaindians metomorphic hydroenergylines condensedenergyfields thekeeperoftherock telluricenergyflow mayanleyline freshmandome triangleofenergy ayersrockofamerica
license: 0
latitude: 30.511769
longitude: -98.819231
accuracy: 14
views: 28
interestingness: 40 out of 253

photo: 6435016705 0cd2749e5e 7145
owner: 13385037@N00
title: Project365 : 335/365
originalsecret: 24848bbecf
originalformat: jpg
o_height: 3485
o_width: 5227
datetaken: 2011-12-01 13:10:43
dateupload: 1322721482
tags: old shop project quality butcher 365 clunes project365
license: 0
latitude: -37.295171
longitude: 143.786273
accuracy: 14
views: 55
interestingness: 41 out of 253

photo: 6436795289 1a688d2514 7027
owner: 38495287@N07
title: "reflect"
originalsecret: null
originalformat: null
o_height: null
o_width: null
datetaken: 2011-10-21 14:40:26
dateupload: 1322755782
tags: nature reflect sweetinspiration susankcase
license: 0
latitude: 36.272491
longitude: -121.811141
accuracy: 11
views: 19
interestingness: 42 out of 253

photo: 6437742583 9bfbae16b4 7012
owner: 29054731@N05
title: Grandfather reading
originalsecret: 322e680e19
originalformat: jpg
o_height: 3039
o_width: 4300
datetaken: 2011-12-01 16:29:12
dateupload: 1322768594
tags: old light man window 35mm person reading nikon low grandfather 18 d7000
license: 3
latitude: 45.131172
longitude: 10.02599
accuracy: 15
views: 34
interestingness: 43 out of 253

photo: 6437427429 ff1487c87f 7005
owner: 29648523@N05
title: Sikorsky VH-3A Sea King "Marine One"
originalsecret: 3a5100b1c9
originalformat: jpg
o_height: 1992
o_width: 3000
datetaken: 2011-10-02 16:59:14
dateupload: 1322764208
tags: usa usmc museum nikon unitedstates florida aircraft military navy helicopter usnavy marinecorps hdr pensacola seaking sikorsky marineone d40 nationalmuseumofnavalaviation naspensacola escambiacounty hmx1 150613 vh3a fisherbray
license: 0
latitude: 30.350851
longitude: -87.303006
accuracy: 16
views: 33
interestingness: 44 out of 253

photo: 6438494943 c6eaef0d6c 7168
owner: 67337573@N08
title: Lichen on fence surrounding the Burdett-Coutts Memorial Sundial, Old St. Pancras churchyard, London
originalsecret: 8eb370a702
originalformat: jpg
o_height: 1200
o_width: 1600
datetaken: 2011-11-26 13:18:38
dateupload: 1322778289
tags: england london graveyard gothic churchyard stpancras stpancraschurch hardytree oldstpancras oldstpancraschurchyard
license: 0
latitude: 51.534931
longitude: -0.13072
accuracy: 15
views: 22
interestingness: 45 out of 253

photo: 6434208793 7c326f68b3 7011
owner: 27418263@N06
title: 38/365: When You Are Old
originalsecret: null
originalformat: null
o_height: null
o_width: null
datetaken: 2011-11-30 18:54:19
dateupload: 1322708059
tags: old square poem sleep squareformat yeats inkwell williambutleryeats totw iphoneography instagramapp uploaded:by=instagram
license: 0
latitude: 37.91495
longitude: -122.307586
accuracy: 9
views: 13
interestingness: 46 out of 253

photo: 6435178259 75636cbf02 7160
owner: 38005629@N05
title: Relax, take it easy!
originalsecret: 582d6e6efd
originalformat: jpg
o_height: 3168
o_width: 4752
datetaken: 2010-09-05 15:53:29
dateupload: 1322725035
tags: oslo akerselva solsiden nydalen iphotoedited canonef50mmf25 compactmacro canon50d peoplefolkmenneskerhumans greengr?nngr?nt norwaynorwegiannorueganoruegonorwegennorgenorsk riverelvarroyo europeeuropeaneuropaeuropeiskeuropeo watervannaquaagua bluebl?bleublau colorcolourfargetintefarbe apartmentleilighet readles sunbathingsoler
license: 0
latitude: 59.947284
longitude: 10.765303
accuracy: 16
views: 17
interestingness: 47 out of 253

photo: 6435612697 c70c1c0b68 7153
owner: 69505063@N05
title: Louise Stephanie I : The Best of Brussels Luxury Apartments
originalsecret: null
originalformat: null
o_height: null
o_width: null
datetaken: 2011-12-01 04:33:47
dateupload: 1322735627
tags: apartments belgium rentals brusselsluxuryapartments brusselsapartmentrentals apartmentsforrentinbrusselsapartmentsrentalstobelgium
license: 0
latitude: 50.848381
longitude: 4.349679
accuracy: 11
views: 123
interestingness: 48 out of 253

photo: 6438123809 9fca0b2593 7008
owner: 25937899@N00
title: Man reads at Old Country Buffet
originalsecret: null
originalformat: null
o_height: null
o_width: null
datetaken: 2011-11-29 18:29:52
dateupload: 1322773524
tags: peoplereading
license: 0
latitude: 44.952164
longitude: -93.062438
accuracy: 9
views: 44
interestingness: 49 out of 253

photo: 6438818509 81843c27cc 7031
owner: 48395185@N03
title: Who goes there..?
originalsecret: b1bc9fe25f
originalformat: jpg
o_height: 3686
o_width: 2457
datetaken: 2011-12-01 20:24:06
dateupload: 1322782837
tags: door dark scary creepy spooky hdr mailslot
license: 0
latitude: 55.655727
longitude: 12.611231
accuracy: 15
views: 13
interestingness: 50 out of 253

photo: 6438076089 14eb79e21c 7167
owner: 33928144@N07
title: Three Star Coaches: JEZ9739 Optare Excel
originalsecret: 196f0f7d73
originalformat: jpg
o_height: 1980
o_width: 2640
datetaken: 2011-11-29 14:00:43
dateupload: 1322772943
tags: luton optare optareexcel threestarcoaches jez9739
license: 0
latitude: 51.877716
longitude: -0.412083
accuracy: 16
views: 20
interestingness: 51 out of 253

photo: 6435918529 dd1f2d505c 7151
owner: 34419668@N08
title: R?ros, S?r-Tr?ndelag, Norway
originalsecret: 19627c3b00
originalformat: jpg
o_height: 696
o_width: 1024
datetaken: 1948-07-01 00:00:00
dateupload: 1322742005
tags: riksantikvarie?mbetet theswedishnationalheritageboard
license: 7
latitude: 62.575668
longitude: 11.378319
accuracy: 11
views: 137
interestingness: 52 out of 253

photo: 6437376351 e55c1f038a 7157
owner: 87583925@N00
title: Castleford
originalsecret: 68025d1dce
originalformat: jpg
o_height: 3000
o_width: 4000
datetaken: 2011-12-01 11:13:23
dateupload: 1322763518
tags: dennis spectra trident daf nottinghamcitytransport castleford optare eastlancs lolyne mtravel mui4842 t409bnn db240 l752frd
license: 0
latitude: 53.711501
longitude: -1.334538
accuracy: 16
views: 100
interestingness: 53 out of 253

photo: 6438266423 ec21ce5684 7034
owner: 13566646@N00
title: First Great Western 'Turbo' Class 165/1 no. 165106 arrives at Redhill Station with a service to Reading via Guildford
originalsecret: null
originalformat: null
o_height: null
o_width: null
datetaken: 2010-07-29 11:09:54
dateupload: 1322775339
tags: station train lumix diesel great first rail railway surrey panasonic western redhill multiple unit dmu fgw class1651 p1000287 165106 dmczx1
license: 0
latitude: 51.239834
longitude: -0.166018
accuracy: 14
views: 7
interestingness: 54 out of 253

photo: 6436303741 8ac5fc31bd 7142
owner: 25854373@N03
title: 
originalsecret: b78b5d3923
originalformat: jpg
o_height: 3438
o_width: 5120
datetaken: 2011-10-17 14:27:19
dateupload: 1322748829
tags: railroad usa abandoned reading industrial unitedstates pennsylvania urbanexploration coal hdr breaker urbex saintnicholas mahanoycity photomatix coalbreaker stnicholascoalbreaker saintnicholascoalbreaker stnickcoalbreaker
license: 0
latitude: 40.808294
longitude: -76.178642
accuracy: 16
views: 42
interestingness: 55 out of 253

photo: 6433649887 c3cda28c3c 7154
owner: 10168721@N02
title: Chris "Keris" Croughton - Funeral
originalsecret: c80c0e7ba9
originalformat: jpg
o_height: 3000
o_width: 4000
datetaken: 2011-11-30 14:31:19
dateupload: 1322699852
tags: funeral keris
license: 0
latitude: 52.173194
longitude: -0.713081
accuracy: 12
views: 181
interestingness: 56 out of 253

photo: 6436297505 3660fdf653 7164
owner: 25854373@N03
title: What, no TP?
originalsecret: 43f644a697
originalformat: jpg
o_height: 5183
o_width: 3455
datetaken: 2011-10-17 15:45:30
dateupload: 1322748737
tags: railroad usa abandoned reading industrial unitedstates pennsylvania urbanexploration coal hdr breaker urbex saintnicholas mahanoycity photomatix coalbreaker stnicholascoalbreaker saintnicholascoalbreaker stnickcoalbreaker
license: 0
latitude: 40.808294
longitude: -76.178642
accuracy: 16
views: 33
interestingness: 57 out of 253

photo: 6438480559 7276530516 7026
owner: 48731569@N00
title: Network Rail Test Train
originalsecret: null
originalformat: null
o_height: null
o_width: null
datetaken: 2011-11-30 12:04:12
dateupload: 1322778106
tags: test tractor yellow train reading rail railway loco junction class locomotive network 37 didcot newbury services direct growler drs 376 37604 southcote 1q13
license: 0
latitude: 51.442064
longitude: -0.996515
accuracy: 14
views: 35
interestingness: 58 out of 253

photo: 6437645215 9e225258bb 7035
owner: 44009671@N02
title: Yarmouth Mariners read to South Centennial students
originalsecret: null
originalformat: null
o_height: null
o_width: null
datetaken: 2011-12-01 10:47:24
dateupload: 1322767233
tags: hockey reading library books yarmouth literacy westerncountiesregionallibrary wowreadingchallenge southcentennialschool yarmouthmariners junioratierii
license: 0
latitude: 43.824387
longitude: -66.11834
accuracy: 14
views: 17
interestingness: 59 out of 253

photo: 6438397893 df27827acb 7157
owner: 24186062@N05
title: Read all about it
originalsecret: 9d8be9d3e1
originalformat: jpg
o_height: 1360
o_width: 2040
datetaken: 2011-12-01 22:02:06
dateupload: 1322777008
tags: canon5dmark2urbancandidstreetprotestlondonpensionsunionspolicelaworder
license: 3
latitude: 51.512775
longitude: -0.11394
accuracy: 14
views: 9
interestingness: 60 out of 253

photo: 6436300797 8da626da6a 7159
owner: 25854373@N03
title: 
originalsecret: 050aebafed
originalformat: jpg
o_height: 3456
o_width: 5184
datetaken: 2011-10-17 14:30:39
dateupload: 1322748785
tags: railroad usa abandoned reading industrial unitedstates pennsylvania urbanexploration coal hdr breaker urbex saintnicholas mahanoycity photomatix coalbreaker stnicholascoalbreaker saintnicholascoalbreaker stnickcoalbreaker
license: 0
latitude: 40.808294
longitude: -76.178642
accuracy: 16
views: 35
interestingness: 61 out of 253

photo: 6438497717 e489e85e65 7173
owner: 67337573@N08
title: Sir John Soane's memorial, front view, Old St. Pancras churchyard, London
originalsecret: f56c6e7ed0
originalformat: jpg
o_height: 1600
o_width: 1200
datetaken: 2011-11-26 13:04:28
dateupload: 1322778323
tags: england london graveyard gothic churchyard stpancras stpancraschurch hardytree oldstpancras oldstpancraschurchyard
license: 0
latitude: 51.535611
longitude: -0.130355
accuracy: 16
views: 20
interestingness: 62 out of 253

photo: 6439714405 34324321cd 7162
owner: 44144211@N07
title: P1070960
originalsecret: fe61dc8627
originalformat: jpg
o_height: 2736
o_width: 3648
datetaken: 2011-11-26 17:05:59
dateupload: 1322797441
tags: pa rdg aspx boyertown readingcompany woodchipcar colebrookdalebranch aspx114
license: 1
latitude: 40.334506
longitude: -75.633814
accuracy: 16
views: 2
interestingness: 63 out of 253

photo: 6438105477 7932c536b3 7018
owner: 23021321@N02
title: 'R' - Read and Practice
originalsecret: null
originalformat: null
o_height: null
o_width: null
datetaken: 2011-11-12 09:15:51
dateupload: 1322773295
tags: photostream
license: 0
latitude: 52.142666
longitude: -0.453166
accuracy: 16
views: 2
interestingness: 64 out of 253

photo: 6438756665 fa86f5b09e 7150
owner: 32294453@N02
title: 314013
originalsecret: db6dd3882d
originalformat: jpg
o_height: 2100
o_width: 1500
datetaken: 2011-11-27 15:02:29
dateupload: 1322781916
tags: 
license: 0
latitude: 51.461547
longitude: -0.961968
accuracy: 15
views: 4
interestingness: 65 out of 253

photo: 6438500697 db4fdd8474 7024
owner: 67337573@N08
title: Detail of gravestones and roots of the Hardy Tree
originalsecret: afd0faf7cc
originalformat: jpg
o_height: 1200
o_width: 1600
datetaken: 2011-11-26 12:58:26
dateupload: 1322778362
tags: england london graveyard gothic churchyard stpancras stpancraschurch hardytree oldstpancras oldstpancraschurchyard
license: 0
latitude: 51.535037
longitude: -0.129711
accuracy: 15
views: 16
interestingness: 66 out of 253

photo: 6437852617 37288bb4a4 7026
owner: 30759108@N08
title: "Ezekiel 4:9 Cereal", Largo, FL - Nov, 2011
originalsecret: null
originalformat: null
o_height: null
o_width: null
datetaken: 2011-11-30 18:05:09
dateupload: 1322770055
tags: 
license: 0
latitude: 27.917373
longitude: -82.784557
accuracy: 16
views: 52
interestingness: 67 out of 253

photo: 6439937387 8df4e48cb4 7025
owner: 74104660@N00
title: the first frog
originalsecret: null
originalformat: null
o_height: null
o_width: null
datetaken: 2011-12-01 17:45:57
dateupload: 1322801130
tags: people kids children reading washingtondc districtofcolumbia holidays ellipse dcist firstlady kermitthefrog thenightbeforechristmas presidentspark flotus michelleobama avisitfromstnicholas nationalchristmastreelightingceremony 2011pageantpeace
license: 0
latitude: 38.894485
longitude: -77.036021
accuracy: 16
views: 61
interestingness: 68 out of 253

photo: 6439937337 9fc5e299a9 7162
owner: 74104660@N00
title: kermit and michelle
originalsecret: null
originalformat: null
o_height: null
o_width: null
datetaken: 2011-12-01 17:45:55
dateupload: 1322801129
tags: people kids children reading washingtondc districtofcolumbia holidays ellipse dcist firstlady kermitthefrog thenightbeforechristmas presidentspark flotus michelleobama avisitfromstnicholas nationalchristmastreelightingceremony 2011pageantpeace
license: 0
latitude: 38.894485
longitude: -77.036021
accuracy: 16
views: 64
interestingness: 69 out of 253

photo: 6438018537 d489656910 7173
owner: 50168063@N03
title: A days litter
originalsecret: null
originalformat: null
o_height: null
o_width: null
datetaken: 2011-12-01 13:22:43
dateupload: 1322772244
tags: 
license: 0
latitude: 55.973197
longitude: -3.175864
accuracy: 16
views: 30
interestingness: 70 out of 253

photo: 6436293867 bc29a6279b 7173
owner: 25854373@N03
title: Hopper
originalsecret: 669a93beee
originalformat: jpg
o_height: 3456
o_width: 5184
datetaken: 2011-10-17 15:28:51
dateupload: 1322748682
tags: railroad usa abandoned reading industrial unitedstates pennsylvania urbanexploration coal tamron hdr breaker urbex saintnicholas mahanoycity photomatix coalbreaker 1024mm stnicholascoalbreaker saintnicholascoalbreaker stnickcoalbreaker
license: 0
latitude: 40.808294
longitude: -76.178642
accuracy: 16
views: 40
interestingness: 71 out of 253

photo: 6436180581 636a656137 7169
owner: 74419783@N00
title: New book with birdsong
originalsecret: null
originalformat: null
o_height: null
o_width: null
datetaken: 2011-12-01 14:39:46
dateupload: 1322746786
tags: birds book sounds
license: 0
latitude: 52.88356
longitude: -1.97406
accuracy: 2
views: 15
interestingness: 72 out of 253

photo: 6438538561 c2709efbed 7165
owner: 7759477@N05
title: Alligators in the Sewer
originalsecret: 4877f53c85
originalformat: jpg
o_height: 3844
o_width: 2563
datetaken: 2011-12-01 09:53:59
dateupload: 1322778854
tags: wisconsin library libraries librarian librarians lpl libslibs librariesandlibrarians manitowoccounty 365libs tworiverswisconsin lesterpubliclibrary readdiscoverconnectenrich wisconsinlibraries
license: 1
latitude: 44.143637
longitude: -87.569146
accuracy: 16
views: 20
interestingness: 73 out of 253

photo: 6439581369 4c49e686c9 7021
owner: 90821451@N00
title: Tea at Starbucks
originalsecret: db1c96cf20
originalformat: jpg
o_height: 1936
o_width: 1936
datetaken: 2011-12-01 13:01:55
dateupload: 1322795328
tags: tea calm starbucks zen passion awake chai earlgrey greentip rooibou
license: 3
latitude: 47.244167
longitude: -122.527333
accuracy: 16
views: 9
interestingness: 74 out of 253

photo: 6439255591 02eea538f4 7166
owner: 45676477@N07
title: HC4B7668.JPG
originalsecret: null
originalformat: null
o_height: null
o_width: null
datetaken: 2011-12-01 20:42:34
dateupload: 1322789734
tags: worship praise eucharisticadoration eyefi bostoncatholic
license: 0
latitude: 42.520969
longitude: -71.113021
accuracy: 15
views: 93
interestingness: 75 out of 253

photo: 6438962617 307e236d67 7141
owner: 45676477@N07
title: HC3Y7354.JPG
originalsecret: null
originalformat: null
o_height: null
o_width: null
datetaken: 2011-12-01 20:15:45
dateupload: 1322785050
tags: worship praise eucharisticadoration eyefi bostoncatholic
license: 0
latitude: 42.520969
longitude: -71.113021
accuracy: 15
views: 69
interestingness: 76 out of 253

photo: 6437661975 ac66405783 7158
owner: 47439051@N08
title: IMG_0436
originalsecret: 5610861ff7
originalformat: jpg
o_height: 600
o_width: 800
datetaken: 2011-12-01 12:53:53
dateupload: 1322767460
tags: uk england west tv yorkshire leeds streetphotography g10 mobiletelephone sooc candidandstreet canonpowershotg10
license: 0
latitude: 53.797451
longitude: -1.545346
accuracy: 15
views: 21
interestingness: 77 out of 253

photo: 6436290285 11b93475ac 7167
owner: 25854373@N03
title: Toxic Soup
originalsecret: e462e54a89
originalformat: jpg
o_height: 3455
o_width: 5183
datetaken: 2011-10-17 15:30:32
dateupload: 1322748623
tags: railroad usa abandoned reading industrial unitedstates pennsylvania urbanexploration coal tamron hdr breaker urbex saintnicholas mahanoycity photomatix coalbreaker 1024mm stnicholascoalbreaker saintnicholascoalbreaker stnickcoalbreaker
license: 0
latitude: 40.808294
longitude: -76.178642
accuracy: 16
views: 42
interestingness: 78 out of 253

photo: 6438753113 0dbeb747c7 7017
owner: 32294453@N02
title: 314011
originalsecret: 130000ef26
originalformat: jpg
o_height: 2100
o_width: 1500
datetaken: 2011-11-27 14:58:26
dateupload: 1322781863
tags: 
license: 0
latitude: 51.461119
longitude: -0.966646
accuracy: 15
views: 7
interestingness: 79 out of 253

photo: 6440143485 a2a5903dc2 7144
owner: 43303516@N04
title: David Walliams 'Gangsta Granny' book signing | Waterstone's Birmingham
originalsecret: dae32f31e3
originalformat: jpg
o_height: 4272
o_width: 2848
datetaken: 2011-12-01 15:50:00
dateupload: 1322804978
tags: christmas birmingham comedian author littlebritain waterstones childrenbook davidwalliams 2011 gangstagranny
license: 0
latitude: 52.47882
longitude: -1.894991
accuracy: 15
views: 8
interestingness: 80 out of 253

photo: 6440141511 54fc8af77e 7157
owner: 43303516@N04
title: David Walliams 'Gangsta Granny' book signing | Waterstone's Birmingham
originalsecret: 5d059cbd67
originalformat: jpg
o_height: 4272
o_width: 2848
datetaken: 2011-12-01 15:50:01
dateupload: 1322804943
tags: christmas birmingham comedian author littlebritain waterstones childrenbook davidwalliams 2011 gangstagranny
license: 0
latitude: 52.47882
longitude: -1.894991
accuracy: 15
views: 1
interestingness: 81 out of 253

photo: 6440139515 4db9d3f95b 7175
owner: 43303516@N04
title: David Walliams 'Gangsta Granny' book signing | Waterstone's Birmingham
originalsecret: 63340f98d2
originalformat: jpg
o_height: 4272
o_width: 2848
datetaken: 2011-12-01 15:50:02
dateupload: 1322804911
tags: christmas birmingham comedian author littlebritain waterstones childrenbook davidwalliams 2011 gangstagranny
license: 0
latitude: 52.47882
longitude: -1.894991
accuracy: 15
views: 1
interestingness: 82 out of 253

photo: 6440137481 5ff1f7f394 7026
owner: 43303516@N04
title: David Walliams 'Gangsta Granny' book signing | Waterstone's Birmingham
originalsecret: 38a266657b
originalformat: jpg
o_height: 2848
o_width: 4272
datetaken: 2011-12-01 15:50:03
dateupload: 1322804876
tags: christmas birmingham comedian author littlebritain waterstones childrenbook davidwalliams 2011 gangstagranny
license: 0
latitude: 52.47882
longitude: -1.894991
accuracy: 15
views: 2
interestingness: 83 out of 253

photo: 6440135187 ff9a6bf7d1 7035
owner: 43303516@N04
title: David Walliams 'Gangsta Granny' book signing | Waterstone's Birmingham
originalsecret: cd17eb6685
originalformat: jpg
o_height: 4272
o_width: 2848
datetaken: 2011-12-01 15:50:04
dateupload: 1322804836
tags: christmas birmingham comedian author littlebritain waterstones childrenbook davidwalliams 2011 gangstagranny
license: 0
latitude: 52.47882
longitude: -1.894991
accuracy: 15
views: 7
interestingness: 84 out of 253

photo: 6440133309 9c50729310 7018
owner: 43303516@N04
title: David Walliams 'Gangsta Granny' book signing | Waterstone's Birmingham
originalsecret: 97f365c6bf
originalformat: jpg
o_height: 4272
o_width: 2848
datetaken: 2011-12-01 15:50:05
dateupload: 1322804801
tags: christmas birmingham comedian author littlebritain waterstones childrenbook davidwalliams 2011 gangstagranny
license: 0
latitude: 52.47882
longitude: -1.894991
accuracy: 15
views: 8
interestingness: 85 out of 253

photo: 6440131469 0f95f7a626 7017
owner: 43303516@N04
title: David Walliams 'Gangsta Granny' book signing | Waterstone's Birmingham
originalsecret: e94a5d2d9f
originalformat: jpg
o_height: 2848
o_width: 4272
datetaken: 2011-12-01 15:50:06
dateupload: 1322804768
tags: christmas birmingham comedian author littlebritain waterstones childrenbook davidwalliams 2011 gangstagranny
license: 0
latitude: 52.47882
longitude: -1.894991
accuracy: 15
views: 2
interestingness: 86 out of 253

photo: 6440129645 5faaf86aa5 7170
owner: 43303516@N04
title: David Walliams 'Gangsta Granny' book signing | Waterstone's Birmingham
originalsecret: 6257d7929d
originalformat: jpg
o_height: 2848
o_width: 4272
datetaken: 2011-12-01 15:50:07
dateupload: 1322804733
tags: christmas birmingham comedian author littlebritain waterstones childrenbook davidwalliams 2011 gangstagranny
license: 0
latitude: 52.47882
longitude: -1.894991
accuracy: 15
views: 8
interestingness: 87 out of 253

photo: 6440127911 81fe5eb842 7029
owner: 43303516@N04
title: David Walliams 'Gangsta Granny' book signing | Waterstone's Birmingham
originalsecret: 39023fd8fe
originalformat: jpg
o_height: 2848
o_width: 4272
datetaken: 2011-12-01 15:50:08
dateupload: 1322804700
tags: christmas birmingham comedian author littlebritain waterstones childrenbook davidwalliams 2011 gangstagranny
license: 0
latitude: 52.47882
longitude: -1.894991
accuracy: 15
views: 1
interestingness: 88 out of 253

photo: 6440126203 f6960dc816 7026
owner: 43303516@N04
title: David Walliams 'Gangsta Granny' book signing | Waterstone's Birmingham
originalsecret: 635c321c01
originalformat: jpg
o_height: 4272
o_width: 2848
datetaken: 2011-12-01 15:50:09
dateupload: 1322804667
tags: christmas birmingham comedian author littlebritain waterstones childrenbook davidwalliams 2011 gangstagranny
license: 0
latitude: 52.47882
longitude: -1.894991
accuracy: 15
views: 1
interestingness: 89 out of 253

photo: 6440124433 b888953f75 7174
owner: 43303516@N04
title: David Walliams 'Gangsta Granny' book signing | Waterstone's Birmingham
originalsecret: 48da557f63
originalformat: jpg
o_height: 4272
o_width: 2848
datetaken: 2011-12-01 15:50:10
dateupload: 1322804631
tags: christmas birmingham comedian author littlebritain waterstones childrenbook davidwalliams 2011 gangstagranny
license: 0
latitude: 52.47882
longitude: -1.894991
accuracy: 15
views: 1
interestingness: 90 out of 253

photo: 6440122613 a0c59648a9 7031
owner: 43303516@N04
title: David Walliams 'Gangsta Granny' book signing | Waterstone's Birmingham
originalsecret: 0267b5e001
originalformat: jpg
o_height: 4272
o_width: 2848
datetaken: 2011-12-01 15:50:11
dateupload: 1322804598
tags: christmas birmingham comedian author littlebritain waterstones childrenbook davidwalliams 2011 gangstagranny
license: 0
latitude: 52.47882
longitude: -1.894991
accuracy: 15
views: 1
interestingness: 91 out of 253

photo: 6440120873 b24ba8c37b 7020
owner: 43303516@N04
title: David Walliams 'Gangsta Granny' book signing | Waterstone's Birmingham
originalsecret: 0fd6b34a46
originalformat: jpg
o_height: 4272
o_width: 2848
datetaken: 2011-12-01 15:50:12
dateupload: 1322804565
tags: christmas birmingham comedian author littlebritain waterstones childrenbook davidwalliams 2011 gangstagranny
license: 0
latitude: 52.47882
longitude: -1.894991
accuracy: 15
views: 7
interestingness: 92 out of 253

photo: 6440118917 489ea570b4 7004
owner: 43303516@N04
title: David Walliams 'Gangsta Granny' book signing | Waterstone's Birmingham
originalsecret: 645ddffa4d
originalformat: jpg
o_height: 4272
o_width: 2848
datetaken: 2011-12-01 15:50:13
dateupload: 1322804526
tags: christmas birmingham comedian author littlebritain waterstones childrenbook davidwalliams 2011 gangstagranny
license: 0
latitude: 52.47882
longitude: -1.894991
accuracy: 15
views: 6
interestingness: 93 out of 253

photo: 6439710447 7740f18522 7150
owner: 44144211@N07
title: P1070954
originalsecret: 1518ca20b9
originalformat: jpg
o_height: 2736
o_width: 3648
datetaken: 2011-11-26 16:56:28
dateupload: 1322797377
tags: pa np northernpacific rdg aspx boyertown readingcompany woodchipcar colebrookdalebranch aspx128
license: 1
latitude: 40.331427
longitude: -75.636513
accuracy: 16
views: 1
interestingness: 94 out of 253

photo: 6439262549 fce5779be1 7019
owner: 95413346@N00
title: 23rdWAD.CandleVigil6.DupontCircle.WDC.1December2011
originalsecret: a6877d9c31
originalformat: jpg
o_height: 2848
o_width: 4272
datetaken: 2011-12-01 18:15:00
dateupload: 1322789849
tags: washingtondc dc worldaidsday wdc dupontcircle candlesinthewind 2011 nwwdc dupontcirclewashingtondc northwestwashingtondc december2011 dupontcircleneighborhood dupontcircleneighborhoodwashingtondc dupontcircle2011 dupontcirclewdc2011 dupontcircleneighborhood2011 dupontcircleneighborhoodwdc2011 1december2011 23rdworldaidsday2011 candlesinthewind2011 23rdworldaidsdaycandlelightvigildupontcirclewashingtondc1december2011
license: 5
latitude: 38.909786
longitude: -77.043406
accuracy: 15
views: 12
interestingness: 95 out of 253

photo: 6438502239 52e109744b 7144
owner: 67337573@N08
title: The Hardy Tree, an Ash (Fraxinus excelsior) and gravestones, Old St. Pancras churchyard, London
originalsecret: 441f9d1982
originalformat: jpg
o_height: 1200
o_width: 1600
datetaken: 2011-11-26 12:53:52
dateupload: 1322778381
tags: england london graveyard gothic churchyard stpancras stpancraschurch hardytree oldstpancras oldstpancraschurchyard
license: 0
latitude: 51.535037
longitude: -0.129711
accuracy: 15
views: 17
interestingness: 96 out of 253

photo: 6438499053 ff6c1992c2 7172
owner: 67337573@N08
title: Detail of gravestones surrounding the Hardy Tree
originalsecret: e8fa736723
originalformat: jpg
o_height: 1200
o_width: 1600
datetaken: 2011-11-26 12:56:05
dateupload: 1322778339
tags: england london graveyard gothic churchyard stpancras stpancraschurch hardytree oldstpancras oldstpancraschurchyard
license: 0
latitude: 51.535037
longitude: -0.129711
accuracy: 15
views: 18
interestingness: 97 out of 253

photo: 6438496607 0b9b224477 7023
owner: 67337573@N08
title: One of the dogs, Burdett-Coutts memorial, Old St. Pancras churchyard, London
originalsecret: 97246b090d
originalformat: jpg
o_height: 1600
o_width: 1200
datetaken: 2011-11-26 13:20:25
dateupload: 1322778310
tags: england london graveyard gothic churchyard stpancras stpancraschurch hardytree oldstpancras oldstpancraschurchyard
license: 0
latitude: 51.534931
longitude: -0.13072
accuracy: 15
views: 20
interestingness: 98 out of 253

photo: 6438285531 4655d31009 7002
owner: 15449390@N06
title: Aerial Yoga Swing M?xico (AEROYOGA?)
originalsecret: null
originalformat: null
o_height: null
o_width: null
datetaken: 2011-07-25 00:43:15
dateupload: 1322775581
tags: barcelona madrid espa?a argentina valencia m?xico fly tv sevilla buenosaires colombia diploma miami danza air per? swing gravity tendencias televisi?n medicina fusion fitness castellana c?rdoba euskadi almer?a quilmes profesores prensa vigo tarragona m?laga marbella ciudadreal informaci?n albacete chueca profesional cursos ayurveda salud laplata castell?n nuevosministerios columpio eeuu acoru?a drenaje formaci?n digesti?n chamartin fusi?n teachertraining precios horarios rejuvenecimiento bienestar los?ngeles relajaci?n antiestr?s terapias nuevastecnolog?as celulitis antiage dolordeespalda estre?imiento antienvejecimiento terap?utico aeroyoga restaurativo gimnasiaholistica pilatesa?reo
license: 0
latitude: 21.063997
longitude: -86.733397
accuracy: 5
views: 39
interestingness: 99 out of 253

photo: 6438229303 aa1dbcccd6 7024
owner: 15449390@N06
title: Aerial Yoga Swing M?xico (AEROPILATES?)
originalsecret: null
originalformat: null
o_height: null
o_width: null
datetaken: 2011-07-25 00:43:15
dateupload: 1322774858
tags: aeroyoga restaurativo terap?utico antiage antienvejecimiento diploma profesional formaci?n profesores pilatesa?reo air fitness gimnasiaholistica fusion gravity cursos danza drenaje digesti?n estre?imiento dolordeespalda columpio teachertraining madrid espa?a chueca nuevosministerios euskadi chamartin castellana salud bienestar valencia castell?n albacete ciudadreal barcelona tarragona relajaci?n antiestr?s terapias medicina ayurveda swing fusi?n acoru?a celulitis vigo sevilla c?rdoba almer?a m?laga marbella nuevastecnolog?as tendencias argentina colombia quilmes buenosaires rejuvenecimiento prensa tv televisi?n informaci?n horarios precios laplata per? m?xico eeuu miami los?ngeles fly
license: 0
latitude: 19.414792
longitude: -99.08203
accuracy: 5
views: 13
interestingness: 100 out of 253

photo: 6437782621 cab683dfb7 7147
owner: 7759477@N05
title: Cherry Blossoms
originalsecret: 7a3ddc2526
originalformat: jpg
o_height: 3264
o_width: 2541
datetaken: 2011-11-22 14:20:20
dateupload: 1322769142
tags: film wisconsin library libraries librarian librarians publiclibrary lpl libslibs librariesandlibrarians manitowoccounty filmseries 365libs tworiverswisconsin lesterpubliclibrary foreignfilmseries readdiscoverconnectenrich wisconsinlibraries
license: 1
latitude: 44.143637
longitude: -87.569146
accuracy: 16
views: 37
interestingness: 101 out of 253

photo: 6437445409 41cb0ce5a7 7018
owner: 57198423@N02
title: #GIF Opryland Hotel Literature Statues Dillon Bakke Artist
originalsecret: 14d41aae90
originalformat: gif
o_height: 450
o_width: 600
datetaken: 2011-12-01 10:34:20
dateupload: 1322764460
tags: art hotel design tn nashville tennessee culture statues literature opryland oprylandhotel midnightinthegardenofgoodandevil 12012011
license: 0
latitude: 36.210536
longitude: -86.696403
accuracy: 11
views: 64
interestingness: 102 out of 253

photo: 6437271981 d2d974ae48 7002
owner: 28349080@N07
title: 2011 Alternative Energy & Sustainability Expo-28.jpg
originalsecret: 99ec01abb1
originalformat: jpg
o_height: 1200
o_width: 803
datetaken: 2011-11-22 12:05:56
dateupload: 1322762084
tags: students reading hall washington energy university expo display room science demonstration exposition eastern alternative methods hargreaves easternwashingtonuniversitysciencemethods
license: 0
latitude: 47.491837
longitude: -117.579717
accuracy: 16
views: 39
interestingness: 103 out of 253

photo: 6437271607 56f6c83ded 7002
owner: 28349080@N07
title: 2011 Alternative Energy & Sustainability Expo-25.jpg
originalsecret: d87ddec328
originalformat: jpg
o_height: 803
o_width: 1200
datetaken: 2011-11-22 12:00:46
dateupload: 1322762079
tags: students reading hall washington energy university expo display room science demonstration exposition eastern alternative methods hargreaves easternwashingtonuniversitysciencemethods
license: 0
latitude: 47.491837
longitude: -117.579717
accuracy: 16
views: 31
interestingness: 104 out of 253

photo: 6437271253 664df4f7b5 7010
owner: 28349080@N07
title: 2011 Alternative Energy & Sustainability Expo-23.jpg
originalsecret: 16c0e8f90d
originalformat: jpg
o_height: 803
o_width: 1200
datetaken: 2011-11-22 11:57:01
dateupload: 1322762074
tags: students reading hall washington energy university expo display room science demonstration exposition eastern alternative methods hargreaves easternwashingtonuniversitysciencemethods
license: 0
latitude: 47.491837
longitude: -117.579717
accuracy: 16
views: 32
interestingness: 105 out of 253

photo: 6437270695 d3ea8a8b4f 7146
owner: 28349080@N07
title: 2011 Alternative Energy & Sustainability Expo-22.jpg
originalsecret: 1f68f61c31
originalformat: jpg
o_height: 803
o_width: 1200
datetaken: 2011-11-22 11:55:50
dateupload: 1322762067
tags: students reading hall washington energy university expo display room science demonstration exposition eastern alternative methods hargreaves easternwashingtonuniversitysciencemethods
license: 0
latitude: 47.491837
longitude: -117.579717
accuracy: 16
views: 37
interestingness: 106 out of 253

photo: 6437270179 4c17281ff9 7171
owner: 28349080@N07
title: 2011 Alternative Energy & Sustainability Expo-21.jpg
originalsecret: 954ceb8e7c
originalformat: jpg
o_height: 1200
o_width: 803
datetaken: 2011-11-22 11:53:19
dateupload: 1322762059
tags: students reading hall washington energy university expo display room science demonstration exposition eastern alternative methods hargreaves easternwashingtonuniversitysciencemethods
license: 0
latitude: 47.491837
longitude: -117.579717
accuracy: 16
views: 35
interestingness: 107 out of 253

photo: 6437269709 fa58d894e5 7165
owner: 28349080@N07
title: 2011 Alternative Energy & Sustainability Expo-20.jpg
originalsecret: 186ba313e2
originalformat: jpg
o_height: 803
o_width: 1200
datetaken: 2011-11-22 11:50:39
dateupload: 1322762053
tags: students reading hall washington energy university expo display room science demonstration exposition eastern alternative methods hargreaves easternwashingtonuniversitysciencemethods
license: 0
latitude: 47.491837
longitude: -117.579717
accuracy: 16
views: 38
interestingness: 108 out of 253

photo: 6437269139 073472ec66 7162
owner: 28349080@N07
title: 2011 Alternative Energy & Sustainability Expo-19.jpg
originalsecret: ae48d8cc8e
originalformat: jpg
o_height: 1200
o_width: 803
datetaken: 2011-11-22 11:46:39
dateupload: 1322762046
tags: students reading hall washington energy university expo display room science demonstration exposition eastern alternative methods hargreaves easternwashingtonuniversitysciencemethods
license: 0
latitude: 47.491837
longitude: -117.579717
accuracy: 16
views: 66
interestingness: 109 out of 253

photo: 6437268713 0122fa9ee2 7014
owner: 28349080@N07
title: 2011 Alternative Energy & Sustainability Expo-18.jpg
originalsecret: ac2eec57e2
originalformat: jpg
o_height: 803
o_width: 1200
datetaken: 2011-11-22 11:43:12
dateupload: 1322762040
tags: students reading hall washington energy university expo display room science demonstration exposition eastern alternative methods hargreaves easternwashingtonuniversitysciencemethods
license: 0
latitude: 47.491837
longitude: -117.579717
accuracy: 16
views: 37
interestingness: 110 out of 253

photo: 6437268301 47796d4b5b 7012
owner: 28349080@N07
title: 2011 Alternative Energy & Sustainability Expo-16.jpg
originalsecret: ee9ae725f8
originalformat: jpg
o_height: 803
o_width: 1200
datetaken: 2011-11-22 10:48:29
dateupload: 1322762035
tags: students reading hall washington energy university expo display room science demonstration exposition eastern alternative methods hargreaves easternwashingtonuniversitysciencemethods
license: 0
latitude: 47.491837
longitude: -117.579717
accuracy: 16
views: 53
interestingness: 111 out of 253

photo: 6437267741 b9b2510626 7026
owner: 28349080@N07
title: 2011 Alternative Energy & Sustainability Expo-15.jpg
originalsecret: ba37bf40c9
originalformat: jpg
o_height: 803
o_width: 1200
datetaken: 2011-11-22 10:48:15
dateupload: 1322762027
tags: students reading hall washington energy university expo display room science demonstration exposition eastern alternative methods hargreaves easternwashingtonuniversitysciencemethods
license: 0
latitude: 47.491837
longitude: -117.579717
accuracy: 16
views: 40
interestingness: 112 out of 253

photo: 6437267283 b94fc80489 7035
owner: 28349080@N07
title: 2011 Alternative Energy & Sustainability Expo-14.jpg
originalsecret: 8bc245c976
originalformat: jpg
o_height: 803
o_width: 1200
datetaken: 2011-11-22 10:46:31
dateupload: 1322762022
tags: students reading hall washington energy university expo display room science demonstration exposition eastern alternative methods hargreaves easternwashingtonuniversitysciencemethods
license: 0
latitude: 47.491837
longitude: -117.579717
accuracy: 16
views: 39
interestingness: 113 out of 253

photo: 6437266881 b56bc0dd3b 7032
owner: 28349080@N07
title: 2011 Alternative Energy & Sustainability Expo-13.jpg
originalsecret: 82b171f51d
originalformat: jpg
o_height: 803
o_width: 1200
datetaken: 2011-11-22 10:45:21
dateupload: 1322762016
tags: students reading hall washington energy university expo display room science demonstration exposition eastern alternative methods hargreaves easternwashingtonuniversitysciencemethods
license: 0
latitude: 47.491837
longitude: -117.579717
accuracy: 16
views: 35
interestingness: 114 out of 253

photo: 6437266395 7f4c0187b3 7155
owner: 28349080@N07
title: 2011 Alternative Energy & Sustainability Expo-12.jpg
originalsecret: 4cc83ee407
originalformat: jpg
o_height: 803
o_width: 1200
datetaken: 2011-11-22 10:45:09
dateupload: 1322762009
tags: students reading hall washington energy university expo display room science demonstration exposition eastern alternative methods hargreaves easternwashingtonuniversitysciencemethods
license: 0
latitude: 47.491837
longitude: -117.579717
accuracy: 16
views: 33
interestingness: 115 out of 253

photo: 6437266047 45ba6f2bd4 7009
owner: 28349080@N07
title: 2011 Alternative Energy & Sustainability Expo-11.jpg
originalsecret: 90d69ed759
originalformat: jpg
o_height: 803
o_width: 1200
datetaken: 2011-11-22 10:44:42
dateupload: 1322762004
tags: students reading hall washington energy university expo display room science demonstration exposition eastern alternative methods hargreaves easternwashingtonuniversitysciencemethods
license: 0
latitude: 47.491837
longitude: -117.579717
accuracy: 16
views: 38
interestingness: 116 out of 253

photo: 6437265617 a4ccd39f46 7173
owner: 28349080@N07
title: 2011 Alternative Energy & Sustainability Expo-10.jpg
originalsecret: 1fdef4db96
originalformat: jpg
o_height: 803
o_width: 1200
datetaken: 2011-11-22 10:44:06
dateupload: 1322761999
tags: students reading hall washington energy university expo display room science demonstration exposition eastern alternative methods hargreaves easternwashingtonuniversitysciencemethods
license: 0
latitude: 47.491837
longitude: -117.579717
accuracy: 16
views: 36
interestingness: 117 out of 253

photo: 6437265261 3dd2a0205d 7012
owner: 28349080@N07
title: 2011 Alternative Energy & Sustainability Expo-9.jpg
originalsecret: 1f8601ec3f
originalformat: jpg
o_height: 803
o_width: 1200
datetaken: 2011-11-22 10:36:58
dateupload: 1322761994
tags: students reading hall washington energy university expo display room science demonstration exposition eastern alternative methods hargreaves easternwashingtonuniversitysciencemethods
license: 0
latitude: 47.491837
longitude: -117.579717
accuracy: 16
views: 31
interestingness: 118 out of 253

photo: 6437264847 4a5f13d035 7153
owner: 28349080@N07
title: 2011 Alternative Energy & Sustainability Expo-8.jpg
originalsecret: e93e60588c
originalformat: jpg
o_height: 803
o_width: 1200
datetaken: 2011-11-22 10:36:52
dateupload: 1322761989
tags: students reading hall washington energy university expo display room science demonstration exposition eastern alternative methods hargreaves easternwashingtonuniversitysciencemethods
license: 0
latitude: 47.491837
longitude: -117.579717
accuracy: 16
views: 26
interestingness: 119 out of 253

photo: 6437264263 d91dc5c70b 7149
owner: 28349080@N07
title: 2011 Alternative Energy & Sustainability Expo-6.jpg
originalsecret: 5acd3439b9
originalformat: jpg
o_height: 803
o_width: 1200
datetaken: 2011-11-22 10:20:52
dateupload: 1322761981
tags: students reading hall washington energy university expo display room science demonstration exposition eastern alternative methods hargreaves easternwashingtonuniversitysciencemethods
license: 0
latitude: 47.491837
longitude: -117.579717
accuracy: 16
views: 44
interestingness: 120 out of 253

photo: 6437263731 88dc2bbff5 7164
owner: 28349080@N07
title: 2011 Alternative Energy & Sustainability Expo-5.jpg
originalsecret: 833990b8bb
originalformat: jpg
o_height: 803
o_width: 1200
datetaken: 2011-11-22 10:20:22
dateupload: 1322761975
tags: students reading hall washington energy university expo display room science demonstration exposition eastern alternative methods hargreaves easternwashingtonuniversitysciencemethods
license: 0
latitude: 47.491837
longitude: -117.579717
accuracy: 16
views: 26
interestingness: 121 out of 253

photo: 6437263331 d3d821b617 7143
owner: 28349080@N07
title: 2011 Alternative Energy & Sustainability Expo-4.jpg
originalsecret: ee879f7016
originalformat: jpg
o_height: 803
o_width: 1200
datetaken: 2011-11-22 10:16:35
dateupload: 1322761969
tags: students reading hall washington energy university expo display room science demonstration exposition eastern alternative methods hargreaves easternwashingtonuniversitysciencemethods
license: 0
latitude: 47.491837
longitude: -117.579717
accuracy: 16
views: 28
interestingness: 122 out of 253

photo: 6437262881 ffeb691ac0 7027
owner: 28349080@N07
title: 2011 Alternative Energy & Sustainability Expo-3.jpg
originalsecret: 2a60eab2d7
originalformat: jpg
o_height: 803
o_width: 1200
datetaken: 2011-11-22 10:16:03
dateupload: 1322761963
tags: students reading hall washington energy university expo display room science demonstration exposition eastern alternative methods hargreaves easternwashingtonuniversitysciencemethods
license: 0
latitude: 47.491837
longitude: -117.579717
accuracy: 16
views: 23
interestingness: 123 out of 253

photo: 6437262365 c450a8576e 7164
owner: 28349080@N07
title: 2011 Alternative Energy & Sustainability Expo-2.jpg
originalsecret: 57f8f34bd8
originalformat: jpg
o_height: 803
o_width: 1200
datetaken: 2011-11-22 10:15:59
dateupload: 1322761956
tags: students reading hall washington energy university expo display room science demonstration exposition eastern alternative methods hargreaves easternwashingtonuniversitysciencemethods
license: 0
latitude: 47.491837
longitude: -117.579717
accuracy: 16
views: 29
interestingness: 124 out of 253

photo: 6437261913 b50f865868 7015
owner: 28349080@N07
title: 2011 Alternative Energy & Sustainability Expo-1.jpg
originalsecret: 3ffec911b0
originalformat: jpg
o_height: 803
o_width: 1200
datetaken: 2011-11-22 10:14:48
dateupload: 1322761950
tags: students reading hall washington energy university expo display room science demonstration exposition eastern alternative methods hargreaves easternwashingtonuniversitysciencemethods
license: 0
latitude: 47.491837
longitude: -117.579717
accuracy: 16
views: 33
interestingness: 125 out of 253

photo: 6436259757 0d361a1201 7144
owner: 40936370@N00
title: Kakemono Andr? Malraux et son Mus?e Imaginaire
originalsecret: 793ae3fdc1
originalformat: jpg
o_height: 802
o_width: 1023
datetaken: 2011-12-01 15:02:28
dateupload: 1322748148
tags: portrait sculpture streetart france art mystery museum architecture painting graffiti ruins rawart outsiderart chaos symbol roman contemporaryart flag secret 911 apocalypse taz peinture container novel writer artbrut affichage ddc sanctuary panneau cyberpunk landart alchemy drapeau modernsculpture prophecy 999 vanitas revelation sanctuaire ?crivain dadaisme andr?malraux artprice salamanderspirit organmuseum saintromainaumontdor demeureduchaos thierryehrmann alchimie mus?edartcontemporain artsingulier lespoir kakemono laconditionhumaine proph?tie abodeofchaos facteurcheval palaisideal postapocalyptique maisondartiste artistshouses lemus?eimaginaire sculpturemoderne groupeserveur lespritdelasalamandre lesvoixdusilence servergroup lavoieroyale
license: 4
latitude: 45.837448
longitude: 4.826248
accuracy: 15
views: 87
interestingness: 126 out of 253

photo: 6436252035 778523b38e 7167
owner: 76737391@N00
title: LOW BRIDGE
originalsecret: null
originalformat: null
o_height: null
o_width: null
datetaken: 2011-12-01 13:42:38
dateupload: 1322748020
tags: road park uk england london station rail safety tfl finsbury
license: 0
latitude: 51.565866
longitude: -0.106344
accuracy: 13
views: 68
interestingness: 127 out of 253

photo: 6436215237 e31ffecaa2 7005
owner: 7759477@N05
title: AM Library
originalsecret: af1743f749
originalformat: jpg
o_height: 2448
o_width: 3264
datetaken: 2011-12-01 07:17:04
dateupload: 1322747388
tags: lake wisconsin library libraries lakemichigan librarian librarians publiclibrary lpl libslibs librariesandlibrarians manitowoccounty 365libs tworiverswisconsin lesterpubliclibrary readdiscoverconnectenrich wisconsinlibraries
license: 1
latitude: 44.143666
longitude: -87.569167
accuracy: 16
views: 2
interestingness: 128 out of 253

photo: 6435146083 a3370574e4 7031
owner: 30857482@N00
title: modelling (ROX**0.25)/(TAMRA**0.25)
originalsecret: 94714bffc2
originalformat: jpg
o_height: 1000
o_width: 1000
datetaken: 2011-12-01 15:50:56
dateupload: 1322724327
tags: apple cup coffee campus keyboard desk australia waite monitor pot adelaide sa rox southaustralia regression plot tamra urrbrae multivariant
license: 0
latitude: -34.968643
longitude: 138.638936
accuracy: 16
views: 12
interestingness: 129 out of 253

photo: 6434121161 ff433a9a82 7169
owner: 71621081@N00
title: Reading On iPad, Toronto, Canada
originalsecret: null
originalformat: null
o_height: null
o_width: null
datetaken: 2011-11-12 12:38:57
dateupload: 1322706775
tags: life city people blackandwhite toronto ontario canada streets photography streetphotography x10 2011 tysonwilliams wwwtysonwilliamscom fujifilmx10 img20111112002168jpg
license: 0
latitude: 43.671887
longitude: -79.394363
accuracy: 16
views: 27
interestingness: 130 out of 253

photo: 6439712239 d906219f63 7031
owner: 44144211@N07
title: P1070958
originalsecret: 78ebeaab46
originalformat: jpg
o_height: 2736
o_width: 3648
datetaken: 2011-11-26 16:58:26
dateupload: 1322797406
tags: pa fec rdg aspx boyertown floridaeastcoast readingcompany colebrookdalebranch aspx128
license: 1
latitude: 40.331427
longitude: -75.636513
accuracy: 16
views: 5
interestingness: 131 out of 253

photo: 6439709691 9d22b566be 7011
owner: 44144211@N07
title: P1070952
originalsecret: 6e67b00b16
originalformat: jpg
o_height: 2736
o_width: 3648
datetaken: 2011-11-26 16:54:49
dateupload: 1322797366
tags: pa np northernpacific rdg aspx boyertown readingcompany colebrookdalebranch aspx152
license: 1
latitude: 40.331427
longitude: -75.636513
accuracy: 16
views: 2
interestingness: 132 out of 253

photo: 6439120059 266d26cfc4 7023
owner: 45676477@N07
title: HC3Y7415.JPG
originalsecret: null
originalformat: null
o_height: null
o_width: null
datetaken: 2011-12-01 20:41:42
dateupload: 1322787531
tags: worship praise eucharisticadoration eyefi bostoncatholic
license: 0
latitude: 42.520969
longitude: -71.113021
accuracy: 15
views: 99
interestingness: 133 out of 253

photo: 6436960583 f057cb4c7d 7022
owner: 49272572@N08
title: Police Escort for Occupy DC / Roving Kabaret
originalsecret: 67a6e6f7ce
originalformat: jpg
o_height: 1880
o_width: 2816
datetaken: 2011-11-19 14:51:41
dateupload: 1322757971
tags: musicians march dc washington tour protest roving kabaret occupy
license: 1
latitude: 38.898914
longitude: -77.036547
accuracy: 16
views: 0
interestingness: 134 out of 253

photo: 6436960295 5456d4c546 7028
owner: 49272572@N08
title: Police Escort for Occupy DC / Roving Kabaret
originalsecret: b2cae304cb
originalformat: jpg
o_height: 1880
o_width: 2816
datetaken: 2011-11-19 14:51:34
dateupload: 1322757967
tags: musicians march dc washington tour protest roving kabaret occupy
license: 1
latitude: 38.898914
longitude: -77.036547
accuracy: 16
views: 0
interestingness: 135 out of 253

photo: 6436960115 eca4a4d7b0 7017
owner: 49272572@N08
title: Police Escort for Occupy DC / Roving Kabaret
originalsecret: 4bdf806101
originalformat: jpg
o_height: 1880
o_width: 2816
datetaken: 2011-11-19 14:51:03
dateupload: 1322757964
tags: musicians march dc washington tour protest roving kabaret occupy
license: 1
latitude: 38.898914
longitude: -77.036547
accuracy: 16
views: 2
interestingness: 136 out of 253

photo: 6436959795 4461b08f5c 7009
owner: 49272572@N08
title: Cosita Seria performs at Occupy DC / Roving Kabaret
originalsecret: 8a04975386
originalformat: jpg
o_height: 1880
o_width: 2816
datetaken: 2011-11-19 14:47:17
dateupload: 1322757961
tags: musicians march dc washington tour protest roving kabaret occupy
license: 1
latitude: 38.898914
longitude: -77.036547
accuracy: 16
views: 0
interestingness: 137 out of 253

photo: 6436959599 1a30d8e4a2 7003
owner: 49272572@N08
title: Cosita Seria performs at Occupy DC / Roving Kabaret
originalsecret: 2a00f49bb5
originalformat: jpg
o_height: 1880
o_width: 2816
datetaken: 2011-11-19 14:47:12
dateupload: 1322757958
tags: musicians march dc washington tour protest roving kabaret occupy
license: 1
latitude: 38.898914
longitude: -77.036547
accuracy: 16
views: 0
interestingness: 138 out of 253

photo: 6436959389 ca5604e022 7030
owner: 49272572@N08
title: Cosita Seria performs at Occupy DC / Roving Kabaret
originalsecret: bfdd9c8b2e
originalformat: jpg
o_height: 1880
o_width: 2816
datetaken: 2011-11-19 14:47:06
dateupload: 1322757955
tags: musicians march dc washington tour protest roving kabaret occupy
license: 1
latitude: 38.898914
longitude: -77.036547
accuracy: 16
views: 0
interestingness: 139 out of 253

photo: 6436959193 d32e58baa2 7159
owner: 49272572@N08
title: Cosita Seria performs at Occupy DC / Roving Kabaret
originalsecret: f3329361aa
originalformat: jpg
o_height: 1880
o_width: 2816
datetaken: 2011-11-19 14:46:53
dateupload: 1322757953
tags: musicians march dc washington tour protest roving kabaret occupy
license: 1
latitude: 38.898914
longitude: -77.036547
accuracy: 16
views: 0
interestingness: 140 out of 253

photo: 6436958973 dfd3dc934f 7153
owner: 49272572@N08
title: Cosita Seria performs at Occupy DC / Roving Kabaret
originalsecret: 7fd75efb0f
originalformat: jpg
o_height: 1880
o_width: 2816
datetaken: 2011-11-19 14:46:42
dateupload: 1322757950
tags: musicians march dc washington tour protest roving kabaret occupy
license: 1
latitude: 38.898914
longitude: -77.036547
accuracy: 16
views: 0
interestingness: 141 out of 253

photo: 6436958761 ab3a1109ea 7141
owner: 49272572@N08
title: Salvador G. Sarmiento of Cosita Seria
originalsecret: 393d34877f
originalformat: jpg
o_height: 1880
o_width: 2816
datetaken: 2011-11-19 14:46:34
dateupload: 1322757948
tags: musicians march dc washington tour protest roving kabaret occupy
license: 1
latitude: 38.898914
longitude: -77.036547
accuracy: 16
views: 0
interestingness: 142 out of 253

photo: 6436958629 1ea0b00cd3 7025
owner: 49272572@N08
title: Salvador G. Sarmiento of Cosita Seria
originalsecret: 73977efd17
originalformat: jpg
o_height: 1880
o_width: 2816
datetaken: 2011-11-19 14:46:31
dateupload: 1322757946
tags: musicians march dc washington tour protest roving kabaret occupy
license: 1
latitude: 38.898914
longitude: -77.036547
accuracy: 16
views: 0
interestingness: 143 out of 253

photo: 6436958483 d4835d6f0f 7006
owner: 49272572@N08
title: Salvador G. Sarmiento of Cosita Seria
originalsecret: dc5ee6ebdd
originalformat: jpg
o_height: 1880
o_width: 2816
datetaken: 2011-11-19 14:46:27
dateupload: 1322757944
tags: musicians march dc washington tour protest roving kabaret occupy
license: 1
latitude: 38.898914
longitude: -77.036547
accuracy: 16
views: 0
interestingness: 144 out of 253

photo: 6436957969 9189b00928 7023
owner: 49272572@N08
title: Lafayette Square
originalsecret: 3c6dbeddbd
originalformat: jpg
o_height: 1880
o_width: 2816
datetaken: 2011-11-19 14:44:00
dateupload: 1322757936
tags: musicians march dc washington tour protest roving kabaret occupy
license: 1
latitude: 38.898914
longitude: -77.036547
accuracy: 16
views: 0
interestingness: 145 out of 253

photo: 6436957639 5af98ff0cf 7164
owner: 49272572@N08
title: Lafayette Square
originalsecret: 39d4bac3ec
originalformat: jpg
o_height: 1880
o_width: 2816
datetaken: 2011-11-19 14:43:57
dateupload: 1322757932
tags: musicians march dc washington tour protest roving kabaret occupy
license: 1
latitude: 38.898914
longitude: -77.036547
accuracy: 16
views: 0
interestingness: 146 out of 253

photo: 6436957389 317b36a33f 7026
owner: 49272572@N08
title: Watching the Occupy DC / Roving Kabaret
originalsecret: 0d40d8b770
originalformat: jpg
o_height: 1880
o_width: 2816
datetaken: 2011-11-19 14:38:43
dateupload: 1322757929
tags: musicians march dc washington tour protest roving kabaret occupy
license: 1
latitude: 38.898914
longitude: -77.036547
accuracy: 16
views: 0
interestingness: 147 out of 253

photo: 6436956797 49c4c2fb50 7009
owner: 49272572@N08
title: Watching the Occupy DC / Roving Kabaret
originalsecret: 54b024c3db
originalformat: jpg
o_height: 2592
o_width: 3888
datetaken: 2011-11-19 14:37:13
dateupload: 1322757921
tags: musicians march dc washington tour protest roving kabaret occupy
license: 1
latitude: 38.898914
longitude: -77.036547
accuracy: 16
views: 0
interestingness: 148 out of 253

photo: 6436956223 838c68db01 7147
owner: 49272572@N08
title: Watching the Occupy DC / Roving Kabaret
originalsecret: bd8699edd5
originalformat: jpg
o_height: 2592
o_width: 3888
datetaken: 2011-11-19 14:35:55
dateupload: 1322757913
tags: musicians march dc washington tour protest roving kabaret occupy
license: 1
latitude: 38.898914
longitude: -77.036547
accuracy: 16
views: 0
interestingness: 149 out of 253

photo: 6436950159 cd565cb062 7034
owner: 49272572@N08
title: Watching the Performances at Lafayette Square
originalsecret: c349fa9cfc
originalformat: jpg
o_height: 2592
o_width: 3888
datetaken: 2011-11-19 14:23:19
dateupload: 1322757833
tags: musicians march dc washington tour protest roving kabaret occupy
license: 1
latitude: 38.898914
longitude: -77.036547
accuracy: 16
views: 0
interestingness: 150 out of 253

photo: 6436949575 48b2466a95 7152
owner: 49272572@N08
title: Watching the Performances at Lafayette Square
originalsecret: 9ecb5d86b0
originalformat: jpg
o_height: 2592
o_width: 3888
datetaken: 2011-11-19 14:23:17
dateupload: 1322757826
tags: musicians march dc washington tour protest roving kabaret occupy
license: 1
latitude: 38.898914
longitude: -77.036547
accuracy: 16
views: 0
interestingness: 151 out of 253

photo: 6436949185 436a97c781 7149
owner: 49272572@N08
title: Watching the Performances at Lafayette Square
originalsecret: 439b960a18
originalformat: jpg
o_height: 2592
o_width: 3888
datetaken: 2011-11-19 14:23:12
dateupload: 1322757821
tags: musicians march dc washington tour protest roving kabaret occupy
license: 1
latitude: 38.898914
longitude: -77.036547
accuracy: 16
views: 0
interestingness: 152 out of 253

photo: 6436948565 52d88fa7b8 7006
owner: 49272572@N08
title: Watching the Performances at Lafayette Square
originalsecret: 6761051d2f
originalformat: jpg
o_height: 2592
o_width: 3888
datetaken: 2011-11-19 14:20:59
dateupload: 1322757813
tags: musicians march dc washington tour protest roving kabaret occupy
license: 1
latitude: 38.898914
longitude: -77.036547
accuracy: 16
views: 0
interestingness: 153 out of 253

photo: 6436948313 d20e43a678 7171
owner: 49272572@N08
title: Watching the Performances at Lafayette Square
originalsecret: 8c372b1270
originalformat: jpg
o_height: 2592
o_width: 3888
datetaken: 2011-11-19 14:20:56
dateupload: 1322757810
tags: musicians march dc washington tour protest roving kabaret occupy
license: 1
latitude: 38.898914
longitude: -77.036547
accuracy: 16
views: 0
interestingness: 154 out of 253

photo: 6436947839 fa5bd0b7d0 7141
owner: 49272572@N08
title: Taking Donations for the Roving Kabaret
originalsecret: 664b2267cb
originalformat: jpg
o_height: 2592
o_width: 3888
datetaken: 2011-11-19 14:19:00
dateupload: 1322757804
tags: musicians march dc washington tour protest roving kabaret occupy
license: 1
latitude: 38.898914
longitude: -77.036547
accuracy: 16
views: 0
interestingness: 155 out of 253

photo: 6436947431 d2ee35867f 7015
owner: 49272572@N08
title: Taking Donations for the Roving Kabaret
originalsecret: 7370c5ba2e
originalformat: jpg
o_height: 2592
o_width: 3888
datetaken: 2011-11-19 14:18:57
dateupload: 1322757799
tags: musicians march dc washington tour protest roving kabaret occupy
license: 1
latitude: 38.898914
longitude: -77.036547
accuracy: 16
views: 0
interestingness: 156 out of 253

photo: 6436947177 cf68055439 7034
owner: 49272572@N08
title: Taking Donations for the Roving Kabaret
originalsecret: b4fc6cee69
originalformat: jpg
o_height: 2592
o_width: 3888
datetaken: 2011-11-19 14:18:50
dateupload: 1322757796
tags: musicians march dc washington tour protest roving kabaret occupy
license: 1
latitude: 38.898914
longitude: -77.036547
accuracy: 16
views: 0
interestingness: 157 out of 253

photo: 6436946905 fc6a8e0a24 7165
owner: 49272572@N08
title: Taking Donations for the Roving Kabaret
originalsecret: 9925f59f45
originalformat: jpg
o_height: 2592
o_width: 3888
datetaken: 2011-11-19 14:18:46
dateupload: 1322757792
tags: musicians march dc washington tour protest roving kabaret occupy
license: 1
latitude: 38.898914
longitude: -77.036547
accuracy: 16
views: 0
interestingness: 158 out of 253

photo: 6436946729 b642cbabb0 7034
owner: 49272572@N08
title: Taking Donations for the Roving Kabaret
originalsecret: c36411973e
originalformat: jpg
o_height: 2592
o_width: 3888
datetaken: 2011-11-19 14:15:54
dateupload: 1322757790
tags: musicians march dc washington tour protest roving kabaret occupy
license: 1
latitude: 38.898914
longitude: -77.036547
accuracy: 16
views: 0
interestingness: 159 out of 253

photo: 6436946449 fd779bc991 7002
owner: 49272572@N08
title: Taking Donations for the Roving Kabaret
originalsecret: c54364340a
originalformat: jpg
o_height: 2592
o_width: 3888
datetaken: 2011-11-19 14:15:52
dateupload: 1322757786
tags: musicians march dc washington tour protest roving kabaret occupy
license: 1
latitude: 38.898914
longitude: -77.036547
accuracy: 16
views: 0
interestingness: 160 out of 253

photo: 6436946001 a16307025c 7018
owner: 49272572@N08
title: Taking Donations for the Roving Kabaret
originalsecret: 2cb97e26c2
originalformat: jpg
o_height: 2592
o_width: 3888
datetaken: 2011-11-19 14:15:51
dateupload: 1322757780
tags: musicians march dc washington tour protest roving kabaret occupy
license: 1
latitude: 38.898914
longitude: -77.036547
accuracy: 16
views: 0
interestingness: 161 out of 253

photo: 6439807189 b2b52fb9a5 7154
owner: 24982971@N08
title: Beach Reading
originalsecret: d33909724f
originalformat: jpg
o_height: 2186
o_width: 12231
datetaken: 2011-07-19 10:15:27
dateupload: 1322798870
tags: panorama me greenland toshow camplife icescape greenlandtrip worktoshow
license: 0
latitude: 77.445671
longitude: -72.061042
accuracy: 10
views: 6
interestingness: 162 out of 253

photo: 6439708839 87cdac73b2 7011
owner: 44144211@N07
title: P1070950
originalsecret: cd0fc8e9ac
originalformat: jpg
o_height: 2736
o_width: 3648
datetaken: 2011-11-26 16:52:48
dateupload: 1322797350
tags: pa rdg boyertown mp15 readingcompany niwx niwx2581 colebrookdalebranch
license: 1
latitude: 40.331427
longitude: -75.636513
accuracy: 16
views: 2
interestingness: 163 out of 253

photo: 6439707911 be900e3105 7164
owner: 44144211@N07
title: P1070948
originalsecret: 51ef576ba5
originalformat: jpg
o_height: 2736
o_width: 3648
datetaken: 2011-11-26 16:52:10
dateupload: 1322797336
tags: pa rdg aspx boyertown readingcompany woodchipcar colebrookdalebranch aspx112
license: 1
latitude: 40.331427
longitude: -75.636513
accuracy: 16
views: 2
interestingness: 164 out of 253

photo: 6439356911 4fa57659f7 7175
owner: 45676477@N07
title: HC3Y7449.JPG
originalsecret: null
originalformat: null
o_height: null
o_width: null
datetaken: 2011-12-01 22:01:13
dateupload: 1322791479
tags: worship praise eucharisticadoration eyefi bostoncatholic
license: 0
latitude: 42.520969
longitude: -71.113021
accuracy: 15
views: 77
interestingness: 165 out of 253

photo: 6439354617 c47acf2970 7149
owner: 45676477@N07
title: HC3Y7440.JPG
originalsecret: null
originalformat: null
o_height: null
o_width: null
datetaken: 2011-12-01 21:59:48
dateupload: 1322791405
tags: worship praise eucharisticadoration eyefi bostoncatholic
license: 0
latitude: 42.520969
longitude: -71.113021
accuracy: 15
views: 80
interestingness: 166 out of 253

photo: 6439260749 e7f86e1695 7173
owner: 45676477@N07
title: HC4B7679.JPG
originalsecret: null
originalformat: null
o_height: null
o_width: null
datetaken: 2011-12-01 21:29:48
dateupload: 1322789819
tags: worship praise eucharisticadoration eyefi bostoncatholic
license: 0
latitude: 42.520969
longitude: -71.113021
accuracy: 15
views: 82
interestingness: 167 out of 253

photo: 6434838553 e369aeefc1 7008
owner: 59595657@N04
title: IMG_7008-1
originalsecret: null
originalformat: null
o_height: null
o_width: null
datetaken: 2011-11-22 13:12:44
dateupload: 1322717921
tags: arizona english college senior girl digital canon eos rebel reading book major friend girlfriend university tucson library arts teacher blonde degree bachelors xsi 450d
license: 0
latitude: 32.231208
longitude: -110.949125
accuracy: 15
views: 46
interestingness: 168 out of 253

photo: 6434837503 fa9cf1b29e 7156
owner: 59595657@N04
title: IMG_6949-1
originalsecret: null
originalformat: null
o_height: null
o_width: null
datetaken: 2011-11-22 13:02:30
dateupload: 1322717900
tags: arizona english college senior girl digital canon eos rebel reading book major friend girlfriend university tucson library arts teacher blonde degree bachelors xsi 450d
license: 0
latitude: 32.231208
longitude: -110.949125
accuracy: 15
views: 48
interestingness: 169 out of 253

photo: 6434836673 27fd118cf0 7029
owner: 59595657@N04
title: IMG_6872-1
originalsecret: null
originalformat: null
o_height: null
o_width: null
datetaken: 2011-11-22 12:41:53
dateupload: 1322717883
tags: arizona english college senior girl digital canon eos rebel reading book major friend girlfriend university tucson library arts teacher blonde degree bachelors xsi 450d
license: 0
latitude: 32.231934
longitude: -110.953888
accuracy: 15
views: 38
interestingness: 170 out of 253

photo: 6434836159 4bafe88e1c 7030
owner: 59595657@N04
title: IMG_6817-1
originalsecret: null
originalformat: null
o_height: null
o_width: null
datetaken: 2011-11-22 12:35:11
dateupload: 1322717873
tags: arizona english college senior girl digital canon eos rebel reading book major friend girlfriend university tucson library arts teacher blonde degree bachelors xsi 450d
license: 0
latitude: 32.231934
longitude: -110.953888
accuracy: 15
views: 55
interestingness: 171 out of 253

photo: 6434835393 c65373f61e 7162
owner: 59595657@N04
title: IMG_6753-1
originalsecret: null
originalformat: null
o_height: null
o_width: null
datetaken: 2011-11-22 12:24:39
dateupload: 1322717858
tags: arizona english college senior girl digital canon eos rebel reading book major friend girlfriend university tucson library arts teacher blonde degree bachelors xsi 450d
license: 0
latitude: 32.231934
longitude: -110.953888
accuracy: 15
views: 40
interestingness: 172 out of 253

photo: 6434834603 6bb3432faa 7025
owner: 59595657@N04
title: IMG_6705-1
originalsecret: null
originalformat: null
o_height: null
o_width: null
datetaken: 2011-11-20 12:17:04
dateupload: 1322717842
tags: arizona english college senior girl digital canon eos rebel reading book major friend girlfriend university tucson library arts teacher blonde degree bachelors xsi 450d
license: 0
latitude: 32.231934
longitude: -110.953888
accuracy: 15
views: 47
interestingness: 173 out of 253

photo: 6434834213 cc63b7dcb1 7175
owner: 59595657@N04
title: IMG_6637-1
originalsecret: null
originalformat: null
o_height: null
o_width: null
datetaken: 2011-11-20 12:04:10
dateupload: 1322717834
tags: arizona english college senior girl digital canon eos rebel reading book major friend girlfriend university tucson library arts teacher blonde degree bachelors xsi 450d
license: 0
latitude: 32.231934
longitude: -110.953888
accuracy: 15
views: 39
interestingness: 174 out of 253

photo: 6434833297 b2bed39ef1 7144
owner: 59595657@N04
title: IMG_6616-1
originalsecret: null
originalformat: null
o_height: null
o_width: null
datetaken: 2011-11-20 11:59:50
dateupload: 1322717816
tags: arizona english college senior girl digital canon eos rebel reading book major friend girlfriend university tucson library arts teacher blonde degree bachelors xsi 450d
license: 0
latitude: 32.231934
longitude: -110.953888
accuracy: 15
views: 39
interestingness: 175 out of 253

photo: 6434832587 fa06817d70 7169
owner: 59595657@N04
title: IMG_6588-1
originalsecret: null
originalformat: null
o_height: null
o_width: null
datetaken: 2011-11-20 11:54:50
dateupload: 1322717802
tags: arizona english college senior girl digital canon eos rebel reading book major friend girlfriend university tucson library arts teacher blonde degree bachelors xsi 450d
license: 0
latitude: 32.231934
longitude: -110.953888
accuracy: 15
views: 55
interestingness: 176 out of 253

photo: 6434832393 7a78a2b92e 7154
owner: 59595657@N04
title: IMG_6581-1
originalsecret: null
originalformat: null
o_height: null
o_width: null
datetaken: 2011-11-20 11:50:59
dateupload: 1322717797
tags: arizona english college senior girl digital canon eos rebel reading book major friend girlfriend university tucson library arts teacher blonde degree bachelors xsi 450d
license: 0
latitude: 32.231934
longitude: -110.953888
accuracy: 15
views: 42
interestingness: 177 out of 253

photo: 6434831717 0fe18692e3 7173
owner: 59595657@N04
title: IMG_6568-1
originalsecret: null
originalformat: null
o_height: null
o_width: null
datetaken: 2011-11-20 11:49:38
dateupload: 1322717784
tags: arizona english college senior girl digital canon eos rebel reading book major friend girlfriend university tucson library arts teacher blonde degree bachelors xsi 450d
license: 0
latitude: 32.231934
longitude: -110.953888
accuracy: 15
views: 42
interestingness: 178 out of 253

photo: 6434830961 8252383cf2 7156
owner: 59595657@N04
title: IMG_6452-1
originalsecret: null
originalformat: null
o_height: null
o_width: null
datetaken: 2011-11-20 11:30:27
dateupload: 1322717769
tags: arizona english college senior girl digital canon eos rebel reading book major friend girlfriend university tucson library arts teacher blonde degree bachelors xsi 450d
license: 0
latitude: 32.231934
longitude: -110.953888
accuracy: 15
views: 37
interestingness: 179 out of 253

photo: 6434829907 1a167f9b51 7163
owner: 59595657@N04
title: IMG_6414-1
originalsecret: null
originalformat: null
o_height: null
o_width: null
datetaken: 2011-11-20 11:21:21
dateupload: 1322717747
tags: arizona english college senior girl digital canon eos rebel reading book major friend girlfriend university tucson library arts teacher blonde degree bachelors xsi 450d
license: 0
latitude: 32.231934
longitude: -110.953888
accuracy: 15
views: 39
interestingness: 180 out of 253

photo: 6434829167 ca5f18d3e3 7174
owner: 59595657@N04
title: IMG_6275-1
originalsecret: null
originalformat: null
o_height: null
o_width: null
datetaken: 2011-11-18 17:08:54
dateupload: 1322717732
tags: arizona english college senior girl digital canon eos rebel reading book major friend girlfriend university tucson library arts teacher blonde degree bachelors xsi 450d
license: 0
latitude: 32.2304
longitude: -110.947837
accuracy: 15
views: 38
interestingness: 181 out of 253

photo: 6434828505 c48887dbf0 7034
owner: 59595657@N04
title: IMG_6243-1
originalsecret: null
originalformat: null
o_height: null
o_width: null
datetaken: 2011-11-18 17:06:15
dateupload: 1322717720
tags: arizona english college senior girl digital canon eos rebel reading book major friend girlfriend university tucson library arts teacher blonde degree bachelors xsi 450d
license: 0
latitude: 32.2304
longitude: -110.947837
accuracy: 15
views: 52
interestingness: 182 out of 253

photo: 6434828059 0cbd659210 7167
owner: 59595657@N04
title: IMG_6182-1
originalsecret: null
originalformat: null
o_height: null
o_width: null
datetaken: 2011-11-18 16:54:16
dateupload: 1322717711
tags: arizona english college senior girl digital canon eos rebel reading book major friend girlfriend university tucson library arts teacher blonde degree bachelors xsi 450d
license: 0
latitude: 32.2304
longitude: -110.947837
accuracy: 15
views: 44
interestingness: 183 out of 253

photo: 6434802111 1177c22d75 7159
owner: 58023962@N04
title: IMG_3953-BeachReader
originalsecret: 1a98ce0b06
originalformat: jpg
o_height: 600
o_width: 900
datetaken: 2011-11-30 23:26:52
dateupload: 1322717212
tags: beach reading florida streetphotography daytonabeach agee streettogs timothyagee
license: 0
latitude: 29.225931
longitude: -81.006317
accuracy: 16
views: 1
interestingness: 184 out of 253

photo: 6434729769 c717b46796 7164
owner: 51527254@N02
title: I read banned books
originalsecret: dcd26c65fa
originalformat: jpg
o_height: 3204
o_width: 2629
datetaken: 2011-12-01 15:43:35
dateupload: 1322715903
tags: bannedbooks utslibrary
license: 1
latitude: -33.880712
longitude: 151.20258
accuracy: 15
views: 60
interestingness: 185 out of 253

photo: 6440012401 23ce61385c 7003
owner: 65163138@N08
title: Glory of Roger's Pass - Redux
originalsecret: null
originalformat: null
o_height: null
o_width: null
datetaken: 2011-07-16 15:57:07
dateupload: 1322802577
tags: mountains landscape nikon glorious newbie sweeping 18105
license: 0
latitude: 51.299911
longitude: -117.518928
accuracy: 11
views: 9
interestingness: 186 out of 253

photo: 6439099045 6d90c81321 7171
owner: 52642395@N00
title: St. Andrew's Episcopal Church in Edgartown, MA #TP21
originalsecret: ae36b15da2
originalformat: jpg
o_height: 2368
o_width: 1578
datetaken: 2011-12-01 17:02:37
dateupload: 1322787193
tags: church marthasvineyard edgartown tp21
license: 1
latitude: 41.390706
longitude: -70.513215
accuracy: 16
views: 11
interestingness: 187 out of 253

photo: 6439063005 73e821bc36 7022
owner: 12991766@N02
title: Light reading.
originalsecret: null
originalformat: null
o_height: null
o_width: null
datetaken: 2011-12-01 19:44:01
dateupload: 1322786641
tags: square nashville squareformat iphoneography instagramapp uploaded:by=instagram foursquare:venue=4deab98ad4c00071b82bbc37
license: 0
latitude: 39.961905
longitude: -75.155691
accuracy: 16
views: 0
interestingness: 188 out of 253

photo: 6437673573 db57a39f13 7010
owner: 44009671@N02
title: New library members
originalsecret: null
originalformat: null
o_height: null
o_width: null
datetaken: 2011-12-01 15:26:51
dateupload: 1322767611
tags: reading librarycard literacy membership bearriver digbycounty westerncountiesregionallibrary
license: 0
latitude: 44.572371
longitude: -65.643482
accuracy: 16
views: 14
interestingness: 189 out of 253

photo: 6436945409 e80d8c2536 7156
owner: 66147955@N05
title: Guy on a banch reading his newspaper
originalsecret: 6871d9c7d5
originalformat: jpg
o_height: 1067
o_width: 1600
datetaken: 2011-06-13 11:09:04
dateupload: 1322757773
tags: 
license: 0
latitude: 49.006888
longitude: 2.120361
accuracy: 5
views: 51
interestingness: 190 out of 253

photo: 6436657675 35e4ebda6a 7170
owner: 40938484@N02
title: Fallen rocket in my yard. No ID except a small photo that reads "Good luck, Georgia!"
originalsecret: b57f859f94
originalformat: jpg
o_height: 612
o_width: 612
datetaken: 2011-12-01 07:39:34
dateupload: 1322753974
tags: square squareformat normal iphoneography instagramapp uploaded:by=instagram foursquare:venue=4ba539eff964a5207eee38e3
license: 0
latitude: 34.441562
longitude: -119.65819
accuracy: 16
views: 2
interestingness: 191 out of 253

photo: 6433760227 0120d837c4 7034
owner: 15364898@N08
title: Reader in a Wreath - Mary Maloney for Room to Read
originalsecret: bc1000ba09
originalformat: jpg
o_height: 1800
o_width: 1800
datetaken: 2011-12-01 00:00:37
dateupload: 1322701497
tags: westminster festival wreaths 2011 carrollartscenter carrollcountyartscouncil
license: 0
latitude: 39.577487
longitude: -76.998678
accuracy: 16
views: 16
interestingness: 192 out of 253

photo: 6439801601 c7ffcb5f0a 7171
owner: 14599003@N06
title: I wonder if there's more ... ?
originalsecret: efaa1830e6
originalformat: jpg
o_height: 1796
o_width: 2394
datetaken: 2010-12-28 09:22:09
dateupload: 1322798786
tags: bear rotterdam polarbear vicks crow blijdorpzoo
license: 0
latitude: 51.862499
longitude: 4.521689
accuracy: 13
views: 27
interestingness: 193 out of 253

photo: 6439716821 92e838de8d 7174
owner: 44144211@N07
title: P1070965
originalsecret: 3f4275396a
originalformat: jpg
o_height: 2736
o_width: 3648
datetaken: 2011-11-26 17:09:55
dateupload: 1322797480
tags: pa rdg boyertown coaldock readingcompany colebrookdalebranch
license: 1
latitude: 40.334506
longitude: -75.633814
accuracy: 16
views: 3
interestingness: 194 out of 253

photo: 6439711291 9e25bea6a5 7168
owner: 44144211@N07
title: P1070957
originalsecret: 7575cd148f
originalformat: jpg
o_height: 2736
o_width: 3648
datetaken: 2011-11-26 16:57:20
dateupload: 1322797392
tags: pa rdg aspx boyertown readingcompany colebrookdalebranch
license: 1
latitude: 40.331427
longitude: -75.636513
accuracy: 16
views: 1
interestingness: 195 out of 253

photo: 6439709345 9ac190d1c4 7018
owner: 23942903@N00
title: IMG_0564.CR2
originalsecret: 84507e66e7
originalformat: jpg
o_height: 800
o_width: 1200
datetaken: 2011-11-01 10:04:08
dateupload: 1322797359
tags: nj njtransit boundbrook alstompl42ac njtr4001
license: 0
latitude: 40.56087
longitude: -74.530134
accuracy: 16
views: 8
interestingness: 196 out of 253

photo: 6438238973 5784090d1e 7006
owner: 12072678@N00
title: Day One. Read My Lips. 4/5
originalsecret: null
originalformat: null
o_height: null
o_width: null
datetaken: 2011-12-01 13:29:46
dateupload: 1322774986
tags: square squareformat rise iphoneography instagramapp uploaded:by=instagram
license: 1
latitude: 43.64559
longitude: -79.41168
accuracy: 16
views: 2
interestingness: 197 out of 253

photo: 6437980219 f5b98779e0 7013
owner: 12072678@N00
title: Almost time for @davidstea "Read My Lips", day 1 of my advent calendar.
originalsecret: null
originalformat: null
o_height: null
o_width: null
datetaken: 2011-12-01 12:35:59
dateupload: 1322771759
tags: square squareformat rise iphoneography instagramapp uploaded:by=instagram
license: 1
latitude: 43.64559
longitude: -79.41168
accuracy: 16
views: 3
interestingness: 198 out of 253

photo: 6435616379 943430f83d 7162
owner: 69505063@N05
title: Louise Stephanie I Laundry Room: The Best of Brussels Luxury Apartments
originalsecret: null
originalformat: null
o_height: null
o_width: null
datetaken: 2011-12-01 04:35:07
dateupload: 1322735707
tags: apartments belgium rentals brusselsluxuryapartments brusselsapartmentrentals apartmentsforrentinbrusselsapartmentsrentalstobelgium
license: 0
latitude: 50.848381
longitude: 4.349679
accuracy: 11
views: 5
interestingness: 199 out of 253

photo: 6439715649 5e05da3bcc 7025
owner: 44144211@N07
title: P1070963
originalsecret: 59e391480b
originalformat: jpg
o_height: 2736
o_width: 3648
datetaken: 2011-11-26 17:09:04
dateupload: 1322797461
tags: pa rdg boyertown readingcompany colebrookdalebranch
license: 1
latitude: 40.334506
longitude: -75.633814
accuracy: 16
views: 2
interestingness: 200 out of 253

photo: 6439713417 c206f950a4 7034
owner: 44144211@N07
title: P1070959
originalsecret: 90fda84e3a
originalformat: jpg
o_height: 2736
o_width: 3648
datetaken: 2011-11-26 17:05:32
dateupload: 1322797425
tags: pa rdg boyertown readingcompany colebrookdalebranch
license: 1
latitude: 40.334506
longitude: -75.633814
accuracy: 16
views: 1
interestingness: 201 out of 253

photo: 6439257549 fc1d2b7a3f 7161
owner: 45676477@N07
title: HC4B7670.JPG
originalsecret: null
originalformat: null
o_height: null
o_width: null
datetaken: 2011-12-01 21:14:57
dateupload: 1322789767
tags: worship praise eucharisticadoration eyefi bostoncatholic
license: 0
latitude: 42.520969
longitude: -71.113021
accuracy: 15
views: 93
interestingness: 202 out of 253

photo: 6439173321 e3a9cde66f 7154
owner: 45676477@N07
title: HC3Y7426.JPG
originalsecret: null
originalformat: null
o_height: null
o_width: null
datetaken: 2011-12-01 21:07:48
dateupload: 1322788377
tags: worship praise eucharisticadoration eyefi bostoncatholic
license: 0
latitude: 42.520969
longitude: -71.113021
accuracy: 15
views: 88
interestingness: 203 out of 253

photo: 6439129107 42fdfffab8 7144
owner: 45676477@N07
title: HC3Y7405.JPG
originalsecret: null
originalformat: null
o_height: null
o_width: null
datetaken: 2011-12-01 20:37:01
dateupload: 1322787672
tags: worship praise eucharisticadoration eyefi bostoncatholic
license: 0
latitude: 42.520969
longitude: -71.113021
accuracy: 15
views: 74
interestingness: 204 out of 253

photo: 6439101715 275008e813 7146
owner: 45676477@N07
title: HC3Y7413.JPG
originalsecret: null
originalformat: null
o_height: null
o_width: null
datetaken: 2011-12-01 20:41:13
dateupload: 1322787234
tags: worship praise eucharisticadoration eyefi bostoncatholic
license: 0
latitude: 42.520969
longitude: -71.113021
accuracy: 15
views: 90
interestingness: 205 out of 253

photo: 6439074501 fdb32af200 7015
owner: 45676477@N07
title: HC3Y7410.JPG
originalsecret: null
originalformat: null
o_height: null
o_width: null
datetaken: 2011-12-01 20:38:50
dateupload: 1322786822
tags: worship praise eucharisticadoration eyefi bostoncatholic
license: 0
latitude: 42.520969
longitude: -71.113021
accuracy: 15
views: 65
interestingness: 206 out of 253

photo: 6439019831 3829b5c66c 7017
owner: 45676477@N07
title: HC4B7663.JPG
originalsecret: null
originalformat: null
o_height: null
o_width: null
datetaken: 2011-12-01 20:27:26
dateupload: 1322785942
tags: worship praise eucharisticadoration eyefi bostoncatholic
license: 0
latitude: 42.520969
longitude: -71.113021
accuracy: 15
views: 72
interestingness: 207 out of 253

photo: 6439016491 c969d86932 7156
owner: 45676477@N07
title: HC4B7652.JPG
originalsecret: null
originalformat: null
o_height: null
o_width: null
datetaken: 2011-12-01 20:27:16
dateupload: 1322785889
tags: worship praise eucharisticadoration eyefi bostoncatholic
license: 0
latitude: 42.520969
longitude: -71.113021
accuracy: 15
views: 74
interestingness: 208 out of 253

photo: 6438986907 fc39ab466f 7153
owner: 45676477@N07
title: HC4B7646.JPG
originalsecret: null
originalformat: null
o_height: null
o_width: null
datetaken: 2011-12-01 20:21:39
dateupload: 1322785421
tags: worship praise eucharisticadoration eyefi bostoncatholic
license: 0
latitude: 42.520969
longitude: -71.113021
accuracy: 15
views: 72
interestingness: 209 out of 253

photo: 6438973871 9c8896846c 7004
owner: 45676477@N07
title: HC4B7638.JPG
originalsecret: null
originalformat: null
o_height: null
o_width: null
datetaken: 2011-12-01 20:10:27
dateupload: 1322785221
tags: worship praise eucharisticadoration eyefi bostoncatholic
license: 0
latitude: 42.520969
longitude: -71.113021
accuracy: 15
views: 67
interestingness: 210 out of 253

photo: 6438972129 8f0155a1d1 7010
owner: 45676477@N07
title: HC4B7635.JPG
originalsecret: null
originalformat: null
o_height: null
o_width: null
datetaken: 2011-12-01 20:08:09
dateupload: 1322785195
tags: worship praise eucharisticadoration eyefi bostoncatholic
license: 0
latitude: 42.520969
longitude: -71.113021
accuracy: 15
views: 64
interestingness: 211 out of 253

photo: 6438970547 4d5d2525d4 7001
owner: 45676477@N07
title: HC4B7631.JPG
originalsecret: null
originalformat: null
o_height: null
o_width: null
datetaken: 2011-12-01 20:07:06
dateupload: 1322785170
tags: worship praise eucharisticadoration eyefi bostoncatholic
license: 0
latitude: 42.520969
longitude: -71.113021
accuracy: 15
views: 65
interestingness: 212 out of 253

photo: 6438969129 deaa572e38 7144
owner: 45676477@N07
title: HC4B7622.JPG
originalsecret: null
originalformat: null
o_height: null
o_width: null
datetaken: 2011-12-01 20:06:15
dateupload: 1322785149
tags: worship praise eucharisticadoration eyefi bostoncatholic
license: 0
latitude: 42.520969
longitude: -71.113021
accuracy: 15
views: 64
interestingness: 213 out of 253

photo: 6438860237 37735f5ee9 7168
owner: 45676477@N07
title: HC3Y7349.JPG
originalsecret: null
originalformat: null
o_height: null
o_width: null
datetaken: 2011-12-01 19:49:22
dateupload: 1322783471
tags: worship praise eucharisticadoration eyefi bostoncatholic
license: 0
latitude: 42.520969
longitude: -71.113021
accuracy: 15
views: 65
interestingness: 214 out of 253

photo: 6438851583 ed2dffee4e 7165
owner: 45676477@N07
title: HC3Y7338.JPG
originalsecret: null
originalformat: null
o_height: null
o_width: null
datetaken: 2011-12-01 19:46:50
dateupload: 1322783345
tags: worship praise eucharisticadoration eyefi bostoncatholic
license: 0
latitude: 42.520969
longitude: -71.113021
accuracy: 15
views: 71
interestingness: 215 out of 253

photo: 6438848153 b9b9d95426 7016
owner: 45676477@N07
title: HC3Y7331.JPG
originalsecret: null
originalformat: null
o_height: null
o_width: null
datetaken: 2011-12-01 19:43:34
dateupload: 1322783293
tags: worship praise eucharisticadoration eyefi bostoncatholic
license: 0
latitude: 42.520969
longitude: -71.113021
accuracy: 15
views: 69
interestingness: 216 out of 253

photo: 6438844527 3ae440cba5 7001
owner: 45676477@N07
