
mintime: 1322697600 maxtime: 1324512427.5
numimgs: 50
total pages: 1
visiting only 1 pages ( up to 250 images)
photo: 6459721133 62690ea6bb 7150
owner: 45753292@N03
title: Life is short, Break the rules, Forgive quickly, Kiss slowly, Love truly, Laugh uncontrollably, And never regret anything that made you smile
originalsecret: null
originalformat: null
o_height: null
o_width: null
datetaken: 2010-04-23 19:58:15
dateupload: 1323094378
tags: mygearandme ringexcellence dblringexcellence tplringexcellence
license: 0
latitude: 37.106943
longitude: 25.375328
accuracy: 13
views: 163
interestingness: 1 out of 50

photo: 6462016477 6b113844d6 7167
owner: 10698020@N08
title: Rule Britannia
originalsecret: 4a172b5ab6
originalformat: jpg
o_height: 2736
o_width: 3648
datetaken: 2011-12-04 00:55:38
dateupload: 1323119988
tags: blackandwhite monochrome blackwhite noiretblanc market guitar streetphotography streetlife londres guitarhero biancoenero rulebritannia scattidistrada ianbrumpton aimlessstrolling londonatlarge
license: 0
latitude: 51.52827
longitude: -0.073385
accuracy: 15
views: 252
interestingness: 2 out of 50

photo: 6452115147 bf72c89b68 7175
owner: 88468856@N00
title: STILL AUTUMN
originalsecret: null
originalformat: null
o_height: null
o_width: null
datetaken: 2011-12-04 11:52:48
dateupload: 1323000264
tags: autumn red orange green leaves yellow japan japanese tokyo maple nikon foliage momiji ?? nippon ?? saitama ?? ? aki mapletrees ?? d300 heirinji ??? niiza ajpscs ?? ????????
license: 0
latitude: 35.789152
longitude: 139.557086
accuracy: 16
views: 269
interestingness: 3 out of 50

photo: 6458994421 e0f4755e1e 7149
owner: 26544477@N03
title: Nail Art - Heartbeat + TUTORIAL
originalsecret: 1ea58b8a12
originalformat: jpg
o_height: 768
o_width: 1024
datetaken: 2011-11-30 13:26:07
dateupload: 1323083053
tags: nail nailart holographic heartbeat
license: 0
latitude: -28.465748
longitude: -49.026403
accuracy: 14
views: 543
interestingness: 4 out of 50

photo: 6471045285 d1bf57d27d 7144
owner: 26544477@N03
title: Nail Art - Christmas tree + Tutorial
originalsecret: e266b1d740
originalformat: jpg
o_height: 768
o_width: 1024
datetaken: 2011-12-06 19:02:10
dateupload: 1323257643
tags: natal nail christmastree tutorial nailart
license: 0
latitude: -28.465786
longitude: -49.026489
accuracy: 14
views: 455
interestingness: 5 out of 50

photo: 6473432317 b1f5bbc20a 7005
owner: 7132158@N07
title: Morality is the best of all rules to guide humanity
originalsecret: 24288de0e0
originalformat: jpg
o_height: 718
o_width: 1280
datetaken: 2011-09-20 18:54:16
dateupload: 1323291399
tags: longexposure wallpaper blackandwhite bw sunlight seascape portugal nature landscape mono sand rocks waves background coastline portfolio pretoebranco thunder atalaia leiria foreground waterscape slowshutterspeed neutral exposi??olonga raylight lourinh? praiadaareiabranca
license: 0
latitude: 39.253391
longitude: -9.340095
accuracy: 16
views: 217
interestingness: 6 out of 50

photo: 6446672485 6e54bafa1b 7005
owner: 30268339@N07
title: Guitar & Bokeh
originalsecret: null
originalformat: null
o_height: null
o_width: null
datetaken: 2011-12-02 21:02:53
dateupload: 1322921314
tags: nikon bokeh guitar soccer misc 200 chuck mm onelight f20 pasadenatexas sb900 nikon200mmf20 removedfromstrobistpool incompletestrobistinfo seerule2 cmitchellphotography
license: 0
latitude: 29.690839
longitude: -95.196296
accuracy: 11
views: 189
interestingness: 7 out of 50

photo: 6452115365 0d4196fc2d 7010
owner: 88468856@N00
title: FLAME OF LOVE
originalsecret: null
originalformat: null
o_height: null
o_width: null
datetaken: 2011-12-03 16:50:09
dateupload: 1323000267
tags: park nightphotography winter fountain japan japanese tokyo nikon december streetphotography lovers dating ?? nippon ?? ? aftertherain yoyogipark fuyu yoyogikoen d300 flameoflove ??? ajpscs
license: 0
latitude: 35.670363
longitude: 139.695763
accuracy: 16
views: 268
interestingness: 8 out of 50

photo: 6444977071 1f6418775f 7020
owner: 40531740@N08
title: Have I Got a Present for You! (Elf on a Shelf)
originalsecret: 68547bea23
originalformat: jpg
o_height: 1024
o_width: 722
datetaken: 2011-12-02 22:19:46
dateupload: 1322886946
tags: 2005 christmas family winter light holiday night canon festive season children 50mm lights book bokeh outdoor iowa shelf story elf 7d present santaclaus tradition f18 desmoines selfpublished northpole narrowdof amazingstory 2011 niftyfifty bokehballs elfonashelf chandabell carolaebersold coesteinwart
license: 3
latitude: 41.59009
longitude: -93.461723
accuracy: 16
views: 153
interestingness: 9 out of 50

photo: 6451894443 7425cbf79d 7005
owner: 49927055@N08
title: abstract~Shanghai architecture
originalsecret: 169b82e669
originalformat: jpg
o_height: 1900
o_width: 1073
datetaken: 2011-11-28 15:47:05
dateupload: 1322996644
tags: china blackandwhite abstract building glass monochrome architecture shanghai steel twist curve mimokhair getpushed
license: 0
latitude: 31.247709
longitude: 121.472618
accuracy: 11
views: 130
interestingness: 10 out of 50

photo: 6452114799 0e401dd5c4 7034
owner: 88468856@N00
title: AUTUMN TO WINTER
originalsecret: null
originalformat: null
o_height: null
o_width: null
datetaken: 2011-12-03 16:28:33
dateupload: 1323000258
tags: park autumn trees winter red orange reflection green water leaves yellow japan night temple japanese tokyo maple nikon shrine december branches foliage momiji ?? nippon ?? ?? ? aki ? aftertherain yoyogipark mapletrees fuyu yoyogikoen d300 ????? autumntowinter ajpscs ?flickraward? streetphotography??nightshot
license: 0
latitude: 35.670869
longitude: 139.694697
accuracy: 16
views: 281
interestingness: 11 out of 50

photo: 6435896101 0be9cff5ea 7027
owner: 26544477@N03
title: Nail Art - Nude Leaves (Konadcure)
originalsecret: dbabd1878d
originalformat: jpg
o_height: 768
o_width: 1024
datetaken: 2011-11-24 10:56:18
dateupload: 1322741556
tags: unhas nailart esmaltes colorama konad
license: 0
latitude: -28.46571
longitude: -49.026532
accuracy: 14
views: 732
interestingness: 12 out of 50

photo: 6465331925 d8ce47f644 7167
owner: 58881575@N02
title: Regensburg - First Winter Days
originalsecret: null
originalformat: null
o_height: null
o_width: null
datetaken: 2011-12-05 10:11:26
dateupload: 1323171188
tags: winter sunset sky reflection water weather canon river catholic dusk medieval 5d regensburg ratisbon danube steinernebr?cke regensburgerdom salzstadel saltstorage canon5dmkii h?ndlmaiersenf 5dmarkii 5dmark2 canon5dmarkii krieglsteiner 1982chris911 christiankrieglsteiner wurschtkuchel
license: 0
latitude: 49.022265
longitude: 12.095614
accuracy: 16
views: 113
interestingness: 13 out of 50

photo: 6459069191 727cc2c28b 7153
owner: 35092241@N03
title: Arc Bay
originalsecret: c2d1792b1f
originalformat: jpg
o_height: 945
o_width: 1023
datetaken: 2011-12-05 16:56:50
dateupload: 1323084410
tags: cruise sunset japan clouds canon buildings tokyo evening bay ship tokina 7d arco cpl 1224 hoya ginz goldenrays prasanthchandran gulfuin gulfuphotography rotatingmshilloutte bestjapanphotos
license: 1
latitude: 35.69979
longitude: 139.430953
accuracy: 1
views: 182
interestingness: 14 out of 50

photo: 6376899825 48f2d3a606 6094
owner: 7662015@N05
title: the Blue mosque ~ Istanbul
originalsecret: null
originalformat: null
o_height: null
o_width: null
datetaken: 2011-11-07 12:57:03
dateupload: 1323172623
tags: history turkey stainedglass istanbul dome oldcity ottomanarchitecture izniktiles sultanahmetcamii thebluemosque img3973 sultanahmeti vitrailles orianaitaly sultanahmetdistrict theancientnicaea greekistenpolisthatsthecity venicestainedglasswidows
license: 0
latitude: 41.003625
longitude: 28.981256
accuracy: 13
views: 101
interestingness: 15 out of 50

photo: 6446069219 0df747e26c 7150
owner: 26544477@N03
title: Nail Art -  Purple Love + TUTORIAL
originalsecret: ee54367b7c
originalformat: jpg
o_height: 768
o_width: 1024
datetaken: 2011-12-01 22:12:50
dateupload: 1322910615
tags: 
license: 0
latitude: -28.465692
longitude: -49.026489
accuracy: 14
views: 832
interestingness: 16 out of 50

photo: 5235545157 c895fbda3d 5003
owner: 31269857@N08
title: Flat out / No limit
originalsecret: a8a697b880
originalformat: jpg
o_height: 1024
o_width: 1539
datetaken: 2010-11-27 14:57:12
dateupload: 1322865667
tags: summer water sport race speed plane fun boat flying nikon sailing yacht foil sydney australia racing explore nsw sail recreation reach spinnaker weekly skiff trapeze sydneyharbour yachting mosman ?sydney monohull d700 squadron? 18footskiffs
license: 0
latitude: -33.849354
longitude: 151.25204
accuracy: 13
views: 412
interestingness: 17 out of 50

photo: 6443163319 41e6aaf773 7163
owner: 55013356@N02
title: Balihati Jomidar Middle Part
originalsecret: null
originalformat: null
o_height: null
o_width: null
datetaken: 2011-11-26 01:15:36
dateupload: 1322857167
tags: old red sky bw cloud white color green nature beautiful beauty yellow canon buildings wonderful lens landscape eos evening amazing colorful dof village shot samsung 300mm 55mm intel excellent lovely 18mm 75mm supershot i7 70mm300mm 450d 18mm55mm
license: 0
latitude: 23.940343
longitude: 90.185222
accuracy: 11
views: 108
interestingness: 18 out of 50

photo: 6440675203 0314e71738 7017
owner: 8330055@N04
title: The Preacher: It can work for the lord as well as the devil! Colorado: Ai chihuahua.
originalsecret: null
originalformat: null
o_height: null
o_width: null
datetaken: 2011-11-25 04:49:25
dateupload: 1322816857
tags: nov sunset red arizona usa sun mountain rock canon glow grand canyon formation allrightsreserved fiery 2011 poonamparihar poonampariharcom
license: 0
latitude: 36.28461
longitude: -112.808433
accuracy: 1
views: 90
interestingness: 19 out of 50

photo: 6459460479 2c52e8688a 7005
owner: 7739390@N07
title: Frigid falls
originalsecret: null
originalformat: null
o_height: null
o_width: null
datetaken: 2011-12-04 16:10:58
dateupload: 1323092280
tags: uk longexposure chris water southwales wales river landscape waterfall hammerton pontardawe lowerclydach
license: 0
latitude: 51.726097
longitude: -3.864226
accuracy: 14
views: 62
interestingness: 20 out of 50

photo: 6452115037 460c57a866 7170
owner: 88468856@N00
title: FAIRIES
originalsecret: null
originalformat: null
o_height: null
o_width: null
datetaken: 2011-12-03 17:38:51
dateupload: 1323000262
tags: nightphotography winter japan japanese tokyo nikon december illuminations streetphotography ?? nippon ?? fairies ? omotesando meijijingu fuyu d300 ??? ajpscs zelkovatrees fairiesomotesandoilluminations2011 fairies???????????2011
license: 0
latitude: 35.667611
longitude: 139.707197
accuracy: 16
views: 273
interestingness: 21 out of 50

photo: 6435212147 bc6cf1ae9a 7002
owner: 10201287@N04
title: lonely simple morning
originalsecret: null
originalformat: null
o_height: null
o_width: null
datetaken: 2011-11-27 07:17:17
dateupload: 1322725854
tags: morning abandoned sunrise decay oldhouse abandonedhouse coconuttree simple paddyfield selangor ruleofthird ro3 simpanglima sungaibesar sabakbernam
license: 0
latitude: 3.666699
longitude: 100.983299
accuracy: 11
views: 90
interestingness: 22 out of 50

photo: 6481312845 2599e9403e 7154
owner: 26544477@N03
title: Nail Art - Go to the North Pole + Tutorial
originalsecret: c71146b965
originalformat: jpg
o_height: 768
o_width: 1024
datetaken: 2011-12-07 19:02:03
dateupload: 1323430108
tags: snow natal nail tutorial nailart
license: 0
latitude: -28.46571
longitude: -49.026403
accuracy: 14
views: 261
interestingness: 23 out of 50

photo: 6470803921 082048d518 7146
owner: 56002275@N05
title: Pellenes sp.?, Male, Cairns, QLD, Australia
originalsecret: 514aa5eb57
originalformat: jpg
o_height: 4096
o_width: 6144
datetaken: 2011-12-07 16:50:53
dateupload: 1323252528
tags: macro nature spider australia jumpingspider salticidae removedfromstrobistpool pellenes incompletestrobistinfo seerule2
license: 0
latitude: -16.92646
longitude: 145.77597
accuracy: 11
views: 78
interestingness: 24 out of 50

photo: 6460391931 291ff5f4c5 7172
owner: 61020729@N04
title: Kerman, Iran
originalsecret: null
originalformat: null
o_height: null
o_width: null
datetaken: 2009-08-07 13:28:49
dateupload: 1323102092
tags: light shadow arch iran decay persia motorbike motor ????? kerman islamicarchitecture ir?n ????? ????? ????? ???? ?????? ????? persianarchitecture persien carmana ??? kirman ?? ir? kermancity kermanprovince ?? ????? kerm?n ???? ???? ?????????? ???? ???? kerm?n ost?nekerm?n ?ran ????? ??????? ??? kermanas ???
license: 0
latitude: 30.287457
longitude: 57.067108
accuracy: 16
views: 123
interestingness: 25 out of 50

photo: 6459347341 496560deeb 7017
owner: 27869077@N05
title: The Beneficiary of a Thousand Smiles
originalsecret: null
originalformat: null
o_height: null
o_width: null
datetaken: 2011-12-04 15:47:26
dateupload: 1323177821
tags: motion love with magic happiness it backstreet karma kindness mojo understanding meaning feelin thepath soulpatrol livingwell itwasabeautifulsunrise viewminder iwatchedthesunrisethismorning andithoughtabouteverything ithoughtabouthowluckyiam tohavefoundthispath ortohavethispathfindme howamillionrandomoccurencesputmehere ivegottowatchmoreofthem yougottagooutshootinwithme itllchangeyou apartofsomethingbigger lovesharing youthese daysgivin tyronewells~together
license: 0
latitude: 41.889059
longitude: -87.639291
accuracy: 15
views: 197
interestingness: 26 out of 50

photo: 6451856137 7d72b82023 7169
owner: 26544477@N03
title: Luna - Sancion Angel HEFESTADO!
originalsecret: b488c35336
originalformat: jpg
o_height: 768
o_width: 1024
datetaken: 2011-12-03 14:12:13
dateupload: 1322995960
tags: nail hits holographic unha sancionangel
license: 0
latitude: -28.465748
longitude: -49.026446
accuracy: 14
views: 440
interestingness: 27 out of 50

photo: 6460545249 26d86cc927 7033
owner: 61896887@N00
title: Holly poses as Veronica Lake
originalsecret: null
originalformat: null
o_height: null
o_width: null
datetaken: 2011-12-04 19:06:11
dateupload: 1323103719
tags: usa missouri universitycity nostrobistinfo removedfromstrobistpool incompletestrobistinfo seerule2 hollymodelshoot
license: 0
latitude: 38.657503
longitude: -90.306656
accuracy: 16
views: 165
interestingness: 28 out of 50

photo: 6449151843 0cf61f857b 7035
owner: 36329380@N02
title: Weeping Willow
originalsecret: null
originalformat: null
o_height: null
o_width: null
datetaken: 2011-11-13 11:05:25
dateupload: 1322952716
tags: autumn winter colors landscape photography seasons hellas greece kostas pindos epirus petrakis valiakalnta
license: 0
latitude: 39.941067
longitude: 21.119956
accuracy: 11
views: 66
interestingness: 29 out of 50

photo: 6478010971 c0c4e132be 7165
owner: 23430468@N05
title: Toward serenity
originalsecret: null
originalformat: null
o_height: null
o_width: null
datetaken: 2011-12-09 02:26:54
dateupload: 1323391510
tags: sunset tourism beautiful beauty architecture composition 35mm one long exposure minaret islam mosque line malaysia be there third thumb format 20mm indah jogging malaysian f8 rule leading pkr f28 taman allah islamic selangor 2010 shah alam swt tasik fairuz uwa 2011 rakyat zilzal ciptaan d700 pakatan kejadian syumul
license: 0
latitude: 3.09202
longitude: 101.490371
accuracy: 11
views: 72
interestingness: 30 out of 50

photo: 6444096119 fd18129865 7141
owner: 8403148@N08
title: CAERNARFON CASTLE.
originalsecret: 9d507c34dc
originalformat: jpg
o_height: 2474
o_width: 3706
datetaken: 2011-11-19 13:36:21
dateupload: 1322871212
tags: castles wales longshanks fortresses caernarfon caernarvoncastle northwales caernarvon edwardthefirst
license: 2
latitude: 53.140257
longitude: -4.277157
accuracy: 14
views: 46
interestingness: 31 out of 50

photo: 6445753855 741e355642 7014
owner: 23502939@N02
title: Torm Alice
originalsecret: null
originalformat: null
o_height: null
o_width: null
datetaken: 2011-12-03 10:12:11
dateupload: 1322903531
tags: bw haven port ship belgium gent janherremans tormalice
license: 0
latitude: 51.108695
longitude: 3.740501
accuracy: 11
views: 128
interestingness: 32 out of 50

photo: 6478983921 b282a1b043 7016
owner: 39866320@N04
title: The old city of Damascus, Syria.
originalsecret: null
originalformat: null
o_height: null
o_width: null
datetaken: 2011-01-11 20:12:45
dateupload: 1323383639
tags: old city history architecture night canon buildings syria historical damascus citycentre sigma1020mm eos500d t1i
license: 0
latitude: 33.511709
longitude: 36.308881
accuracy: 15
views: 114
interestingness: 33 out of 50

photo: 6463566511 6d80e6b92e 7169
owner: 97133246@N00
title: It is cold and windy and I don't care how close you get with that lens, I am not moving
originalsecret: null
originalformat: null
o_height: null
o_width: null
datetaken: 2011-12-05 13:56:24
dateupload: 1323139949
tags: california bird nature photography nikon holidays hummingbird wildlife deby avian allrightsreserved 2011 debydixon debydixonphotography
license: 0
latitude: 34.248135
longitude: -114.20288
accuracy: 6
views: 108
interestingness: 34 out of 50

photo: 6455822831 d8f1ed6a79 7011
owner: 30909354@N00
title: December 1, 2011 {365-335}
originalsecret: null
originalformat: null
o_height: null
o_width: null
datetaken: 2011-12-01 09:36:07
dateupload: 1323039820
tags: california door cold girl oneaday childhood tallulah youth photo kid nikon triangle alone child sad daughter young redhead doorway ill tired photoaday depressed inside isolation 365 redhair sick morose fever weary quarantine pictureaday cough lookingout fairoaks unwell project365 d700 danielmacdonald dmacphoto danielmacdonaldphotographer dmacphotocom
license: 0
latitude: 38.635431
longitude: -121.286594
accuracy: 16
views: 105
interestingness: 35 out of 50

photo: 6469243129 0f949628c0 7156
owner: 56262405@N04
title: 341|365 : dee~what's the headline?
originalsecret: null
originalformat: null
o_height: null
o_width: null
datetaken: 2011-12-07 08:14:37
dateupload: 1323224095
tags: justusinglightroom3forthisone
license: 0
latitude: -6.912419
longitude: 107.60691
accuracy: 11
views: 187
interestingness: 36 out of 50

photo: 6448524517 302cf77605 7006
owner: 53654205@N05
title: Lily of the Incas
originalsecret: 5bec489a6e
originalformat: jpg
o_height: 2336
o_width: 3504
datetaken: 2011-12-03 01:57:24
dateupload: 1322944851
tags: camera pink white abstract blur flower colour macro green 20d leaves photoshop canon eos leaf petals focus dof head sigma depthoffield highkey shallow dslr alstroemeria 105mm phototools silverefexpro
license: 0
latitude: 53.710729
longitude: -0.111923
accuracy: 11
views: 59
interestingness: 37 out of 50

photo: 6469675513 0058555ce1 7143
owner: 33788872@N05
title: (Snow) Leopard?
originalsecret: null
originalformat: null
o_height: null
o_width: null
datetaken: 2011-12-06 23:56:05
dateupload: 1323230484
tags: portrait woman girl model martinique removedfromstrobistpool nooffcameraflash incompletestrobistinfo seerule2
license: 0
latitude: 14.481167
longitude: -61.0305
accuracy: 16
views: 134
interestingness: 38 out of 50

photo: 6482344659 c841c00e34 7144
owner: 52254014@N00
title: The Gulf
originalsecret: 907441ab79
originalformat: jpg
o_height: 2317
o_width: 4120
datetaken: 2010-12-25 17:51:42
dateupload: 1323448117
tags: ocean christmas travel winter sunset sea usa color tree beach gulfofmexico nature water clouds nikon gulf florida outdoor availablelight fineart environmental william palm northamerica hdr captiva beem digimarc photomatix tonemapped nikonnikkor d700 southseasislandresort wbeem 2470mmf28g afszoomnikkor2470mmf28ged williambeem
license: 0
latitude: 26.551308
longitude: -82.201683
accuracy: 16
views: 40
interestingness: 39 out of 50

photo: 6452301785 29be4e1388 7161
owner: 63241514@N03
title: Rule the world!
originalsecret: null
originalformat: null
o_height: null
o_width: null
datetaken: 2010-10-14 20:01:37
dateupload: 1323002980
tags: usa orlando florida disney mickymouse hollywoodstudios
license: 0
latitude: 28.53815
longitude: -81.377384
accuracy: 16
views: 35
interestingness: 40 out of 50

photo: 6433750447 60bcb961aa 7173
owner: 28199562@N02
title: Sparkling Water Chester County Style
originalsecret: null
originalformat: null
o_height: null
o_width: null
datetaken: 2011-11-29 20:57:00
dateupload: 1322701351
tags: county sun lake water creek sunrise canon tony sparkle chester flare marsh babcock xsi
license: 0
latitude: 40.065296
longitude: -75.720434
accuracy: 13
views: 43
interestingness: 41 out of 50

photo: 6471492641 a7f5ca97bd 7154
owner: 34325628@N05
title: Bartender's at Rolf's - Manhattan, NYC
originalsecret: cbc90d6034
originalformat: jpg
o_height: 3168
o_width: 4752
datetaken: 2011-12-03 19:57:55
dateupload: 1323265693
tags: christmas nyc newyorkcity decorations people holiday newyork lights bars holidays manhattan candid restaurants gothamist decor bartenders eater rolfs thechallengefactory
license: 2
latitude: 40.737689
longitude: -73.983821
accuracy: 16
views: 137
interestingness: 42 out of 50

photo: 6443846777 68e3c65482 7029
owner: 31611900@N00
title: Reza (#138)
originalsecret: null
originalformat: null
o_height: null
o_width: null
datetaken: 2011-11-21 11:50:08
dateupload: 1322867086
tags: news man paris paper beard newspaper sudoku kiosk beyond reza 85mmf14 100strangers 20111121
license: 0
latitude: 48.847674
longitude: 2.34131
accuracy: 15
views: 123
interestingness: 43 out of 50

photo: 6447926553 74fdd1a3d3 7028
owner: 17780734@N06
title: IN S'ORU E SU STAI'NI
originalsecret: null
originalformat: null
o_height: null
o_width: null
datetaken: 2011-12-03 11:04:29
dateupload: 1322937289
tags: santa di stagno gilla ciu removedfromstrobistpool nooffcameraflash incompletestrobistinfo seerule2 seerule1
license: 0
latitude: 39.178048
longitude: 9.027242
accuracy: 13
views: 80
interestingness: 44 out of 50

photo: 6446234871 6c6c930052 7032
owner: 47290943@N03
title: December 3, 1910
originalsecret: 40e3336593
originalformat: jpg
o_height: 1890
o_width: 2498
datetaken: 1910-12-03 12:07:00
dateupload: 1322914020
tags: ireland westminster table suits december chairs cello moustaches courthouse mp lamps 1910 1910s rugs elections waterford munster homerule johnredmond generalelections nationallibraryofireland ahpoole irishparliamentaryparty
license: 7
latitude: 52.256876
longitude: -7.106818
accuracy: 16
views: 288
interestingness: 45 out of 50

photo: 6255229362 41cee43ba1 6095
owner: 8790735@N04
title: Cold hearted orb that rules the night. Removes the colours from our sight.
originalsecret: null
originalformat: null
o_height: null
o_width: null
datetaken: 2010-10-03 21:45:26
dateupload: 1323064802
tags: city sea france boats marseille cathedral harbour ships c?tedazur vieuxport darknight mediterreneansea frankhendriks
license: 0
latitude: 43.296058
longitude: 5.370329
accuracy: 15
views: 110
interestingness: 46 out of 50

photo: 6467868363 0f9c83ac5b 7002
owner: 60505856@N00
title: Biha?
originalsecret: null
originalformat: null
o_height: null
o_width: null
datetaken: 2011-08-01 21:29:18
dateupload: 1323205138
tags: 
license: 0
latitude: 44.81369
longitude: 15.87182
accuracy: 11
views: 70
interestingness: 47 out of 50

photo: 6437709037 16aa990290 7019
owner: 53761165@N06
title: rules?
originalsecret: null
originalformat: null
o_height: null
o_width: null
datetaken: 2011-11-24 22:48:55
dateupload: 1322768104
tags: autumn building fall industry nature oregon contrast season portland industrial tag tagged misterladybug
license: 0
latitude: 45.544831
longitude: -122.728271
accuracy: 6
views: 93
interestingness: 48 out of 50

photo: 6440804699 dedb500b27 7013
owner: 55769473@N07
title: Contemptor's Rules under base
originalsecret: 8e6a988362
originalformat: jpg
o_height: 3000
o_width: 4000
datetaken: 2011-12-02 09:53:13
dateupload: 1322820156
tags: 
license: 1
latitude: 45.510625
longitude: 9.086619
accuracy: 16
views: 396
interestingness: 49 out of 50

photo: 6463556679 1a5f0e65d2 7018
owner: 21841034@N04
title: A Candle and a Prayer
originalsecret: c44f9d252f
originalformat: jpg
o_height: 669
o_width: 1000
datetaken: 2008-04-10 09:31:41
dateupload: 1323139833
tags: church nikon candles prayer greece monastery crete nik sanctuary arkadi d80 everydaymiracles johnchouse
license: 0
latitude: 35.14492
longitude: 25.096809
accuracy: 11
views: 57
interestingness: 50 out of 50

photo: 6440178663 b0e719ea7e 7014
owner: 30421892@N04
title: Cloistered nun seen through closing doors
originalsecret: 179002e1bd
originalformat: jpg
o_height: 1879
o_width: 1356
datetaken: 2011-09-03 20:16:09
dateupload: 1322805700
tags: italy church nikon nun puglia manduria photogene
license: 3
latitude: 40.398349
longitude: 17.636589
accuracy: 11
views: 44
interestingness: 51 out of 50

photo: 6476370729 3190010d0c 7005
owner: 26544477@N03
title: Zeus - Hits
originalsecret: 3e08dd7001
originalformat: jpg
o_height: 768
o_width: 1024
datetaken: 2011-11-28 09:15:28
dateupload: 1323344926
tags: nail hits unhas holographic hologr?fico
license: 0
latitude: -28.465729
longitude: -49.026446
accuracy: 14
views: 242
interestingness: 52 out of 50

photo: 6466361875 9369a438b3 7018
owner: 30423848@N08
title: Religious Deem ['Ashura' Event in Dhaka Bangladesh 2011 by Shi'a Muslims.]
originalsecret: null
originalformat: null
o_height: null
o_width: null
datetaken: 2011-12-06 12:45:50
dateupload: 1323186762
tags: canon hit blood body cut sharp catch shia muharram dhaka 1855mm muslims bangladesh himself matam martyrdom sayeed prophetmuhammad 50d atik secrifice atikullah ashuraeventindhakabangladesh2011byshiamuslimsashura intheyear680ad religiousdeem neardu
license: 0
latitude: 23.700807
longitude: 90.391902
accuracy: 11
views: 93
interestingness: 53 out of 50

photo: 6460374677 bcf9d42c43 7008
owner: 44114334@N08
title: 20111205 "strange benches" 140/365
originalsecret: 5a292228b5
originalformat: jpg
o_height: 2848
o_width: 4272
datetaken: 2011-12-05 15:13:10
dateupload: 1323101919
tags: 
license: 0
latitude: 50.891749
longitude: 4.721642
accuracy: 16
views: 31
interestingness: 54 out of 50

photo: 6480967495 254f360a24 7144
owner: 93254204@N00
title: ...Friday!
originalsecret: null
originalformat: null
o_height: null
o_width: null
datetaken: 2011-12-03 14:11:17
dateupload: 1323421535
tags: autumn holland fall netherlands amsterdam bike europe wicked nophotoshop lifeisgood android app carpediem unedited htc stadsarchief 2011 mobilephonecam amstersam reflectah amstersm amsterdamthebestcityintheworld reflectionsofamsterdam checkoutmywebsitewwwamstersamcom wickedreflections thewickedreflectah amstersmthewickedreflectah htcdesire camera360 htcdesiremobilephonecam
license: 0
latitude: 52.353835
longitude: 4.912068
accuracy: 16
views: 58
interestingness: 55 out of 50

photo: 6447406189 49587a7f7f 7013
owner: 43556193@N03
title: Prince from the ruling Al Saud family
originalsecret: dcb2a08e16
originalformat: jpg
o_height: 2449
o_width: 1633
datetaken: 2011-12-01 20:51:57
dateupload: 1322931094
tags: 
license: 0
latitude: 24.713152
longitude: 46.634902
accuracy: 10
views: 60
interestingness: 56 out of 50

photo: 6480968155 14bf2a0d10 7167
owner: 93254204@N00
title: Thank God...
originalsecret: null
originalformat: null
o_height: null
o_width: null
datetaken: 2011-12-03 14:10:55
dateupload: 1323421550
tags: autumn holland fall netherlands amsterdam europe wicked nophotoshop lifeisgood android app carpediem unedited htc stadsarchief 2011 mobilephonecam amstersam reflectah amstersm amsterdamthebestcityintheworld reflectionsofamsterdam checkoutmywebsitewwwamstersamcom wickedreflections thewickedreflectah amstersmthewickedreflectah htcdesire camera360 htcdesiremobilephonecam
license: 0
latitude: 52.353835
longitude: 4.912068
accuracy: 16
views: 101
interestingness: 57 out of 50

photo: 6457275201 3428f298dd 7001
owner: 61374746@N08
title: Honolulu Pre Sunrise
originalsecret: null
originalformat: null
o_height: null
o_width: null
datetaken: 2011-12-04 01:04:07
dateupload: 1323055574
tags: sunrise honolulu hdr importedkeywordtags canon7d
license: 0
latitude: 21.286615
longitude: -157.844738
accuracy: 13
views: 62
interestingness: 58 out of 50

photo: 6442153887 76367fd986 7163
owner: 10725258@N00
title: move toward the light
originalsecret: f14826c72d
originalformat: jpg
o_height: 3000
o_width: 4000
datetaken: 2011-11-22 16:27:25
dateupload: 1322843435
tags: geotagged utah moab corrugated brilliance culvert culvertcanyon jeeparch thanksgiving2011 fireflycanyon geo:lat=3857903958138968 geo:lon=1096354100330658
license: 0
latitude: 38.579039
longitude: -109.63541
accuracy: 16
views: 32
interestingness: 59 out of 50

photo: 6333920735 347ff13b53 6113
owner: 76475621@N00
title: The greenery of the dying tree's remaining living treebranch is mirroring the shape of the gentle curve of the sidewalk!
originalsecret: null
originalformat: null
o_height: null
o_width: null
datetaken: 2011-09-01 12:15:05
dateupload: 1323106850
tags: street building tree hydrant landscape illinois downtown cityscape view landscaping cityhall pavement september sidewalk firehydrant dyingtree kerb curb streetscape fireplug rockford urbanlandscape paved secondstreet 2ndstreet walnutstreet overspray yellowpaint yellowhydrant rockfordillinois 2011 unhealthytree diseasedtree winnebagocounty yellowfirehydrant northernillinois south2ndstreet downtownrockford winnebagocountyillinois route251 illinoislandscape yellowspraypaint southsecondstreet september2011 sidewalklandscaping curvingstreet northillinois yellowfireplug curvingsidewalk 20110901 rockfordlandscape rockfordstreetscape downtownrockfordstreetscape img4070v3 illinoisroute251 stateroute251 rockfordcityscape rockfordcityhall
license: 0
latitude: 42.266825
longitude: -89.088065
accuracy: 16
views: 24
interestingness: 60 out of 50

photo: 6459014949 5884d76863 7162
owner: 35623598@N03
title: Brothers in the struggle
originalsecret: 029bd69c4f
originalformat: jpg
o_height: 1871
o_width: 2794
datetaken: 2011-11-27 11:22:31
dateupload: 1323083422
tags: korea soe kwangju may18memorial
license: 0
latitude: 35.158652
longitude: 126.931228
accuracy: 11
views: 36
interestingness: 61 out of 50

photo: 6320115456 93e93da0c5 6116
owner: 9103928@N06
title: Ilha de Ratones
originalsecret: null
originalformat: null
o_height: null
o_width: null
datetaken: 2011-10-29 11:28:54
dateupload: 1322873057
tags: 
license: 0
latitude: -27.449028
longitude: -48.568153
accuracy: 11
views: 61
interestingness: 62 out of 50

photo: 6475939963 517fe6ff85 7165
owner: 30423848@N08
title: Religious Deem- II ['Ashura' Event in Dhaka Bangladesh 2011 by Shi'a Muslims.]
originalsecret: null
originalformat: null
o_height: null
o_width: null
datetaken: 2011-12-06 11:34:05
dateupload: 1323335190
tags: people woman man self blood child body walk express procession takes loud yell grief matam 2011 suffered dhakacity religiousdeemashuraeventindhakabangladesh2011byshiamuslimsashura cuthurm emptyfoot withoutshose
license: 0
latitude: 23.701908
longitude: 90.392932
accuracy: 11
views: 44
interestingness: 63 out of 50

photo: 6445625237 c349fa3b3d 7031
owner: 35471453@N03
title: Monknash beach cascade
originalsecret: c043679d8a
originalformat: jpg
o_height: 2900
o_width: 4322
datetaken: 2011-12-02 17:11:44
dateupload: 1322900513
tags: longexposure beach water wales photoshop canon eos waterfall seaside sandstone dusk pebbles cliffs naturereserve cascades slowshutter brook broughton picnik ruleofthirds jurassiccoast welshcoast photomatix nashpoint marcross monknash coastalerosion southerdown 450d blaenycwm coastlinw
license: 0
latitude: 51.399205
longitude: -3.556823
accuracy: 11
views: 39
interestingness: 64 out of 50

photo: 6450748187 96a919bf75 7007
owner: 72825507@N00
title: Number 3. Lesson: How a change of viewpoint can drastically change the perception of the scene
originalsecret: 9f73fd1124
originalformat: jpg
o_height: 2004
o_width: 3007
datetaken: 2011-12-01 16:06:53
dateupload: 1322975598
tags: plant sage sagebrush iphone mikebaird
license: 4
latitude: 35.384666
longitude: -120.8655
accuracy: 16
views: 136
interestingness: 65 out of 50

photo: 6448288361 1a9dcf960e 7009
owner: 49966734@N05
title: Aline
originalsecret: null
originalformat: null
o_height: null
o_width: null
datetaken: 2011-11-27 12:40:04
dateupload: 1322941849
tags: italy boot south quay clothes kicking d300 removedfromstrobistpool incompletestrobistinfo seerule2
license: 0
latitude: 51.500401
longitude: -0.016082
accuracy: 16
views: 83
interestingness: 66 out of 50

photo: 6475634007 d9f7c153c9 7175
owner: 31644843@N07
title: Santa Fe 9500 COSNINO 10-16-86
originalsecret: null
originalformat: null
o_height: null
o_width: null
datetaken: 2011-12-08 01:04:56
dateupload: 1323327896
tags: 
license: 0
latitude: 35.213368
longitude: -111.5102
accuracy: 11
views: 31
interestingness: 67 out of 50

photo: 6472534939 66075d4939 7141
owner: 21680219@N04
title: Istiqlal youth during campaign
originalsecret: cfe35e2a04
originalformat: jpg
o_height: 2883
o_width: 4308
datetaken: 2011-11-24 16:29:09
dateupload: 1323279437
tags: lampe nikon noiretblanc parliament pi morocco maroc ?lections istiqlal gouvernement 2011 governement pjd generalelections socialistes l?gislatives d700 usfp koutla
license: 0
latitude: 33.570112
longitude: -7.639167
accuracy: 14
views: 37
interestingness: 68 out of 50

photo: 6446938983 13d5db76d1 7151
owner: 14170163@N05
title: For Everything Else There's...
originalsecret: null
originalformat: null
o_height: null
o_width: null
datetaken: 2011-12-03 14:47:50
dateupload: 1322925171
tags: 35mm prime kyoto hand bokeh retro adventcalendar mastercard creditcard day156 pdq project365 day521 plasticmoney cardmachine nikkor35mm foreverythingelsetheresmastercard objectoftheweek 03122011 analogapp processedbyanalog
license: 0
latitude: 50.905089
longitude: -3.491821
accuracy: 11
views: 58
interestingness: 69 out of 50

photo: 6441234967 df3d661ff8 7014
owner: 9274198@N04
title: Domes of Sultanahmet Masjid, Istanbul
originalsecret: null
originalformat: null
o_height: null
o_width: null
datetaken: 2009-12-14 19:47:40
dateupload: 1322829444
tags: blue building history architecture turkey nikon exterior muslim islam religion istanbul mosque dome empire frame ottoman 1855 bluemosque masjid sultanahmet d60 sultanahmed bluemasjid
license: 0
latitude: 41.031197
longitude: 28.974208
accuracy: 11
views: 48
interestingness: 70 out of 50

photo: 6439499705 1a70b88ed8 7156
owner: 11185080@N03
title: Incensed Heckler led away from  #n30 #strike Pensions Protest Preston Flag Market  - Too much of the  Daily Mail & that Murdoch comic The S** resulting in the long arm of the law
originalsecret: null
originalformat: null
o_height: null
o_width: null
datetaken: 2011-11-30 04:27:25
dateupload: 1322794060
tags: uk england bw english monochrome digital photoshop nikon zoom north wide sigma lancashire adobe 400 preston british 400asa lenses nikond1x black7white d1x alienskinexposure nikonsigma sigma1835mmf3545dasphericalautofocuszoom
license: 0
latitude: 53.758752
longitude: -2.699149
accuracy: 16
views: 83
interestingness: 71 out of 50

photo: 6464356931 be9663f4a6 7005
owner: 38604142@N08
title: Utopia Found?
originalsecret: 2e7a49d8ef
originalformat: jpg
o_height: 3280
o_width: 4948
datetaken: 2011-12-04 18:25:29
dateupload: 1323151422
tags: 
license: 0
latitude: 30.522782
longitude: -87.904819
accuracy: 16
views: 19
interestingness: 72 out of 50

photo: 6454781383 7989b5cfb0 7014
owner: 34194329@N03
title: Source Sanatorium
originalsecret: null
originalformat: null
o_height: null
o_width: null
datetaken: 2011-12-04 21:14:04
dateupload: 1323029761
tags: snow mountains insane svalbard medical forgotten rotten forsaken sanatorium rule source roel disintegrated
license: 0
latitude: 80.725489
longitude: 20.942001
accuracy: 9
views: 59
interestingness: 73 out of 50

photo: 6472754901 b84a326b56 7155
owner: 74162240@N00
title: PMP#71
originalsecret: bf93c5c7fa
originalformat: jpg
o_height: 1176
o_width: 1577
datetaken: 2012-01-22 15:02:10
dateupload: 1323282390
tags: southamerica ecuador 9 guayaquil cuenca 9200feet picnik:project=pmp71
license: 0
latitude: -2.181803
longitude: -79.901332
accuracy: 11
views: 37
interestingness: 74 out of 50

photo: 6439895723 804520252d 7143
owner: 37871041@N02
title: [?] How to win a Photography Competition
originalsecret: null
originalformat: null
o_height: null
o_width: null
datetaken: 2011-09-16 06:03:30
dateupload: 1322800383
tags: international loupe awards insults professional editing clean photography panasonic gh2 canon fd lens 28mm f28 andy kaufman tony clifton win corrupt masters ford shelby cobra gt500 fake shonks unprofessional loopy westway
license: 0
latitude: -34.00749
longitude: 151.191959
accuracy: 13
views: 90
interestingness: 75 out of 50

photo: 3298990506 8b406e383c 3098
owner: 34929002@N03
title: The Inventor of the Smile Face
originalsecret: 6a0d6559e2
originalformat: jpg
o_height: 1870
o_width: 1854
datetaken: 1982-02-21 17:38:02
dateupload: 1323149882
tags: portrait sky green smile face manipulated polaroid sx70 photo smiley instant timezero smileface supercolor
license: 0
latitude: 38.654549
longitude: -121.221706
accuracy: 15
views: 89
interestingness: 76 out of 50

photo: 6336193354 e930ab7cd9 6033
owner: 7662015@N05
title: blue mosque... but not so much blue
originalsecret: null
originalformat: null
o_height: null
o_width: null
datetaken: 2011-11-07 13:03:42
dateupload: 1323086622
tags: turkey istanbul izniktiles sultanahmetcamii thebluemosque sultanahmeti img3984 orianaitaly theancientnicaea
license: 0
latitude: 41.006718
longitude: 28.976869
accuracy: 13
views: 20
interestingness: 77 out of 50

photo: 6460793925 93d7694c0f 7141
owner: 59542129@N03
title: Colored Smoke
originalsecret: null
originalformat: null
o_height: null
o_width: null
datetaken: 2011-12-04 14:58:30
dateupload: 1323106491
tags: portrait stilllife beautiful canon photography eos flash sigma professional 7d gel metz manfrotto snoot 50macro strobist roscogel nostrobistinfo canon7d removedfromstrobistpool incompletestrobistinfo seerule2
license: 0
latitude: 40.904788
longitude: 9.105699
accuracy: 11
views: 26
interestingness: 78 out of 50

photo: 6478343291 27420d4b73 7146
owner: 54160790@N07
title: El Pulpo
originalsecret: d3340d00b2
originalformat: jpg
o_height: 1818
o_width: 1228
datetaken: 2011-12-04 13:38:17
dateupload: 1323374836
tags: film lunch fuerteventura olympus tapas octopus trip35 ektar 2011
license: 0
latitude: 28.684046
longitude: -14.011838
accuracy: 16
views: 29
interestingness: 79 out of 50

photo: 6448515679 16f0ca3ac2 7149
owner: 53654205@N05
title: Innermost
originalsecret: 9d33e4d6e0
originalformat: jpg
o_height: 2336
o_width: 3504
datetaken: 2011-12-03 01:54:18
dateupload: 1322944730
tags: camera pink red abstract blur flower colour macro green 20d leaves photoshop canon eos leaf petals focus dof head sigma depthoffield shallow dslr alstroemeria 105mm phototools
license: 0
latitude: 53.710526
longitude: -0.109863
accuracy: 11
views: 26
interestingness: 80 out of 50

photo: 6470678077 ab46af6d3a 7014
owner: 80798207@N00
title: Traditions
originalsecret: null
originalformat: null
o_height: null
o_width: null
datetaken: 2011-12-07 14:37:24
dateupload: 1323249696
tags: traditions mcpproject
license: 0
latitude: 13.752891
longitude: 100.505504
accuracy: 11
views: 56
interestingness: 81 out of 50

photo: 6480967817 b00535e53f 7168
owner: 93254204@N00
title: ...It's...
originalsecret: null
originalformat: null
o_height: null
o_width: null
datetaken: 2011-12-03 13:55:12
dateupload: 1323421542
tags: autumn holland fall water netherlands amsterdam boat europe wicked nophotoshop lifeisgood android app carpediem unedited htc stadsarchief 2011 mobilephonecam amstersam reflectah amstersm amsterdamthebestcityintheworld reflectionsofamsterdam checkoutmywebsitewwwamstersamcom wickedreflections thewickedreflectah amstersmthewickedreflectah htcdesire camera360 htcdesiremobilephonecam
license: 0
latitude: 52.35124
longitude: 4.911017
accuracy: 15
views: 84
interestingness: 82 out of 50

photo: 6461332313 36953ec4c8 7033
owner: 9906699@N07
title: Seascape In Sydney
originalsecret: null
originalformat: null
o_height: null
o_width: null
datetaken: 2011-07-14 05:22:58
dateupload: 1323112558
tags: 
license: 0
latitude: -33.859493
longitude: 151.222193
accuracy: 14
views: 24
interestingness: 83 out of 50

photo: 6441889441 8ae3351d12 7027
owner: 33219823@N06
title: rule of thirds
originalsecret: null
originalformat: null
o_height: null
o_width: null
datetaken: 2011-12-02 15:30:15
dateupload: 1322839815
tags: uk coast seaside dorset lymeregis
license: 0
latitude: 50.72789
longitude: -2.943619
accuracy: 11
views: 35
interestingness: 84 out of 50

photo: 6472534929 7e47fc2f2b 7010
owner: 21680219@N04
title: Rosa, Rosae (USFP)
originalsecret: 7ab399d21c
originalformat: jpg
o_height: 2891
o_width: 4315
datetaken: 2011-11-23 15:32:36
dateupload: 1323279437
tags: lampe nikon noiretblanc parliament pi morocco maroc ?lections istiqlal gouvernement 2011 governement pjd generalelections socialistes l?gislatives d700 usfp koutla
license: 0
latitude: 33.583341
longitude: -7.615177
accuracy: 14
views: 12
interestingness: 85 out of 50

photo: 6475093389 7f72f61d23 7029
owner: 32204075@N08
title: Punggol Promenade #5
originalsecret: null
originalformat: null
o_height: null
o_width: null
datetaken: 2011-12-08 13:16:00
dateupload: 1323321360
tags: street blackandwhite film monochrome singapore kodak rangefinder 11 d76 tmax400 leicam6 osanpocamera mylittleones selfdevelop 10min 4002tmy voigtlandernokton35mmf14sc punggolpromenade
license: 0
latitude: 1.422025
longitude: 103.910729
accuracy: 15
views: 46
interestingness: 86 out of 50

photo: 6452186491 13e48a9146 7152
owner: 53008590@N06
title: Astrotrac Time Ruler
originalsecret: null
originalformat: null
o_height: null
o_width: null
datetaken: 2011-12-04 11:25:27
dateupload: 1323001315
tags: diy space astro mount astrophotography modification at astrotrac tt320xag
license: 0
latitude: 53.755282
longitude: -0.447521
accuracy: 13
views: 200
interestingness: 87 out of 50

photo: 6475852995 47c03bb5e8 7001
owner: 50109591@N06
title: IMG_7454
originalsecret: null
originalformat: null
o_height: null
o_width: null
datetaken: 2011-12-03 14:16:19
dateupload: 1323333071
tags: dog greyhound dogs italian kern bakersfield italiangreyhound kerncounty canonrebelt2i
license: 0
latitude: 35.405478
longitude: -119.009753
accuracy: 16
views: 9
interestingness: 88 out of 50

photo: 6433543545 cabd0e2d06 7005
owner: 67968452@N00
title: PhotonQ-John Bohannon Dance Your Ph.D
originalsecret: ccf271a5c9
originalformat: jpg
o_height: 684
o_width: 912
datetaken: 2011-12-01 01:10:20
dateupload: 1322698400
tags: brussels ted black john fun creativity dance movement europe belgium belgique label bruxelles danse your conference vs phd powerpoint bohannon palaisdesbeauxarts bozar 2011 photonquantique tedx danceyourphd johnbohannon
license: 3
latitude: 50.843982
longitude: 4.358519
accuracy: 16
views: 98
interestingness: 89 out of 50

photo: 6468076617 874964e7cc 7141
owner: 56047183@N04
title: Canals of Amsterdam
originalsecret: null
originalformat: null
o_height: null
o_width: null
datetaken: 2011-07-11 08:11:31
dateupload: 1323207638
tags: city trip travel bridge trees houses west holland reflection netherlands beautiful beauty lines amsterdam architecture buildings river boats mirror canal photo amazing nikon europe place shot image walk main capital journey western 16 mm nikkor capture 35 vr photograhy discover 1635 kader abdelkader d700 lagraa klagraa
license: 0
latitude: 52.373005
longitude: 4.900846
accuracy: 13
views: 46
interestingness: 90 out of 50

photo: 6449396493 2c2d90363b 7027
owner: 51913306@N03
title: IMG_5131
originalsecret: d55bbc684d
originalformat: jpg
o_height: 2700
o_width: 4800
datetaken: 2011-12-03 23:20:22
dateupload: 1322956129
tags: water flash drop oil nostrobistinfo removedfromstrobistpool seerule2
license: 0
latitude: 53.773097
longitude: -1.565423
accuracy: 16
views: 46
interestingness: 91 out of 50

photo: 6442205627 9234ce7b75 7025
owner: 10725258@N00
title: Tunneling Out
originalsecret: 5280dcc80c
originalformat: jpg
o_height: 3601
o_width: 2909
datetaken: 2011-11-22 16:29:54
dateupload: 1322844095
tags: geotagged utah moab corrugated culvert culvertcanyon jeeparch thanksgiving2011 fireflycanyon geo:lat=3857896451468254 geo:lon=10963540999999998
license: 0
latitude: 38.578964
longitude: -109.635409
accuracy: 16
views: 58
interestingness: 92 out of 50

photo: 6481138977 ee18fd3f59 7159
owner: 55479808@N02
title: Virgen de la Oliva
originalsecret: null
originalformat: null
o_height: null
o_width: null
datetaken: 2011-08-19 16:12:37
dateupload: 1323425740
tags: church canon spain europe andalucia vejerdelafrontera 550d t2i virgendelaoliva
license: 0
latitude: 36.25457
longitude: -5.964429
accuracy: 16
views: 9
interestingness: 93 out of 50

photo: 6465686407 0cb52961d9 7146
owner: 63379883@N05
title: Day 39 of 365- Live your life
originalsecret: null
originalformat: null
o_height: null
o_width: null
datetaken: 2011-09-17 03:33:52
dateupload: 1323177682
tags: day 365
license: 0
latitude: 42.465278
longitude: -2.44618
accuracy: 11
views: 19
interestingness: 94 out of 50

photo: 6472820625 3c4b974fce 7158
owner: 25183000@N05
title: To the end of the Earth
originalsecret: 22f680bef6
originalformat: jpg
o_height: 844
o_width: 1104
datetaken: 2011-12-07 20:41:13
dateupload: 1323283273
tags: picnik pmp71 projectpmp71
license: 0
latitude: -30.214575
longitude: 30.847892
accuracy: 11
views: 5
interestingness: 95 out of 50

photo: 6465593889 5ff3beca5d 7155
owner: 11448492@N07
title: Upper Belvedere
originalsecret: 06b2347fc4
originalformat: jpg
o_height: 720
o_width: 1280
datetaken: 2010-05-21 18:02:18
dateupload: 1323176140
tags: vienna wien city travel sky building water grass gardens architecture clouds geotagged photography austria nikon european palace symmetry upper belvedere fountains viena sculptures hdr d80 marcelgermain
license: 3
latitude: 48.193754
longitude: 16.380426
accuracy: 16
views: 23
interestingness: 96 out of 50

photo: 6447528271 c54096db5c 7159
owner: 55412347@N06
title: Britain under Tory rule
originalsecret: 615b2863a5
originalformat: jpg
o_height: 1080
o_width: 1920
datetaken: 2011-12-03 14:59:55
dateupload: 1322932474
tags: britain more conservative torybritain
license: 0
latitude: 52.38208
longitude: -2.251919
accuracy: 11
views: 26
interestingness: 97 out of 50

photo: 6437313757 6236d4c633 7001
owner: 10725258@N00
title: We're being watched
originalsecret: 52f32288c7
originalformat: jpg
o_height: 3000
o_width: 4000
datetaken: 2011-11-22 13:08:59
dateupload: 1322762648
tags: geotagged utah sheep moab desertbighorn bighornsheep oviscanadensisnelsoni culvertcanyon jeeparch thanksgiving2011 fireflycanyon geo:lat=3859011347242255 geo:lon=10963606520901487
license: 0
latitude: 38.590113
longitude: -109.636065
accuracy: 16
views: 40
interestingness: 98 out of 50

photo: 6472691031 b56768340e 7011
owner: 21680219@N04
title: PPS in campaign
originalsecret: 14c5a42a44
originalformat: jpg
o_height: 2891
o_width: 4315
datetaken: 2011-11-24 14:05:35
dateupload: 1323281495
tags: lampe nikon noiretblanc parliament pi morocco maroc ?lections pps istiqlal gouvernement 2011 governement pjd generalelections socialistes l?gislatives d700 usfp koutla
license: 0
latitude: 33.585826
longitude: -7.634661
accuracy: 14
views: 22
interestingness: 99 out of 50

photo: 6442843751 ced39209ed 7154
owner: 16424358@N02
title: Bibliotheca Alexandria. 2.
originalsecret: null
originalformat: null
o_height: null
o_width: null
datetaken: 2011-11-09 04:58:13
dateupload: 1322852806
tags: 
license: 0
latitude: 31.225279
longitude: 29.951648
accuracy: 11
views: 16
interestingness: 100 out of 50

photo: 6476501255 087a8eeaee 7035
owner: 68483515@N06
title: The Christmas Tree
originalsecret: null
originalformat: null
o_height: null
o_width: null
datetaken: 2011-12-08 14:16:58
dateupload: 1323347632
tags: christmas holidays christmastree gran jul christmaspresents julgran julklappar christmastreedecorations julgranskulor julgransdekorationer
license: 0
latitude: 55.594158
longitude: 13.024978
accuracy: 13
views: 26
interestingness: 101 out of 50

photo: 6447084341 46ab5cb51d 7175
owner: 30484128@N03
title: "Horse Packing" by Charles Johnson, New York, 1914
originalsecret: 574fc6c7eb
originalformat: jpg
o_height: 2466
o_width: 1757
datetaken: 2011-12-01 13:22:41
dateupload: 1322927114
tags: newyork 1914 horsepackingbycharlesjohnson
license: 0
latitude: 40.780931
longitude: -73.975024
accuracy: 13
views: 34
interestingness: 102 out of 50

photo: 6464964793 0ecefa6ae9 7154
owner: 25857074@N03
title: UNHCR News Story: Statelessness: Citizenship hopes draw closer for Roma asylum-seeker
originalsecret: null
originalformat: null
o_height: null
o_width: null
datetaken: 2011-05-25 09:15:23
dateupload: 1323163421
tags: family boy news roma kid war europe child sarajevo serbia croatia help aid worldwarii kosovo conflict shelter humanrights asylum citizenship information protection assistance integration nato unhcr montenegro settlement nationality newsstory legislation asylumseeker bosniaandherzegovina djakova theformeryugoslavia thebalkans receptioncentre humanitarianworker unrefugeeagency statelessness commissionerforhumanrights thomashammarberg durablesolution highcommissionerforrefugees forciblydisplaced thecouncilofeurope ethnicroma bosniascitizenshiplaw nuqi
license: 0
latitude: 43.8586
longitude: 18.4295
accuracy: 11
views: 82
interestingness: 103 out of 50

photo: 6469580495 2be8caf4fb 7157
owner: 43644707@N06
title: Christmas Tree Lights through Foggy Window
originalsecret: null
originalformat: null
o_height: null
o_width: null
datetaken: 2011-12-06 22:16:15
dateupload: 1323229033
tags: lights bokeh christmastree lookingin foggywindow nikond700
license: 0
latitude: 36.075846
longitude: -79.450185
accuracy: 14
views: 19
interestingness: 104 out of 50

photo: 6447076729 93fa088ae9 7002
owner: 30484128@N03
title: One-Horse-Power Cargo Hawler, 1914
originalsecret: 63d5b0912a
originalformat: jpg
o_height: 1188
o_width: 1350
datetaken: 2011-12-01 13:24:20
dateupload: 1322927015
tags: newyork 1914 horsepackingbycharlesjohnson
license: 0
latitude: 40.781061
longitude: -73.974595
accuracy: 13
views: 23
interestingness: 105 out of 50

photo: 6444324905 b5895070ff 7168
owner: 64903915@N04
title: el pasi?n.
originalsecret: 4eafa1d0da
originalformat: jpg
o_height: 2592
o_width: 3769
datetaken: 2011-10-26 08:58:53
dateupload: 1322875421
tags: city portrait people urban nature grass canon kyle photography earth burgundy tint trench vans dslr ruleofthirds 40d
license: 4
latitude: 37.547031
longitude: -122.314826
accuracy: 11
views: 32
interestingness: 106 out of 50

photo: 6435097353 ce0d17a3b4 7028
owner: 15806048@N00
title: Dunluce Castle
originalsecret: null
originalformat: null
o_height: null
o_width: null
datetaken: 2011-09-24 05:39:26
dateupload: 1322723269
tags: ireland castle ruins dunlucecastle bibliona
license: 0
latitude: 55.207753
longitude: -6.593347
accuracy: 11
views: 10
interestingness: 107 out of 50

photo: 6350542022 f924bd7440 6043
owner: 7662015@N05
title: Prayers at "The Blue Mosque"
originalsecret: null
originalformat: null
o_height: null
o_width: null
datetaken: 2011-11-05 17:03:06
dateupload: 1322928186
tags: turkey istanbul sultanahmetcamii menpraying thebluemosque sultanahmeti img023 orianaitaly
license: 0
latitude: 41.006443
longitude: 28.976793
accuracy: 13
views: 10
interestingness: 108 out of 50

photo: 6476172065 433d5ec802 7031
owner: 15027994@N00
title: Metal Grid 2/5
originalsecret: null
originalformat: null
o_height: null
o_width: null
datetaken: 2011-12-08 16:33:27
dateupload: 1323340646
tags: wood light people thread lines metal canon table eos chalk still singapore paint f14 steel sewing machine sigma machinery tape cardboard fabric numbers roll stick dust needles ruler rule dayroom 30mm 60d
license: 3
latitude: 1.368039
longitude: 103.870516
accuracy: 15
views: 10
interestingness: 109 out of 50

photo: 6469562389 206836f5dc 7146
owner: 23677558@N05
title: no name but l thank you if you care to leave a comment
originalsecret: null
originalformat: null
o_height: null
o_width: null
datetaken: 2011-12-06 17:21:05
dateupload: 1323228766
tags: altitude m gps 22308 slta77v
license: 0
latitude: 19.426983
longitude: -99.16777
accuracy: 16
views: 24
interestingness: 110 out of 50

photo: 6450746641 717dbf7f4d 7160
owner: 72825507@N00
title: Sand blowing on Morro Strand State Beach 02Dec2011
originalsecret: a3a8c8fa42
originalformat: jpg
o_height: 2175
o_width: 3262
datetaken: 2011-12-01 15:43:46
dateupload: 1322975571
tags: california sand blowing places morrobay morrostrand iphone mikebaird morrostrandstatebeach
license: 4
latitude: 35.3905
longitude: -120.8665
accuracy: 16
views: 52
interestingness: 111 out of 50

photo: 6441236757 833b642663 7169
owner: 56522283@N04
title: No m?s traje ni corbata / No more suits and ties
originalsecret: null
originalformat: null
o_height: null
o_width: null
datetaken: 2011-12-02 13:19:19
dateupload: 1322829481
tags: espa?a work trabajo spain tie suit charlie sue?os cambio dreams goals change corbata mallorca blueshirt traje balearicislands bluetie islasbaleares jim?nez metas camisaazul corbataazul
license: 1
latitude: 39.584564
longitude: 2.677587
accuracy: 16
views: 18
interestingness: 112 out of 50

photo: 6458603985 1247886f40 7154
owner: 88704109@N00
title: Takayama Jinya (Former regional government building)
originalsecret: 772acda1a4
originalformat: jpg
o_height: 3240
o_width: 4320
datetaken: 2011-12-05 14:07:03
dateupload: 1323075461
tags: japan takayama takayamajinya
license: 0
latitude: 36.143004
longitude: 137.260437
accuracy: 11
views: 8
interestingness: 113 out of 50

photo: 6453888373 c13fee3b2f 7157
owner: 26809106@N03
title: THE COURTHOUSE
originalsecret: 14ea5b714f
originalformat: jpg
o_height: 2481
o_width: 4032
datetaken: 2011-12-04 17:43:40
dateupload: 1323020793
tags: 
license: 0
latitude: -13.831029
longitude: -171.75967
accuracy: 16
views: 22
interestingness: 114 out of 50

photo: 6434742487 a15615806b 7156
owner: 75698896@N00
title: Logan Square library bike parking
originalsecret: 101b21bd13
originalformat: jpg
o_height: 2175
o_width: 2900
datetaken: 2011-11-29 15:36:35
dateupload: 1322716144
tags: bicycling entrance bikerack cpl chicagopubliclibrary bikeparking entracen fullertonavenue 50feetrule
license: 1
latitude: 41.924968
longitude: -87.703697
accuracy: 16
views: 44
interestingness: 115 out of 50

photo: 6476180535 b7e5eb6dc7 7035
owner: 15027994@N00
title: Metal Grid 3/5
originalsecret: null
originalformat: null
o_height: null
o_width: null
datetaken: 2011-12-08 16:47:02
dateupload: 1323340834
tags: wood light people thread lines metal canon table eos chalk still singapore paint f14 steel sewing machine sigma machinery tape cardboard fabric numbers roll stick dust needles ruler rule dayroom 30mm 60d
license: 3
latitude: 1.368039
longitude: 103.870516
accuracy: 15
views: 10
interestingness: 116 out of 50

photo: 6476163083 5a828ed441 7154
owner: 15027994@N00
title: Metal Grid 1/5
originalsecret: null
originalformat: null
o_height: null
o_width: null
datetaken: 2011-12-08 16:24:45
dateupload: 1323340443
tags: wood light people thread lines metal canon table eos chalk still singapore paint f14 steel sewing machine sigma machinery tape cardboard fabric numbers roll stick dust needles ruler rule dayroom 30mm 60d
license: 3
latitude: 1.368039
longitude: 103.870516
accuracy: 15
views: 10
interestingness: 117 out of 50

photo: 6473882017 3f83d3de11 7173
owner: 42810731@N06
title: Day 90/365 - "Stark"
originalsecret: null
originalformat: null
o_height: null
o_width: null
datetaken: 2011-12-07 23:33:33
dateupload: 1323297786
tags: blackandwhite project day shadows sony figure 365 minimalism alpha thirds lightroom ruleofthirds a55 sonyphotographing
license: 0
latitude: 53.221047
longitude: -4.13691
accuracy: 15
views: 25
interestingness: 118 out of 50

photo: 6453879519 60df194861 7163
owner: 65395774@N03
title: hurpadurp, tagged
originalsecret: c2dbd4f605
originalformat: jpg
o_height: 398
o_width: 400
datetaken: 1111-01-01 09:45:05
dateupload: 1323020705
tags: 
license: 0
latitude: 12.21118
longitude: 171.914062
accuracy: 1
views: 61
interestingness: 119 out of 50

photo: 6452033507 f78878d9cb 7031
owner: 28524283@N07
title: I Was There
originalsecret: null
originalformat: null
o_height: null
o_width: null
datetaken: 2011-11-28 15:49:13
dateupload: 1322999015
tags: autumn houses roof sky white house black cold art history church public water lamp statue architecture canon buildings river graffiti mono j photo concert movement opera republic photographer czech prague gothic steps tram praha velvet gas collection communist photographs ii memory revolution 5d classical lamps roads 20 press vltava revolt th mk uprising glynne pritchard beggers aniversay czechoslovakias
license: 0
latitude: 50.088428
longitude: 14.428696
accuracy: 15
views: 18
interestingness: 120 out of 50

photo: 6476193495 04b24accf0 7015
owner: 15027994@N00
title: Metal Grid 5/5
originalsecret: null
originalformat: null
o_height: null
o_width: null
datetaken: 2011-12-08 16:36:27
dateupload: 1323341124
tags: wood light people thread lines metal canon table eos chalk still singapore paint f14 steel sewing machine sigma machinery tape cardboard fabric numbers roll stick dust needles ruler rule dayroom 30mm 60d
license: 3
latitude: 1.368039
longitude: 103.870516
accuracy: 15
views: 11
interestingness: 121 out of 50

photo: 6475847365 2fb65df821 7169
owner: 50109591@N06
title: IMG_7440
originalsecret: null
originalformat: null
o_height: null
o_width: null
datetaken: 2011-12-03 13:57:06
dateupload: 1323332929
tags: dog greyhound dogs italian gracie kern bakersfield italiangreyhound kerncounty canonrebelt2i
license: 0
latitude: 35.405448
longitude: -119.009699
accuracy: 16
views: 7
interestingness: 122 out of 50

photo: 6470704569 3b3dde1a43 7163
owner: 12289718@N00
title: iPad 2 + djay App + iDJ Live + laptop + AirFoil -> Airport Express = DJing the Flickr Holiday Party
originalsecret: b80791e89d
originalformat: jpg
o_height: 1536
o_width: 2048
datetaken: 2011-12-06 20:29:03
dateupload: 1323280256
tags: mobile dj flickrhq ipad djay
license: 2
latitude: 37.753833
longitude: -122.421
accuracy: 16
views: 148
interestingness: 123 out of 50

photo: 6462769117 0fc554832d 7162
owner: 48922763@N04
title: George Pullman Graceland Cemetery, Chicago Illinois
originalsecret: 9d36a90bec
originalformat: jpg
o_height: 2608
o_width: 1870
datetaken: 2011-11-19 15:00:59
dateupload: 1323129341
tags: city urban chicago monument cemetery grave illinois tombstone chitown il pullman gravesite chicagoillinois gracelandcemetery chicagoil windycity
license: 0
latitude: 41.959745
longitude: -87.659826
accuracy: 14
views: 71
interestingness: 124 out of 50

photo: 6450747667 a69d6c5e52 7172
owner: 72825507@N00
title: Number 2. Lesson: How a change of viewpoint can drastically change the perception of the scene
originalsecret: 636b57fcd8
originalformat: jpg
o_height: 2166
o_width: 3249
datetaken: 2011-12-01 15:55:40
dateupload: 1322975589
tags: plant sagebrush iphone mikebaird
license: 4
latitude: 35.385
longitude: -120.8655
accuracy: 16
views: 100
interestingness: 125 out of 50

photo: 6442036261 ea30432a19 7168
owner: 10725258@N00
title: Water in the desert
originalsecret: 7ff0042e83
originalformat: jpg
o_height: 3715
o_width: 2603
datetaken: 2011-12-02 09:04:50
dateupload: 1322841890
tags: trees panorama water geotagged utah shadows moab pouroff culvertcanyon jeeparch thanksgiving2011 fireflycanyon geo:lat=3858175653702586 geo:lon=1096358065304413
license: 0
latitude: 38.581756
longitude: -109.635806
accuracy: 16
views: 39
interestingness: 126 out of 50

photo: 6474599465 ff098766ee 7145
owner: 79286973@N00
title: The wonder of Pocket Wizards
originalsecret: bd05c8bca9
originalformat: jpg
o_height: 1200
o_width: 1800
datetaken: 2011-12-05 17:33:06
dateupload: 1323309468
tags: child strobist nostrobistinfo removedfromstrobistpool seerule2
license: 0
latitude: 47.684805
longitude: -122.324008
accuracy: 11
views: 12
interestingness: 127 out of 50

photo: 6437193695 ce33f48d02 7013
owner: 10725258@N00
title: See the spire?
originalsecret: c28cf8f2bc
originalformat: jpg
o_height: 3000
o_width: 4000
datetaken: 2011-11-22 12:31:34
dateupload: 1322761064
tags: geotagged utah hiking spire moab hoodoo culvertcanyon jeeparch thanksgiving2011 fireflycanyon geo:lat=3858786615991168 geo:lon=10963338281349183
license: 0
latitude: 38.587866
longitude: -109.633382
accuracy: 16
views: 39
interestingness: 128 out of 50

photo: 6476818343 ed2808caa3 7034
owner: 16103567@N05
title: Don't Be a Rule Taker?
originalsecret: 90012dd7c8
originalformat: jpg
o_height: 1936
o_width: 1936
datetaken: 2011-12-08 11:18:36
dateupload: 1323353224
tags: amsterdam postit uva strategy prahalad hamel iphone4 hipstamatic prahaladandhamel
license: 0
latitude: 52.362167
longitude: 4.913
accuracy: 16
views: 27
interestingness: 129 out of 50

photo: 6477232183 bb779148dc 7158
owner: 11401726@N08
title: coins for a photo
originalsecret: 9595ba2a33
originalformat: jpg
o_height: 4416
o_width: 3312
datetaken: 2011-11-26 12:37:58
dateupload: 1323359345
tags: person homeless havana cuba santer?a
license: 0
latitude: 23.138633
longitude: -82.363057
accuracy: 15
views: 5
interestingness: 130 out of 50

photo: 6474861759 c9fcb2e27e 7147
owner: 31834007@N02
title: You make the rules
originalsecret: ebcca94942
originalformat: jpg
o_height: 5046
o_width: 3363
datetaken: 2011-10-08 17:21:48
dateupload: 1323313684
tags: urban window canon monterey doors 5d centralcoast westcoast pacificcoast centralcalifornia markii
license: 0
latitude: 36.616138
longitude: -121.900352
accuracy: 16
views: 15
interestingness: 131 out of 50

photo: 6447079869 0a04a16597 7008
owner: 30484128@N03
title: "Horse Packing" by Charles Johnson,Outing Handbook, 1914
originalsecret: 03cc4479f2
originalformat: jpg
o_height: 2544
o_width: 1653
datetaken: 2011-12-01 13:23:04
dateupload: 1322927055
tags: newyork 1914 horsepackingbycharlesjohnson
license: 0
latitude: 40.781158
longitude: -73.974766
accuracy: 13
views: 17
interestingness: 132 out of 50

photo: 6475955021 af85fb8cb9 7149
owner: 8981098@N07
title: Medersa Bou Inania.
originalsecret: 4ce9e74332
originalformat: jpg
o_height: 2528
o_width: 1896
datetaken: 2011-10-12 18:35:17
dateupload: 1323335568
tags: africa travel canon geotagged minaret mosque morocco fez maroc fes peregrin medressa f?selbali medrasa medersabouinania alma?rib ???????????? lindadevolder powershotsx30 f?zelbali
license: 0
latitude: 34.051877
longitude: -5.002384
accuracy: 12
views: 9
interestingness: 133 out of 50

photo: 6482906655 9b0c5181e6 7150
owner: 43401195@N08
title: Light the candle for all those poor souls who died today
originalsecret: null
originalformat: null
o_height: null
o_width: null
datetaken: 2011-11-06 14:36:44
dateupload: 1323456077
tags: portrait church candle prayer goa unesco worldheritagesite xavier devotee cristian oldgoa portugese basilicaofbomjesus bas?licadobomjesus stfranciisxavierchurch stfranciisxavier prayingwithcandle
license: 0
latitude: 15.35023
longitude: 74.013931
accuracy: 14
views: 5
interestingness: 134 out of 50

photo: 6482840895 0bce5baf71 7004
owner: 36595580@N08
title: No escape possible
originalsecret: f7d06e8810
originalformat: jpg
o_height: 2848
o_width: 4288
datetaken: 2011-10-17 07:34:48
dateupload: 1323455124
tags: kill jackal pigeon dove predator waterhole namibia hunt etosha duif canismesomelas blackbackedjackal jacht jakhals roofdier schakal namibi? schabrackenschakal rooijakkals drinkplaats redjackal silverbackedjackal zadeljakhals namibien kalkheuwel
license: 2
latitude: -18.858264
longitude: 16.925055
accuracy: 16
views: 0
interestingness: 135 out of 50

photo: 6482216447 21948c512a 7168
owner: 16140299@N06
title: Breaking a Cardinal Rule
originalsecret: 77d29a8dcc
originalformat: jpg
o_height: 838
o_width: 1250
datetaken: 2011-12-01 00:00:00
dateupload: 1323446336
tags: old uk shadow england urban history film 35mm river geotagged town nikon kodak lincolnshire trent analogue f5 gainsborough riversidewalk ektar100 dn21
license: 0
latitude: 53.394951
longitude: -0.776563
accuracy: 16
views: 7
interestingness: 136 out of 50

photo: 6481478171 8d77c66b8a 7164
owner: 35094793@N07
title: #instagram taken with iPhone
originalsecret: 4233290ec3
originalformat: jpg
o_height: 612
o_width: 612
datetaken: 2011-12-09 23:30:32
dateupload: 1323433832
tags: ocean blue sea sky storm green water rain square bay boat sand waves purple stormy clear squareformat walden portstephens iphone ruleofthirds dutchmansbay iphoneography instagram instagramapp uploaded:by=instagram
license: 0
latitude: -32.719818
longitude: 152.129264
accuracy: 13
views: 3
interestingness: 137 out of 50

photo: 6476927925 42fdd0e43b 7022
owner: 21085645@N03
title: Looking at 1 of the 3 calls that were ruled against the Vikings and then reversed
originalsecret: 4ab97fc220
originalformat: jpg
o_height: 2448
o_width: 3264
datetaken: 2011-12-04 13:39:10
dateupload: 1323354875
tags: game home sports minnesota booth football purple nfl minneapolis indoor headset professional headphones mn turf metrodome officials minnesotavikings denverbroncos 2011 instantreplay december4th 120411 mallofamericafield
license: 1
latitude: 44.973982
longitude: -93.258379
accuracy: 15
views: 0
interestingness: 138 out of 50

photo: 6476695515 45a3ec8651 7172
owner: 92607898@N00
title: Xmas11 KC: Dan Maier
originalsecret: 199f91ac6e
originalformat: jpg
o_height: 3000
o_width: 4000
datetaken: 2011-12-07 22:36:27
dateupload: 1323351211
tags: show musician music comedy live gig onstage comedian bethnalgreenworkingmensclub martinwhite danmaier karaokecircus fozfoster
license: 3
latitude: 51.528397
longitude: -0.063815
accuracy: 15
views: 13
interestingness: 139 out of 50

photo: 6476187001 5df64173c4 7003
owner: 15027994@N00
title: Metal Grid 4/5
originalsecret: null
originalformat: null
o_height: null
o_width: null
datetaken: 2011-12-08 16:32:05
dateupload: 1323340976
tags: wood light people thread lines metal canon table eos chalk still singapore paint f14 steel sewing machine sigma machinery tape cardboard fabric numbers roll stick dust needles ruler rule dayroom 30mm 60d
license: 3
latitude: 1.368039
longitude: 103.870516
accuracy: 15
views: 6
interestingness: 140 out of 50

photo: 6475356957 bd6cfb0533 7022
owner: 57001982@N00
title: Welcome to 5Points
originalsecret: 7af73aa14e
originalformat: jpg
o_height: 683
o_width: 1024
datetaken: 2011-08-21 08:55:02
dateupload: 1323321973
tags: nyc summer urban graffiti colorful rules queens longislandcity 5pointz 5ptz
license: 1
latitude: 40.747932
longitude: -73.943095
accuracy: 14
views: 2
interestingness: 141 out of 50

photo: 6475162695 5c322d59f9 7163
owner: 33577523@N08
title: Major Purcell O'Gorman MP
originalsecret: null
originalformat: null
o_height: null
o_width: null
datetaken: 1880-00-01 00:00:00
dateupload: 1323318643
tags: ireland portrait irish sepia vintage politics victorian politician cdv cartedevisite waterford homerule memberofparliament
license: 0
latitude: 52.262694
longitude: -7.108154
accuracy: 9
views: 11
interestingness: 142 out of 50

photo: 6474515691 63893faaf4 7011
owner: 10845359@N02
title: OHSU and PDX 479
originalsecret: 4382cd0379
originalformat: jpg
o_height: 3456
o_width: 2304
datetaken: 2011-12-07 15:01:46
dateupload: 1323308058
tags: from above city bridge bus tree car sign oregon portland french book bottle check december crossing printer box library burger tram coke ticket aerial patient stop cap fries repair return button disabled diet streetcar citizen ohsu in 2011 honored oregonhealthandscienceuniversity shrinershospitalforchildren artpetsgmailcom parkermichaelknight
license: 4
latitude: 45.500391
longitude: -122.68645
accuracy: 15
views: 2
interestingness: 143 out of 50

photo: 6472213911 67d55fde90 7151
owner: 32511807@N08
title: Mangla Dam & Fort
originalsecret: null
originalformat: null
o_height: null
o_width: null
datetaken: 2011-12-07 21:30:23
dateupload: 1323275423
tags: pakistan river fort dam kashmir abdul mir pur jammu qadir azad memon mangla mirpur jehlum
license: 0
latitude: 33.116699
longitude: 73.650001
accuracy: 11
views: 46
interestingness: 144 out of 50

photo: 6467280181 24ac33a3a3 7008
owner: 46848480@N00
title: Pied Kingfisher
originalsecret: null
originalformat: null
o_height: null
o_width: null
datetaken: 2011-12-03 00:01:24
dateupload: 1323197950
tags: river islets piedkingfisher cauvery migratorybirds birdparadise birdssanctuary ranganthittubirdsanctuary drsalimali avianbreedinggrounds riversidenestingsitesforbirds kaveriwildlife
license: 0
latitude: 12.423521
longitude: 76.703109
accuracy: 15
views: 5
interestingness: 145 out of 50

photo: 6465505869 b067f35746 7031
owner: 51752011@N07
title: "The story of who I am"
originalsecret: null
originalformat: null
o_height: null
o_width: null
datetaken: 2011-08-26 19:30:49
dateupload: 1323174641
tags: sunset naturaleza mountain sol nature de atardecer nikon wheat campo monta?a puesta trigo nikond3000 ramonan
license: 0
latitude: 40.781483
longitude: -3.39559
accuracy: 14
views: 10
interestingness: 146 out of 50

photo: 6463572729 382ebe863a 7019
owner: 35108825@N00
title: ANZ: Come Clean on Coal Policy - Brisbane
originalsecret: a79c03f6e8
originalformat: jpg
o_height: 640
o_width: 426
datetaken: 2011-12-04 21:30:00
dateupload: 1323140023
tags: energy volunteers greenpeace australia brisbane qld coal activism climate banking finance anz dirtybanks
license: 0
latitude: -27.467231
longitude: 153.025817
accuracy: 13
views: 26
interestingness: 147 out of 50

photo: 6463572355 7586f7b9f0 7173
owner: 35108825@N00
title: ANZ: Come Clean on Coal Policy - Brisbane
originalsecret: 5aa37d6d88
originalformat: jpg
o_height: 640
o_width: 426
datetaken: 2011-12-04 21:30:00
dateupload: 1323140019
tags: energy volunteers greenpeace australia brisbane qld coal activism climate banking finance anz dirtybanks
license: 0
latitude: -27.467231
longitude: 153.025817
accuracy: 13
views: 21
interestingness: 148 out of 50

photo: 6463572013 e5c2af5a54 7154
owner: 35108825@N00
title: ANZ: Come Clean on Coal Policy - Brisbane
originalsecret: 493c8e1095
originalformat: jpg
o_height: 640
o_width: 426
datetaken: 2011-12-04 21:30:00
dateupload: 1323140014
tags: energy volunteers greenpeace australia brisbane qld coal activism climate banking finance anz dirtybanks
license: 0
latitude: -27.467231
longitude: 153.025817
accuracy: 13
views: 20
interestingness: 149 out of 50

photo: 6463566209 10a268e8e0 7165
owner: 35108825@N00
title: ANZ: Come Clean on Coal Policy - Brisbane
originalsecret: a54f56c785
originalformat: jpg
o_height: 426
o_width: 640
datetaken: 2011-12-04 21:30:00
dateupload: 1323139946
tags: energy volunteers greenpeace australia brisbane qld coal activism climate banking finance anz dirtybanks
license: 0
latitude: -27.467231
longitude: 153.025817
accuracy: 13
views: 19
interestingness: 150 out of 50

photo: 6463565831 69cb790b5f 7157
owner: 35108825@N00
title: ANZ: Come Clean on Coal Policy - Brisbane
originalsecret: 63d7364275
originalformat: jpg
o_height: 640
o_width: 426
datetaken: 2011-12-04 21:30:00
dateupload: 1323139941
tags: energy volunteers greenpeace australia brisbane qld coal activism climate banking finance anz dirtybanks
license: 0
latitude: -27.467231
longitude: 153.025817
accuracy: 13
views: 20
interestingness: 151 out of 50

photo: 6463565439 5b0ca1845a 7031
owner: 35108825@N00
title: ANZ: Come Clean on Coal Policy - Brisbane
originalsecret: 82d9b5b029
originalformat: jpg
o_height: 426
o_width: 640
datetaken: 2011-12-04 21:30:00
dateupload: 1323139936
tags: energy volunteers greenpeace australia brisbane qld coal activism climate banking finance anz dirtybanks
license: 0
latitude: -27.467231
longitude: 153.025817
accuracy: 13
views: 25
interestingness: 152 out of 50

photo: 6463565029 d9d6eacf33 7160
owner: 35108825@N00
title: ANZ: Come Clean on Coal Policy - Brisbane
originalsecret: d86e8da3c3
originalformat: jpg
o_height: 640
o_width: 426
datetaken: 2011-12-04 21:30:00
dateupload: 1323139931
tags: energy volunteers greenpeace australia brisbane qld coal activism climate banking finance anz dirtybanks
license: 0
latitude: -27.467231
longitude: 153.025817
accuracy: 13
views: 18
interestingness: 153 out of 50

photo: 6463564333 38921b17e8 7031
owner: 35108825@N00
title: ANZ: Come Clean on Coal Policy - Brisbane
originalsecret: d548c57e0d
originalformat: jpg
o_height: 640
o_width: 426
datetaken: 2011-12-04 21:30:00
dateupload: 1323139924
tags: energy volunteers greenpeace australia brisbane qld coal activism climate banking finance anz dirtybanks
license: 0
latitude: -27.467231
longitude: 153.025817
accuracy: 13
views: 16
interestingness: 154 out of 50

photo: 6463563891 3723df6c37 7011
owner: 35108825@N00
title: ANZ: Come Clean on Coal Policy - Brisbane
originalsecret: 4991229647
originalformat: jpg
o_height: 640
o_width: 426
datetaken: 2011-12-04 21:30:00
dateupload: 1323139919
tags: energy volunteers greenpeace australia brisbane qld coal activism climate banking finance anz dirtybanks
license: 0
latitude: -27.467231
longitude: 153.025817
accuracy: 13
views: 20
interestingness: 155 out of 50

photo: 6463563409 6ddc012266 7145
owner: 35108825@N00
title: ANZ: Come Clean on Coal Policy - Brisbane
originalsecret: 1bb46e6d51
originalformat: jpg
o_height: 640
o_width: 426
datetaken: 2011-12-04 21:30:00
dateupload: 1323139914
tags: energy volunteers greenpeace australia brisbane qld coal activism climate banking finance anz dirtybanks
license: 0
latitude: -27.467231
longitude: 153.025817
accuracy: 13
views: 12
interestingness: 156 out of 50

photo: 6463562983 f4c18779cc 7166
owner: 35108825@N00
title: ANZ: Come Clean on Coal Policy - Brisbane
originalsecret: 897010be7e
originalformat: jpg
o_height: 640
o_width: 426
datetaken: 2011-12-04 21:30:00
dateupload: 1323139909
tags: energy volunteers greenpeace australia brisbane qld coal activism climate banking finance anz dirtybanks
license: 0
latitude: -27.467231
longitude: 153.025817
accuracy: 13
views: 17
interestingness: 157 out of 50

photo: 6463562593 d94736d1bc 7002
owner: 35108825@N00
title: ANZ: Come Clean on Coal Policy - Brisbane
originalsecret: d3c04b3d62
originalformat: jpg
o_height: 640
o_width: 426
datetaken: 2011-12-04 21:30:00
dateupload: 1323139905
tags: energy volunteers greenpeace australia brisbane qld coal activism climate banking finance anz dirtybanks
license: 0
latitude: -27.467231
longitude: 153.025817
accuracy: 13
views: 12
interestingness: 158 out of 50

photo: 6463562247 3f9b515508 7148
owner: 35108825@N00
title: ANZ: Come Clean on Coal Policy - Brisbane
originalsecret: edbcaf4818
originalformat: jpg
o_height: 640
o_width: 426
datetaken: 2011-12-04 21:30:00
dateupload: 1323139900
tags: energy volunteers greenpeace australia brisbane qld coal activism climate banking finance anz dirtybanks
license: 0
latitude: -27.467231
longitude: 153.025817
accuracy: 13
views: 11
interestingness: 159 out of 50

photo: 6463561859 7e1440d4cc 7143
owner: 35108825@N00
title: ANZ: Come Clean on Coal Policy - Brisbane
originalsecret: 71132d7d12
originalformat: jpg
o_height: 640
o_width: 426
datetaken: 2011-12-04 21:30:00
dateupload: 1323139896
tags: energy volunteers greenpeace australia brisbane qld coal activism climate banking finance anz dirtybanks
license: 0
latitude: -27.467231
longitude: 153.025817
accuracy: 13
views: 12
interestingness: 160 out of 50

photo: 6463561421 0c856f9ca8 7172
owner: 35108825@N00
title: ANZ: Come Clean on Coal Policy - Brisbane
originalsecret: c66b5d19df
originalformat: jpg
o_height: 640
o_width: 426
datetaken: 2011-12-04 21:30:00
dateupload: 1323139891
tags: energy volunteers greenpeace australia brisbane qld coal activism climate banking finance anz dirtybanks
license: 0
latitude: -27.467231
longitude: 153.025817
accuracy: 13
views: 10
interestingness: 161 out of 50

photo: 6463561001 204d463609 7004
owner: 35108825@N00
title: ANZ: Come Clean on Coal Policy - Brisbane
originalsecret: 2ea724c92f
originalformat: jpg
o_height: 426
o_width: 640
datetaken: 2011-12-04 21:30:00
dateupload: 1323139887
tags: energy volunteers greenpeace australia brisbane qld coal activism climate banking finance anz dirtybanks
license: 0
latitude: -27.467231
longitude: 153.025817
accuracy: 13
views: 10
interestingness: 162 out of 50

photo: 6463560653 05688bb443 7144
owner: 35108825@N00
title: ANZ: Come Clean on Coal Policy - Brisbane
originalsecret: 87e7df3aab
originalformat: jpg
o_height: 426
o_width: 640
datetaken: 2011-12-04 21:30:00
dateupload: 1323139882
tags: energy volunteers greenpeace australia brisbane qld coal activism climate banking finance anz dirtybanks
license: 0
latitude: -27.467231
longitude: 153.025817
accuracy: 13
views: 8
interestingness: 163 out of 50

photo: 6463559879 d58cfacf21 7002
owner: 35108825@N00
title: ANZ: Come Clean on Coal Policy - Brisbane
originalsecret: a051f5560f
originalformat: jpg
o_height: 426
o_width: 640
datetaken: 2011-12-04 21:30:00
dateupload: 1323139873
tags: energy volunteers greenpeace australia brisbane qld coal activism climate banking finance anz dirtybanks
license: 0
latitude: -27.467231
longitude: 153.025817
accuracy: 13
views: 9
interestingness: 164 out of 50

photo: 6463559547 3ff77f59cf 7005
owner: 35108825@N00
title: ANZ: Come Clean on Coal Policy - Brisbane
originalsecret: 1fe007422a
originalformat: jpg
o_height: 426
o_width: 640
datetaken: 2011-12-04 21:30:00
dateupload: 1323139869
tags: energy volunteers greenpeace australia brisbane qld coal activism climate banking finance anz dirtybanks
license: 0
latitude: -27.467231
longitude: 153.025817
accuracy: 13
views: 8
interestingness: 165 out of 50

photo: 6461875403 68f145c015 7011
owner: 26357712@N03
title: Seer Green and Jordans Station
originalsecret: 9ef45b35cb
originalformat: jpg
o_height: 2592
o_width: 1944
datetaken: 2011-12-05 11:48:54
dateupload: 1323118438
tags: station train buckinghamshire railway db treatment schenker railhead seergreen rhtt dbschenker seergreenandjordans
license: 0
latitude: 51.60726
longitude: -0.6034
accuracy: 16
views: 2
interestingness: 166 out of 50

photo: 6461868375 4833e6923b 7022
owner: 26357712@N03
title: Seer Green and Jordans Station
originalsecret: 74de784497
originalformat: jpg
o_height: 1944
o_width: 2592
datetaken: 2011-12-05 11:49:01
dateupload: 1323118360
tags: station train buckinghamshire railway db treatment schenker railhead seergreen rhtt dbschenker seergreenandjordans
license: 0
latitude: 51.60726
longitude: -0.6034
accuracy: 16
views: 4
interestingness: 167 out of 50

photo: 6461860573 e47561190c 7009
owner: 26357712@N03
title: Seer Green and Jordans Station
originalsecret: d5730a3506
originalformat: jpg
o_height: 1944
o_width: 2592
datetaken: 2011-12-05 11:49:03
dateupload: 1323118275
tags: buckinghamshire seergreen seergreenandjordans railway station train dbschenker railhead treatment db schenker rhtt
license: 0
latitude: 51.60726
longitude: -0.6034
accuracy: 16
views: 3
interestingness: 168 out of 50

photo: 6461431197 61ea3615c7 7010
owner: 26357712@N03
title: Gerrards Cross Station
originalsecret: 6ac43db500
originalformat: jpg
o_height: 2592
o_width: 1944
datetaken: 2011-12-05 12:15:26
dateupload: 1323113595
tags: station train buckinghamshire railway siding railways chiltern turnback gerrardscross chilternrailways turnbacksiding
license: 0
latitude: 51.589636
longitude: -0.556923
accuracy: 16
views: 2
interestingness: 169 out of 50

photo: 6461102179 7cc76548d6 7162
owner: 26357712@N03
title: Princes Risborough Junction
originalsecret: 478fa9f87d
originalformat: jpg
o_height: 2592
o_width: 1944
datetaken: 2011-12-05 10:54:31
dateupload: 1323109987
tags: train buckinghamshire railway junction princes railways chiltern risborough princesrisborough chilternrailways
license: 0
latitude: 51.729181
longitude: -0.845861
accuracy: 14
views: 1
interestingness: 170 out of 50

photo: 6461095657 8a63351877 7143
owner: 26357712@N03
title: Princes Risborough Junction
originalsecret: f4a8484ee3
originalformat: jpg
o_height: 2592
o_width: 1944
datetaken: 2011-12-05 10:52:11
dateupload: 1323109917
tags: train buckinghamshire railway junction princes railways chiltern risborough princesrisborough chilternrailways
license: 0
latitude: 51.729181
longitude: -0.845861
accuracy: 14
views: 1
interestingness: 171 out of 50

photo: 6461088993 1dcb35ccf9 7141
owner: 26357712@N03
title: Princes Risborough Junction
originalsecret: dfb61f4af9
originalformat: jpg
o_height: 2592
o_width: 1944
datetaken: 2011-12-05 10:51:35
dateupload: 1323109844
tags: train buckinghamshire railway junction princes railways chiltern risborough princesrisborough chilternrailways
license: 0
latitude: 51.729181
longitude: -0.845861
accuracy: 14
views: 1
interestingness: 172 out of 50

photo: 6461083429 f6ba5e0e6b 7146
owner: 26357712@N03
title: Princes Risborough Junction
originalsecret: dda4f95d78
originalformat: jpg
o_height: 1944
o_width: 2592
datetaken: 2011-12-05 10:52:01
dateupload: 1323109780
tags: train buckinghamshire railway junction princes railways chiltern risborough princesrisborough chilternrailways
license: 0
latitude: 51.729181
longitude: -0.845861
accuracy: 14
views: 1
interestingness: 173 out of 50

photo: 6459713599 bceda955d0 7005
owner: 13877445@N06
title: Rob Gronkowski gets congratulations after his 3rd TD
originalsecret: dee627d961
originalformat: jpg
o_height: 3000
o_width: 4000
datetaken: 2011-12-04 20:11:40
dateupload: 1323094277
tags: football indianapolis massachusetts nfl newengland colts patriots gillette foxboro foxborough
license: 0
latitude: 42.091678
longitude: -71.264362
accuracy: 16
views: 14
interestingness: 174 out of 50

photo: 6456535237 8b01085aa2 7164
owner: 26003429@N00
title: St Andrews
originalsecret: 8dcb9619c6
originalformat: jpg
o_height: 371
o_width: 1024
datetaken: 2011-11-21 01:19:26
dateupload: 1323047498
tags: street uk blue houses sea sky cliff tower castle cars water abbey stone clouds bay scotland pier town dock ruins waves cathedral harbour fife jetty traditional north scottish spire foam standrews chimneys castlesands strules cathedralofstandrew
license: 0
latitude: 56.339393
longitude: -2.779712
accuracy: 16
views: 20
interestingness: 175 out of 50

photo: 6456508363 7847e7a651 7142
owner: 25563261@N05
title: PB204531
originalsecret: 469b212b8b
originalformat: jpg
o_height: 4032
o_width: 3024
datetaken: 2011-11-20 13:51:49
dateupload: 1323047199
tags: museum dominicanrepublic caribbean hispaniola santodomingo 16thcentury zonacolonial plazadeespana rep?blicadominicana codeofarms lacapital museodelascasasreales
license: 0
latitude: 18.475122
longitude: -69.88311
accuracy: 14
views: 3
interestingness: 176 out of 50

photo: 6456499463 c77620576b 7002
owner: 25563261@N05
title: PB204507
originalsecret: 57196401d1
originalformat: jpg
o_height: 2766
o_width: 3688
datetaken: 2011-11-20 12:26:31
dateupload: 1323047097
tags: museum dominicanrepublic caribbean hispaniola santodomingo 16thcentury zonacolonial plazadeespana rep?blicadominicana codeofarms lacapital museodelascasasreales
license: 0
latitude: 18.475122
longitude: -69.88311
accuracy: 14
views: 4
interestingness: 177 out of 50

photo: 6456207789 e77d8b0bfc 7142
owner: 44114334@N08
title: 20111204 "the audience is waiting" 139/365
originalsecret: cd9ac54fca
originalformat: jpg
o_height: 2689
o_width: 4192
datetaken: 2011-12-04 20:18:04
dateupload: 1323043844
tags: 
license: 0
latitude: 50.983951
longitude: 4.832525
accuracy: 16
views: 5
interestingness: 178 out of 50

photo: 6454828879 53c2f71ac3 7142
owner: 8517706@N07
title: Robertson Stadium Scoreboard
originalsecret: null
originalformat: null
o_height: null
o_width: null
datetaken: 2011-12-03 14:42:36
dateupload: 1323030219
tags: game college football championship houston roadtrip usm uh goldeneagles cougars raissa southernmiss cusa conferenceusa
license: 0
latitude: 29.722057
longitude: -95.349515
accuracy: 15
views: 11
interestingness: 179 out of 50

photo: 6451840661 91345c6a3c 7023
owner: 28524283@N07
title: Church of Our Lady Before Tyn
originalsecret: null
originalformat: null
o_height: null
o_width: null
datetaken: 2011-11-29 14:34:44
dateupload: 1322995682
tags: old autumn houses roof our sky house cold history church water lamp statue architecture lady canon buildings river square graffiti j town photo concert movement opera catholic photographer czech prague spires gothic steps tram praha before gas ii memory revolution 5d classical lamps roads baroque vltava revolt mk tyn glynne pritchard jesuits 1385 beggers chr?m hussites t?nsk?
license: 0
latitude: 50.087037
longitude: 14.42065
accuracy: 15
views: 9
interestingness: 180 out of 50

photo: 6450871843 16f7ac6d9e 7154
owner: 38902313@N04
title: After Work
originalsecret: null
originalformat: null
o_height: null
o_width: null
datetaken: 2011-12-04 00:46:28
dateupload: 1322977588
tags: travel autumn newzealand sky house nature clouds wanaka aroundtheworld gavinfirkser ubertrippy
license: 0
latitude: -44.691403
longitude: 169.14604
accuracy: 15
views: 19
interestingness: 181 out of 50

photo: 6450756005 e054054f69 7160
owner: 67611756@N03
title: Engraved to Rule
originalsecret: null
originalformat: null
o_height: null
o_width: null
datetaken: 2009-09-24 23:52:20
dateupload: 1322975726
tags: bbsusheelkumar bbsusheelkumarphotography ?bbsusheelkumar
license: 0
latitude: 13.806079
longitude: 77.610061
accuracy: 11
views: 7
interestingness: 182 out of 50

photo: 6448442513 8ed4326cd1 7025
owner: 25443598@N06
title: Woodhouse Junction Down Main Stop Signal & Shunting Signal
originalsecret: 5a39009377
originalformat: jpg
o_height: 3648
o_width: 2736
datetaken: 2011-12-03 16:08:32
dateupload: 1322943819
tags: railway britishrail colliery railwayjunction trainsandtracks semaphoresignals ukrailways panasonicdmcfz28 britishrailwaysignalling gbrailways junctionsignals woodhousejunction
license: 0
latitude: 53.358472
longitude: -1.345084
accuracy: 16
views: 6
interestingness: 183 out of 50

photo: 6448438779 1ffc058ed8 7161
owner: 25443598@N06
title: Woodhouse Junction Down Main Stop Signal & Shunting Signal
originalsecret: 21817ed699
originalformat: jpg
o_height: 2736
o_width: 3648
datetaken: 2011-12-03 16:04:58
dateupload: 1322943771
tags: railway britishrail colliery railwayjunction trainsandtracks semaphoresignals ukrailways panasonicdmcfz28 britishrailwaysignalling gbrailways junctionsignals woodhousejunction
license: 0
latitude: 53.358472
longitude: -1.345084
accuracy: 16
views: 7
interestingness: 184 out of 50

photo: 6448435373 bb1b352012 7168
owner: 25443598@N06
title: Woodhouse Junction Down Main Stop Signal & Shunting Signal
originalsecret: 4df9e53091
originalformat: jpg
o_height: 3648
o_width: 2736
datetaken: 2011-12-03 16:04:10
dateupload: 1322943726
tags: railway britishrail colliery railwayjunction trainsandtracks semaphoresignals ukrailways panasonicdmcfz28 britishrailwaysignalling gbrailways junctionsignals woodhousejunction
license: 0
latitude: 53.358472
longitude: -1.345084
accuracy: 16
views: 9
interestingness: 185 out of 50

photo: 6448431425 7698a8fa8a 7151
owner: 25443598@N06
title: Woodhouse Junction Down Main Stop Signal & Shunting Signal
originalsecret: 58a0547c2a
originalformat: jpg
o_height: 2736
o_width: 3648
datetaken: 2011-12-03 16:02:49
dateupload: 1322943674
tags: railway britishrail colliery railwayjunction trainsandtracks semaphoresignals ukrailways panasonicdmcfz28 britishrailwaysignalling gbrailways junctionsignals woodhousejunction
license: 0
latitude: 53.358472
longitude: -1.345084
accuracy: 16
views: 6
interestingness: 186 out of 50

photo: 6448396051 e526680583 7144
owner: 25563261@N05
title: PB204455
originalsecret: f3111daaee
originalformat: jpg
o_height: 3024
o_width: 4032
datetaken: 2011-11-20 10:19:20
dateupload: 1322943218
tags: clouds dominicanrepublic caribbean hispaniola parqueindependencia santodomingo 16thcentury zonacolonial 1844 rep?blicadominicana lacapital
license: 0
latitude: 18.471264
longitude: -69.892423
accuracy: 14
views: 0
interestingness: 187 out of 50

photo: 6448363715 9b8b9e3a48 7175
owner: 25563261@N05
title: PB204449
originalsecret: b7bab433d2
originalformat: jpg
o_height: 3024
o_width: 4032
datetaken: 2011-11-20 10:11:48
dateupload: 1322942798
tags: clouds dominicanrepublic caribbean hispaniola parqueindependencia santodomingo 16thcentury zonacolonial 1844 rep?blicadominicana lacapital
license: 0
latitude: 18.471264
longitude: -69.892423
accuracy: 14
views: 0
interestingness: 188 out of 50

photo: 6441181841 e49b8c7dbb 7013
owner: 53944153@N03
title: Netherlands Export License Plate
originalsecret: 5a62ba9c8c
originalformat: jpg
o_height: 480
o_width: 640
datetaken: 2011-12-01 13:18:46
dateupload: 1322828387
tags: netherlands amsterdam plaque europa europe european tag plate denhaag licenseplate number license placa thehague patente targa matricula kennzeichen immatriculation targhe nummerschild plaqueimmatriculation
license: 0
latitude: 52.082881
longitude: 4.339599
accuracy: 9
views: 0
interestingness: 189 out of 50

photo: 6441179609 5ba3a052d9 7156
owner: 53944153@N03
title: Netherlands License Plate
originalsecret: b46506b2f9
originalformat: jpg
o_height: 480
o_width: 640
datetaken: 2011-12-01 13:11:03
dateupload: 1322828343
tags: netherlands amsterdam plaque europa europe european tag plate denhaag licenseplate number license placa thehague patente targa matricula kennzeichen immatriculation targhe nummerschild plaqueimmatriculation
license: 0
latitude: 51.917591
longitude: 4.449462
accuracy: 9
views: 0
interestingness: 190 out of 50

photo: 6439682673 e40ed740ef 7157
owner: 99069150@N00
title: Chantal Sutherlandon Written Rule
originalsecret: fd6d7dcea3
originalformat: jpg
o_height: 2848
o_width: 4288
datetaken: 2011-09-05 17:56:13
dateupload: 1322796947
tags: ca horses horseracing delmar paddock delmarracetrack chantalsutherland pamelaschreckengost pamschreckcom race9delmar writtenrule
license: 0
latitude: 32.976286
longitude: -117.262616
accuracy: 14
views: 1
interestingness: 191 out of 50

photo: 6439426173 4faaeb8284 7150
owner: 70708105@N06
title: BNSF Rail Police Explain their position..
originalsecret: 8ce2d7e7b3
originalformat: jpg
o_height: 1536
o_width: 2048
datetaken: 2011-11-26 11:00:16
dateupload: 1322792898
tags: news river photography search volunteers kansascity terry local michaels missour babylisa
license: 0
latitude: 39.153983
longitude: -94.501417
accuracy: 16
views: 20
interestingness: 192 out of 50

photo: 6439096415 76abb48e01 7029
owner: 99069150@N00
title: Written Rule
originalsecret: f9d9abb06d
originalformat: jpg
o_height: 2848
o_width: 4288
datetaken: 2011-09-05 17:45:40
dateupload: 1322787152
tags: ca horses horseracing delmar paddock delmarracetrack pamelaschreckengost pamschreckcom race9delmar writtenrule
license: 0
latitude: 32.976286
longitude: -117.262616
accuracy: 14
views: 1
interestingness: 193 out of 50

photo: 6438615723 c4c59b7d7b 7028
owner: 39994220@N07
title: Ferrari 599XX
originalsecret: 21163aa6fb
originalformat: jpg
o_height: 627
o_width: 1280
datetaken: 2009-12-06 10:43:44
dateupload: 1322779876
tags: auto red italia ferrari bologna rosso motorshow maranello v12 sportcar cavallino redrules automobilisportive 599xx
license: 0
latitude: 44.51594
longitude: 11.357288
accuracy: 14
views: 20
interestingness: 194 out of 50

photo: 6436464063 83f1390130 7010
owner: 51035555243@N01
title: Robert's Rules, Plate 2
originalsecret: 21fee86f9e
originalformat: jpg
o_height: 3122
o_width: 4868
datetaken: 2010-01-05 13:55:43
dateupload: 1322751167
tags: sanfrancisco california usa museum painting unitedstates unitedstatesofamerica sfmoma soma pollock jacksonpollock sanfranciscomuseumofmodernart
license: 2
latitude: 37.785369
longitude: -122.398176
accuracy: 16
views: 34
interestingness: 195 out of 50

photo: 6469854263 d741e939fe 7011
owner: 30084530@N04
title: Bananas rules
originalsecret: 53579e944e
originalformat: jpg
o_height: 1113
o_width: 1552
datetaken: 2011-11-08 11:22:00
dateupload: 1323233175
tags: cambodge cambodia khmer market capital banana phnompenh kampuchea 2011
license: 1
latitude: 11.565555
longitude: 104.924111
accuracy: 13
views: 5
interestingness: 196 out of 50

photo: 6462789469 c1e28159ae 7156
owner: 72825507@N00
title: Morro Bay Museum of Natural History as seen from the water
originalsecret: f95204c736
originalformat: jpg
o_height: 2644
o_width: 3966
datetaken: 2011-12-05 14:11:04
dateupload: 1323129598
tags: museum morrobay museumofnaturalhistory ccnha morrobaymuseum ccspa
license: 4
latitude: 35.347353
longitude: -120.84477
accuracy: 16
views: 50
interestingness: 197 out of 50

photo: 6458604413 7d8ae15a6a 7160
owner: 88704109@N00
title: Takayama Jinya (Former regional government building)
originalsecret: 175bbac648
originalformat: jpg
o_height: 1915
o_width: 2553
datetaken: 2011-12-05 14:16:24
dateupload: 1323075469
tags: japan takayama takayamajinya
license: 0
latitude: 36.143974
longitude: 137.260093
accuracy: 11
views: 6
interestingness: 198 out of 50

photo: 6458567463 83e930aa87 7171
owner: 33264358@N00
title: project365 - Day 308 of 365
originalsecret: 962d089659
originalformat: jpg
o_height: 467
o_width: 589
datetaken: 2011-11-04 19:41:33
dateupload: 1323074698
tags: ireland football australia afl goldcoast internationalrules project365 november365 metriconstadium
license: 0
latitude: -28.006375
longitude: 153.367166
accuracy: 13
views: 5
interestingness: 199 out of 50

photo: 6447192499 b001fb07fe 7018
owner: 42129133@N06
title: No Smoking
originalsecret: e4b7f5e55e
originalformat: jpg
o_height: 900
o_width: 1480
datetaken: 2011-12-02 17:32:11
dateupload: 1322928459
tags: street night pub dudley nosmoking blackcountry pardoes netherton oldswan
license: 0
latitude: 52.490205
longitude: -2.082982
accuracy: 16
views: 18
interestingness: 200 out of 50

photo: 6440282619 f5474ba87b 7030
owner: 41838385@N00
title: 10 minutes after bowing onstage at the Met for Satyagraha Philip Glass addresses the #OWS general assembly at police-barricaded Lincoln Center plaza.
originalsecret: 0bc3f2d29a
originalformat: jpg
o_height: 1536
o_width: 2048
datetaken: 2011-12-01 23:22:23
dateupload: 1322807928
tags: nyc loureed lincolncenter laurieanderson philipglass satyagraha ows themetropolitanopera occupywallstreet
license: 0
latitude: 40.772333
longitude: -73.982834
accuracy: 16
views: 27
interestingness: 201 out of 50

photo: 6437172061 7239a04b8d 7164
owner: 51593483@N06
title: 399CN2405
originalsecret: null
originalformat: null
o_height: null
o_width: null
datetaken: 2011-11-30 19:12:28
dateupload: 1322760795
tags: 
license: 0
latitude: 43.571638
longitude: -79.942756
accuracy: 15
views: 22
interestingness: 202 out of 50

photo: 4896769719 e0282b7f38 4098
owner: 74113208@N00
title: Lewd Black Scream (Munch on this)
originalsecret: null
originalformat: null
o_height: null
o_width: null
datetaken: 2010-08-15 21:20:58
dateupload: 1323253359
tags: woman canada black sexy island actionfigure newspaper media doll breast bc britishcolumbia butt barbie victoria lord bum business vancouverisland bikini madness cameron jail scream edvard brucedean professionalrecreationalist convict munch conrad con prisoner crook pussies diaz jobless excon camerondiaz conradblack financialpost clubfed lordblack sidebreast
license: 0
latitude: 24.562112
longitude: -81.752014
accuracy: 9
views: 772
interestingness: 203 out of 50

photo: 6476797503 97b2ed0578 7001
owner: 89807811@N00
title: 
originalsecret: null
originalformat: null
o_height: null
o_width: null
datetaken: 2011-06-04 18:29:10
dateupload: 1323352923
tags: usa newyork sign rules northamerica ulstercounty cragsmoor samspointpreserve
license: 0
latitude: 41.669749
longitude: -74.361792
accuracy: 16
views: 4
interestingness: 204 out of 50

photo: 6464956309 9832ca4b03 7159
owner: 46674859@N04
title: Fremantle Prison  -   Art Prison Cell
originalsecret: 57de53cffa
originalformat: jpg
o_height: 1365
o_width: 2048
datetaken: 2011-12-06 10:15:02
dateupload: 1323163244
tags: museum australia prison perth fremantle westernaustralia hdr worldheritage
license: 0
latitude: -32.056663
longitude: 115.752811
accuracy: 14
views: 8
interestingness: 205 out of 50

photo: 6463074955 001e7a9f05 7151
owner: 8004005@N06
title: JORDAN HENRIQUEZ
originalsecret: null
originalformat: null
o_height: null
o_width: null
datetaken: 2011-12-04 19:15:43
dateupload: 1323133425
tags: acc vt kstate wildcats vatech hokies big12 kansasstate
license: 0
latitude: 37.222562
longitude: -80.419052
accuracy: 16
views: 0
interestingness: 206 out of 50

photo: 6461439211 6fc88015c6 7162
owner: 26357712@N03
title: Beaconsfield Station
originalsecret: 2c2e05ed28
originalformat: jpg
o_height: 1944
o_width: 2592
datetaken: 2011-12-05 12:53:39
dateupload: 1323113682
tags: beaconsfield station train buckinghamshire railway railways chiltern chilternrailways
license: 0
latitude: 51.611334
longitude: -0.641047
accuracy: 16
views: 2
interestingness: 207 out of 50

photo: 6481158571 1daa79f3ce 7166
owner: 56188788@N00
title: well, i have to say -- a really enjoyable 'ontheground' in ghent, belgium these last four days, i'm positive i'll be back (after ruling out flights next year because of ark project - i can still get a train) really want to explore the possibility of a fib
originalsecret: 595d5ae9ab
originalformat: jpg
o_height: 612
o_width: 612
datetaken: 2011-12-09 10:24:02
dateupload: 1323426242
tags: square squareformat lomofi iphoneography instagramapp uploaded:by=instagram foursquare:venue=4b1191e6f964a520857f23e3
license: 4
latitude: 50.835378
longitude: 4.334256
accuracy: 16
views: 6
interestingness: 208 out of 50

photo: 6470512949 55e4a92fbd 7159
owner: 34846818@N07
title: The rules
originalsecret: null
originalformat: null
o_height: null
o_width: null
datetaken: 2011-10-30 01:44:41
dateupload: 1323246043
tags: travelling indonesia whitesand southsulawesi phinisi bulukumba tanjungbira
license: 0
latitude: -5.581817
longitude: 120.432128
accuracy: 8
views: 1
interestingness: 209 out of 50

photo: 6469661041 449c915f44 7160
owner: 68726754@N03
title: Howl (Extract)
originalsecret: null
originalformat: null
o_height: null
o_width: null
datetaken: 2011-09-27 00:00:00
dateupload: 1323230268
tags: san francisco allen ginsberg beats howl the
license: 0
latitude: 37.798229
longitude: -122.435685
accuracy: 15
views: 0
interestingness: 210 out of 50

photo: 6467551379 ab542247bd 7168
owner: 56619626@N05
title: Musicians at Occupy Wall Street
originalsecret: a65c1f3b77
originalformat: jpg
o_height: 1063
o_width: 1600
datetaken: 2011-10-30 13:15:50
dateupload: 1323201279
tags: musician newyork manhattan libertysquare 2011 zuccottipark occupywallstreet
license: 5
latitude: 40.709318
longitude: -74.011276
accuracy: 16
views: 38
interestingness: 211 out of 50

photo: 6467550727 5e903a7e81 7171
owner: 56619626@N05
title: Photographer at Occupy Wall Street
originalsecret: 73b56fbce8
originalformat: jpg
o_height: 1600
o_width: 1063
datetaken: 2011-10-30 13:15:41
dateupload: 1323201271
tags: newyork photographer manhattan libertysquare 2011 zuccottipark occupywallstreet
license: 5
latitude: 40.709318
longitude: -74.011276
accuracy: 16
views: 39
interestingness: 212 out of 50

photo: 6464426409 5805afd3d4 7142
owner: 47466679@N06
title: The King and I.
originalsecret: 9340be5009
originalformat: jpg
o_height: 1065
o_width: 1600
datetaken: 2011-12-04 12:39:58
dateupload: 1323152625
tags: street trip travel nikon tourist seoul d700
license: 0
latitude: 37.557121
longitude: 126.977378
accuracy: 11
views: 7
interestingness: 213 out of 50

photo: 6438836257 a81418d1b2 7174
owner: 30461626@N07
