
mintime: 1322697600 maxtime: 1324512427.5
numimgs: 131
total pages: 1
visiting only 1 pages ( up to 250 images)
photo: 6447263741 44b86244a4 7149
owner: 37564613@N00
title: What the water gave me
originalsecret: null
originalformat: null
o_height: null
o_width: null
datetaken: 2011-11-09 00:11:46
dateupload: 1322929362
tags: sanfrancisco california longexposure pier pilings hcs oaklandbaybridge colorplay whatthewatergaveme florenceandthemachine clich?saturday betheoverflow lettheonlysound
license: 0
latitude: 37.791713
longitude: -122.389793
accuracy: 16
views: 2807
interestingness: 1 out of 131

photo: 6441628807 b26766b797 7148
owner: 72179079@N00
title: Derborence lake-autumn landscape
originalsecret: 03c00ab6b0
originalformat: jpg
o_height: 976
o_width: 1038
datetaken: 2011-10-12 13:55:40
dateupload: 1322864400
tags: wood travel autumn light vacation sky mountain lake alps fall film nature water beautiful forest landscape photography switzerland nikon europa europe shadows view place swiss paisaje hills story fields shining tress katarinastefanovic katarina2353 lacdederborence mygearandme ????
license: 0
latitude: 46.279701
longitude: 7.214719
accuracy: 11
views: 746
interestingness: 2 out of 131

photo: 6435796803 5665821986 7035
owner: 54880604@N06
title: The Forbidden Great Wall of China, Shuiguan
originalsecret: null
originalformat: null
o_height: null
o_width: null
datetaken: 2011-11-14 15:03:29
dateupload: 1322739510
tags: china original people blackandwhite bw man black wall pen landscape solitude olympus walker mann greatwall schwarzweiss schwarz 45mm theblackstar addeadesokan
license: 0
latitude: 36.894451
longitude: 104.165649
accuracy: 2
views: 450
interestingness: 3 out of 131

photo: 6440804123 cb473f00a5 7146
owner: 53185476@N03
title: "keep on keepin' on" ~ {Explore}
originalsecret: c7e0092fc4
originalformat: jpg
o_height: 3760
o_width: 3169
datetaken: 2011-12-01 13:47:51
dateupload: 1322820141
tags: uk longexposure travel bridge seascape reflections landscape scotland edinburgh industrial north transport shoreline rail railway explore forth northsea riverbank forthrailbridge railbridge nikon1870mm explored explore125 nikond80 keeponkeepinon hitechfilters hitech10stopfilter slikpro400tripod explore1252nddecember2011 2nddecember2011 hitechndgradhard09filter
license: 3
latitude: 55.990652
longitude: -3.385248
accuracy: 13
views: 457
interestingness: 4 out of 131

photo: 6437082423 3be326d697 7158
owner: 59096591@N07
title: ? Birthday Gift for Model (Mai Qu?nh and Me)
originalsecret: null
originalformat: null
o_height: null
o_width: null
datetaken: 2011-12-01 21:51:52
dateupload: 1322759624
tags: 
license: 0
latitude: 10.839667
longitude: 106.6735
accuracy: 16
views: 1376
interestingness: 5 out of 131

photo: 6441402053 976555f4a0 7017
owner: 23604354@N02
title: Happy Belated Birthday, Victoria
originalsecret: 79d5f66438
originalformat: jpg
o_height: 2604
o_width: 3907
datetaken: 2011-08-05 05:44:17
dateupload: 1322832466
tags: ngc npc naturesfinest supershot flickrdiamond natureselegantshots coth5
license: 0
latitude: 51.390472
longitude: 0.569974
accuracy: 16
views: 296
interestingness: 6 out of 131

photo: 6436136929 658c079291 7002
owner: 33062170@N08
title: Library Tribe - Doras Pirate Adventure
originalsecret: null
originalformat: null
o_height: null
o_width: null
datetaken: 2011-08-13 12:04:50
dateupload: 1323008460
tags: old uk our england bw white man black color colour male english public mono book dvd warrington holding chair child library libraries smith save tony stop gb tribes push british libray cuts pram pushchair bloke selective chap selectivecolor selectivecolour librarybook britains librariesandlibrarians sniffers tonysmith bookmen librarytribe
license: 0
latitude: 53.386963
longitude: -2.595868
accuracy: 15
views: 716
interestingness: 7 out of 131

photo: 6466253235 dfb3aff273 7012
owner: 53848921@N00
title: Bastards!
originalsecret: 148a51a524
originalformat: jpg
o_height: 1024
o_width: 1024
datetaken: 2011-12-05 13:15:18
dateupload: 1323185451
tags: street delete5 delete2 dc washington 911 save3 delete3 save7 save8 delete delete4 save save2 save9 save4 headlines save5 save10 save6 bastards newseum save11 save12
license: 1
latitude: 38.892753
longitude: -77.019546
accuracy: 15
views: 319
interestingness: 8 out of 131

photo: 6455776263 edded482b2 7005
owner: 25355186@N06
title: Revealing Toy-ronto's First Snow Mystery :-)
originalsecret: null
originalformat: null
o_height: null
o_width: null
datetaken: 2011-11-30 11:44:22
dateupload: 1323059400
tags: snow toronto ontario canada hand photomontage firstsnow toyland hsm tilfshift dreamscapesoftoronto katrinray happyminiaturesunday miniaturestyle digimagic toyrontolife jarvismansiondistrict revealingtoyrontosfirstsnowmystery
license: 0
latitude: 43.667398
longitude: -79.379568
accuracy: 15
views: 207
interestingness: 9 out of 131

photo: 6437558801 53fa99b664 7032
owner: 34645744@N03
title: Green Carpet | Alfombra Verde
originalsecret: d4ec70fc5f
originalformat: jpg
o_height: 1998
o_width: 2000
datetaken: 2011-11-30 17:45:22
dateupload: 1322766050
tags: ocean sea seascape landscape mar puertorico paisaje oc?ano hasselblad500cm pi?ones distagon50mm lo?za bocadecangrejos finallysomezeissglass ilovemysinghrayreversendgrad thisisaseriouslysharpglass
license: 0
latitude: 18.460789
longitude: -65.99189
accuracy: 16
views: 181
interestingness: 10 out of 131

photo: 6447360555 710464e955 7031
owner: 29579683@N04
title: Day #334 ? 365 Save This Moment.
originalsecret: null
originalformat: null
o_height: null
o_width: null
datetaken: 2011-12-03 17:36:06
dateupload: 1322930560
tags: park street city friends boy portrait people urban italy woman man love girl night canon project photography eos couple dof bokeh candid streetphotography tuscany 365 cinematic stefano cremona santucci 135l canoniani 5dmarkii 5d2 5dmii streettogs tastino0 tastino0photography0
license: 0
latitude: 45.140338
longitude: 10.02527
accuracy: 11
views: 237
interestingness: 11 out of 131

photo: 6470513011 e88320a18a 7169
owner: 47223993@N03
title: Nut 3
originalsecret: a57ee81bcc
originalformat: jpg
o_height: 1520
o_width: 2700
datetaken: 2011-12-06 19:34:40
dateupload: 1323246044
tags: china girl delete10 delete9 delete5 delete2 delete6 delete7 chinese save3 delete8 delete3 delete delete4 save save2 save4 save5 save6 delete11 delete12
license: 6
latitude: 25.053587
longitude: 102.701869
accuracy: 14
views: 169
interestingness: 12 out of 131

photo: 6459083819 14020087c4 7162
owner: 8519304@N03
title: Going Nowhere Slow
originalsecret: null
originalformat: null
o_height: null
o_width: null
datetaken: 2011-11-29 06:16:00
dateupload: 1323084675
tags: railroad travel autumn tracks ie distressedjewell magicunicornverybest
license: 0
latitude: 40.832644
longitude: -76.044273
accuracy: 11
views: 108
interestingness: 13 out of 131

photo: 6476403581 f774549793 7165
owner: 40923951@N08
title: the sun will save the day
originalsecret: 8e026d84ae
originalformat: jpg
o_height: 552
o_width: 800
datetaken: 2011-06-04 10:00:12
dateupload: 1323345612
tags: blackandwhite bw sun man black paris france monochrome wall sepia architecture modern stairs soleil blackwhite graphics alone ?ledefrance arch geometry walk contemporary line diagonal cube tilt bostanci tilted lad?fense bostan lagrandearche arche puteaux grandarch korkut bouygues graphism paulandreu lagrandearchedelad?fense bostankorkulugu erikreitzel
license: 0
latitude: 48.892109
longitude: 2.236007
accuracy: 16
views: 96
interestingness: 14 out of 131

photo: 6362873313 7ddc1ede9d 6099
owner: 37260607@N06
title: Sunset Circle.
originalsecret: d7df701967
originalformat: jpg
o_height: 1500
o_width: 1000
datetaken: 2011-03-20 18:19:26
dateupload: 1322859617
tags: life uk sunset summer england sky orange sun lake sports water sport yellow vertical clouds marina liverpool circle outdoors golden evening march boat spring sundown cheshire lifebelt outdoor dusk circles lifestyle save hobby boating leisure watersports activity 2010 wirral newbrighton merseyside saver petecarroll goldensky petercarroll thewirral westcheshire flickraward petetography newbrightonmarinalake
license: 0
latitude: 53.442502
longitude: -3.043098
accuracy: 11
views: 214
interestingness: 15 out of 131

photo: 6467319903 538bce8938 7157
owner: 63726021@N04
title: A happy Android :)
originalsecret: 4186c1b543
originalformat: jpg
o_height: 3454
o_width: 5182
datetaken: 2011-12-03 18:44:59
dateupload: 1323198430
tags: christmas street xmas city decorations urban colors rain night canon toys lights sk?ne google shadows traffic sweden bokeh alien wideangle ufo scandinavia malm? centrum android shoppingstreet triangeln g?gatan hotelhilton sk?netrafiken s?draf?rstadsgatan
license: 0
latitude: 55.59921
longitude: 13.002105
accuracy: 13
views: 172
interestingness: 16 out of 131

photo: 6458448769 6d9351451d 7024
owner: 81147047@N00
title: Pier Sunrise Bognor Regis
originalsecret: null
originalformat: null
o_height: null
o_width: null
datetaken: 2011-12-02 08:06:25
dateupload: 1323072379
tags: pictures ocean uk blue light sunset sun seascape color detail beach water clouds landscape photography dawn sussex pier morninglight photo seaside colours westsussex photos picture blues wideangle bluesky pic prom dslr decking planks bognor hdr highdynamicrange bognorregis topaz photomatix a700 tonemapped tonemapping sigmawideangle sonya700 topazadjust
license: 0
latitude: 50.780434
longitude: -0.676431
accuracy: 13
views: 121
interestingness: 17 out of 131

photo: 6438228389 fbc9b8042e 7166
owner: 63726021@N04
title: Urban flowers
originalsecret: 0a0576613e
originalformat: jpg
o_height: 3744
o_width: 5616
datetaken: 2011-12-01 12:35:41
dateupload: 1322774846
tags: city urban blackandwhite bw canon sk?ne europe dof sweden bokeh pavement sidewalk scandinavia malm? selective selectivecolors
license: 0
latitude: 55.599596
longitude: 13.001989
accuracy: 13
views: 133
interestingness: 18 out of 131

photo: 6470888811 aaaa1c3485 7031
owner: 9381085@N08
title: Saving energy...
originalsecret: eb4edddb3f
originalformat: jpg
o_height: 1534
o_width: 2048
datetaken: 2011-03-12 12:20:21
dateupload: 1323254330
tags: color macro green eye argentina closeup digital canon eos reflex snake flash scales 5d pipa misiones posadas markii 2011 24105mm canoneos5dmarkii boaesmeralda canonflashspeedlite580exii 5dmkii pabloreinsch pabloreinschphotography pablin79 canonef24105mmf4lefisusm coralluscainus
license: 0
latitude: -27.363001
longitude: -55.892772
accuracy: 12
views: 133
interestingness: 19 out of 131

photo: 6436628485 828b31f696 7017
owner: 63726021@N04
title: Noooooo
originalsecret: 3446a5e14f
originalformat: jpg
o_height: 3744
o_width: 5616
datetaken: 2011-09-30 21:05:59
dateupload: 1322753578
tags: portrait people blackandwhite bw food canon 50mm lights restaurant sk?ne europe dof artistic sweden bokeh casino drinks malm? interiordesign selective 2011 selectivecolors casinocosmopol
license: 0
latitude: 55.587239
longitude: 13.001234
accuracy: 11
views: 154
interestingness: 20 out of 131

photo: 6478709343 ccce3e0d70 7017
owner: 46423414@N03
title: Beach Park II
originalsecret: 0b2f53d16f
originalformat: jpg
o_height: 1024
o_width: 1024
datetaken: 2011-12-08 22:29:58
dateupload: 1323379798
tags: ocean longexposure sea bw seascape water canon square eos blackwhite tranquility squareformat nd 5d canonef24105mmf40l leefilters canonef1740mmf40l bwnd110 canoneos5dmarkii neutraldenisity
license: 0
latitude: 55.654323
longitude: 12.649984
accuracy: 13
views: 91
interestingness: 21 out of 131

photo: 6472001335 c836d45c38 7167
owner: 63726021@N04
title: Batman was here!
originalsecret: e0b4398bd7
originalformat: jpg
o_height: 3455
o_width: 5182
datetaken: 2011-12-07 12:59:10
dateupload: 1323272758
tags: street city urban blackandwhite bw cars colors yellow contrast scarf canon wednesday lights sk?ne europe comic shadows sweden pavement details wideangle sidewalk batman handkerchief scandinavia malm? selectivecolors
license: 0
latitude: 55.599986
longitude: 13.003135
accuracy: 13
views: 136
interestingness: 22 out of 131

photo: 6455166957 d5e660a00a 7162
owner: 63726021@N04
title: Oink oink!
originalsecret: aba08823c9
originalformat: jpg
o_height: 3744
o_width: 5616
datetaken: 2011-12-03 23:39:10
dateupload: 1323033438
tags: macro green colors canon toys photography pig dof candy sweet sweden bokeh chocolate malm? godis daim angrybird
license: 0
latitude: 55.605126
longitude: 13.001418
accuracy: 13
views: 108
interestingness: 23 out of 131

photo: 6450968053 8debb0c130 7144
owner: 32699608@N02
title: Day 337/365 - Manufactured Chaos!
originalsecret: null
originalformat: null
o_height: null
o_width: null
datetaken: 2011-12-03 12:41:23
dateupload: 1322979283
tags: 
license: 0
latitude: 26.832955
longitude: -80.105094
accuracy: 11
views: 491
interestingness: 24 out of 131

photo: 6472720239 aec9763c42 7003
owner: 97133246@N00
title: Sunrise and coffee with Punky
originalsecret: null
originalformat: null
o_height: null
o_width: null
datetaken: 2011-12-07 07:11:46
dateupload: 1323281898
tags: california morning arizona bird nature coffee sunrise outdoors photography travels nikon hummingbird desert coffeecup wildlife tripod peaceful feeder christmaslights deby avian allrightsreserved magma 80400mm 2011 birdbehavior earlybirdgetstheworm debydixon debydixonphotography protectinghisfeeder secondmorningivehadcoffeewiththehummer
license: 0
latitude: 34.049814
longitude: -114.407501
accuracy: 9
views: 130
interestingness: 25 out of 131

photo: 6462340211 f853f50660 7175
owner: 63726021@N04
title: The pink label
originalsecret: d6d164ec35
originalformat: jpg
o_height: 3736
o_width: 5604
datetaken: 2011-11-28 12:27:45
dateupload: 1323123706
tags: city pink urban blackandwhite bw colors bicycle canon lights sk?ne europe dof sweden bokeh wideangle scandinavia malm? centralstation centralstationen selectivecolors
license: 0
latitude: 55.601882
longitude: 12.999684
accuracy: 13
views: 94
interestingness: 26 out of 131

photo: 6449282115 a881cdf4ee 7029
owner: 22966172@N03
title: Munic Hofbr?uhaus
originalsecret: 22de0eb38a
originalformat: jpg
o_height: 2848
o_width: 4288
datetaken: 2011-10-15 12:54:23
dateupload: 1322954518
tags: 
license: 0
latitude: 48.137897
longitude: 11.580061
accuracy: 16
views: 102
interestingness: 27 out of 131

photo: 6440619543 5a1de9fbe1 7026
owner: 63726021@N04
title: The weather sucks today!
originalsecret: 93d3f6bd1d
originalformat: jpg
o_height: 3647
o_width: 5470
datetaken: 2011-12-02 10:18:35
dateupload: 1322815385
tags: city sky urban blackandwhite bw industry window rain weather work canon grey lights office shadows harbour details wideangle highlights raindrops malm? industri norrahamnen oljehamnen
license: 0
latitude: 55.60115
longitude: 13.009486
accuracy: 13
views: 102
interestingness: 28 out of 131

photo: 6471734513 a3105d81ee 7003
owner: 63726021@N04
title: "Please, release me!"
originalsecret: d894c25823
originalformat: jpg
o_height: 2387
o_width: 3582
datetaken: 2011-12-07 12:40:51
dateupload: 1323269263
tags: 
license: 0
latitude: 55.599307
longitude: 13.002963
accuracy: 13
views: 76
interestingness: 29 out of 131

photo: 6465719119 325322f330 7004
owner: 83261600@N00
title: Occupy DC - In the Capitol's Shadow 2
originalsecret: aef672001e
originalformat: jpg
o_height: 2936
o_width: 3923
datetaken: 2011-11-25 16:50:22
dateupload: 1323178232
tags: november sunset camp delete10 canon delete9 delete5 delete2 tents dc washington pennsylvania delete6 delete7 political politics protest save3 delete8 delete3 delete delete4 save save2 demonstration save4 capitol dcist avenue 70300mm liberal ef occupation freedomplaza 2011 ef70300mmf456isusm canonef70300mmf456isusm welovedc t1i deletedbydeletemeuncensored theqspeaksblogslideshow
license: 1
latitude: 38.896326
longitude: -77.032635
accuracy: 16
views: 231
interestingness: 30 out of 131

photo: 6457795387 a91a2f264a 7023
owner: 76672675@N00
title: ?The key is to keep company only with people who uplift you, whose presence calls forth your best.? -- Epictetus
originalsecret: null
originalformat: null
o_height: null
o_width: null
datetaken: 2011-12-04 15:48:14
dateupload: 1323061790
tags: winter sunset sun ny newyork man rural outdoors pond path walk country husband chatham savor columbiacounty owp sutherlandpond oomsconservationarea picturetheholidays
license: 0
latitude: 42.399755
longitude: -73.566298
accuracy: 13
views: 187
interestingness: 31 out of 131

photo: 6442343363 b678bbb848 7149
owner: 63726021@N04
title: Red Bull gives you wings ;)
originalsecret: 532d065651
originalformat: jpg
o_height: 3397
o_width: 5097
datetaken: 2011-12-02 14:02:15
dateupload: 1322845928
tags: 
license: 0
latitude: 55.604445
longitude: 13.001474
accuracy: 13
views: 160
interestingness: 32 out of 131

photo: 6472196927 652c2682e9 7152
owner: 43385244@N07
title: one last spin
originalsecret: 3ac9285034
originalformat: jpg
o_height: 2338
o_width: 4288
datetaken: 2011-11-20 10:41:12
dateupload: 1323275210
tags: reflection night lakehavasu crazykid toomuchfun spinningfire burningsteelwool
license: 0
latitude: 34.479993
longitude: -114.401836
accuracy: 13
views: 176
interestingness: 33 out of 131

photo: 6469210557 97c79e9e3e 7169
owner: 55594432@N03
title: Peekaboo
originalsecret: fc0d504854
originalformat: jpg
o_height: 3168
o_width: 4752
datetaken: 2011-10-15 18:12:36
dateupload: 1323223587
tags: 
license: 0
latitude: 34.483341
longitude: 133.147949
accuracy: 11
views: 156
interestingness: 34 out of 131

photo: 6451811865 760047c9ca 7017
owner: 48646584@N00
title: Shanghai - Moganshan Road Graffiti
originalsecret: null
originalformat: null
o_height: null
o_width: null
datetaken: 2011-10-06 19:28:47
dateupload: 1323011766
tags: china road street light urban building art architecture night buildings geotagged graffiti noche ruins shanghai nacht decay district creative scene noite ?? ?? nuit notte nachtaufnahme moganshan m50 putuo ???? ?allrightsreserved ??? geo:lat=31250142 geo:lon=121443428
license: 0
latitude: 31.250142
longitude: 121.443428
accuracy: 16
views: 122
interestingness: 35 out of 131

photo: 6443326903 7640309d1b 7022
owner: 68642336@N05
title: 33/365
originalsecret: null
originalformat: null
o_height: null
o_width: null
datetaken: 2011-12-02 14:41:52
dateupload: 1322859491
tags: 
license: 0
latitude: 61.163028
longitude: 24.002229
accuracy: 11
views: 155
interestingness: 36 out of 131

photo: 6474583657 c26c44f3b6 7147
owner: 42247711@N08
title: The Angel Oak Tree
originalsecret: null
originalformat: null
o_height: null
o_width: null
datetaken: 2011-12-03 09:07:30
dateupload: 1323309203
tags: color tree sc angel photoshop oak glow charleston layers nik jpeg hdr glamor levels adjustment topaz johnsisland photomatix cs5
license: 0
latitude: 32.78115
longitude: -79.931602
accuracy: 11
views: 64
interestingness: 37 out of 131

photo: 6449614453 bb6055ff32 7141
owner: 63726021@N04
title: Swooooooshh
originalsecret: c057fde692
originalformat: jpg
o_height: 3744
o_width: 5616
datetaken: 2011-12-03 18:32:46
dateupload: 1322959076
tags: 
license: 0
latitude: 55.605223
longitude: 13.004336
accuracy: 13
views: 77
interestingness: 38 out of 131

photo: 6471023925 ba6a0d960c 7168
owner: 25822731@N02
title: Tinsel Time :)
originalsecret: null
originalformat: null
o_height: null
o_width: null
datetaken: 2011-12-07 11:04:57
dateupload: 1323370800
tags: christmas dog pet collie sheepdog tinsel bordercollie barney ldlportraits
license: 0
latitude: 51.460628
longitude: -2.12244
accuracy: 11
views: 114
interestingness: 39 out of 131

photo: 6459920461 28f153e652 7144
owner: 63726021@N04
title: Waiting for the food
originalsecret: ee08c972f7
originalformat: jpg
o_height: 3383
o_width: 5075
datetaken: 2011-12-04 19:31:36
dateupload: 1323096812
tags: colors canon lights restaurant sk?ne europe shadows dof sweden bokeh details wideangle scandinavia malm? lebanese v?rnhemstorget v?rnhem caf?ceder
license: 0
latitude: 55.606387
longitude: 13.004851
accuracy: 13
views: 93
interestingness: 40 out of 131

photo: 6441323013 639b4d15af 7029
owner: 15947668@N00
title: Le Maudit / The Damned
originalsecret: null
originalformat: null
o_height: null
o_width: null
datetaken: 2008-02-24 15:01:33
dateupload: 1322831009
tags: save3 save7 save8 save save2 save9 save4 save5 save10 save6 save11 save12
license: 0
latitude: 13.72408
longitude: 100.504379
accuracy: 14
views: 102
interestingness: 41 out of 131

photo: 6472166987 6fc14164a1 7023
owner: 82485953@N00
title: Kinderdijk,......
originalsecret: null
originalformat: null
o_height: null
o_width: null
datetaken: 2011-12-07 17:20:24
dateupload: 1323274824
tags: holland mill netherlands windmill m?hle village nederland unescoworldheritagesite holanda polder kinderdijk alblasserwaard molen lek niederlande noord windmolen molens windmolens lespaysbas hansviveen 19windmills childrensdike thecatandthecradle municipalityofnieuwlekkerland around1740 saintelizabethflood sintelisabethvloed
license: 0
latitude: 51.880411
longitude: 4.643397
accuracy: 14
views: 95
interestingness: 42 out of 131

photo: 6450817033 ea133f83e4 7175
owner: 87263552@N00
title: A Village House On The Town Apartment
originalsecret: null
originalformat: null
o_height: null
o_width: null
datetaken: 2011-10-24 07:44:25
dateupload: 1322976657
tags: china wood chimney people woman house tree brick home canon sand chili herbs picasa clay guangdong mango tamron charliebrown8989 buildingconstruction herba yangjiang chinatoday menthae? chair? greenssustainability
license: 0
latitude: 23.4834
longitude: 113.906255
accuracy: 2
views: 2215
interestingness: 43 out of 131

photo: 6472771671 5361dc8e7c 7014
owner: 61112271@N00
title: Legami di cuore
originalsecret: dd1226318f
originalformat: jpg
o_height: 2814
o_width: 2000
datetaken: 2011-12-07 17:01:59
dateupload: 1323282627
tags: venice bw moon reflection delete9 delete5 delete2 boat nikon delete6 delete7 save3 delete8 delete3 rope delete delete4 save save2 luna save4 save5 save6 venezia vaporetto sangiorgio corde riflessione d90 legami invitojazz
license: 0
latitude: 45.428391
longitude: 12.336412
accuracy: 16
views: 122
interestingness: 44 out of 131

photo: 6462197179 f200ef5316 7145
owner: 41764189@N07
title: All you need is love..
originalsecret: 2d254bf6e6
originalformat: jpg
o_height: 2832
o_width: 4256
datetaken: 2011-12-03 23:40:59
dateupload: 1323122039
tags: save
license: 0
latitude: 50.848381
longitude: 4.349679
accuracy: 11
views: 102
interestingness: 45 out of 131

photo: 6477039921 2f6d916a8b 7004
owner: 75493411@N00
title: Monkey Bar for the New York Times
originalsecret: null
originalformat: null
o_height: null
o_width: null
datetaken: 2011-11-29 21:26:24
dateupload: 1323356590
tags: saved nyc deleted7 deleted9 deleted6 deleted3 deleted2 deleted4 delete8 deleted10 deleted5 deleted monkeybar kenfriedman wwwdanielkriegercom damonwise belindachang newyorktimesdiningreview graydoncartersmonkeybar
license: 0
latitude: 40.760177
longitude: -73.973213
accuracy: 16
views: 163
interestingness: 46 out of 131

photo: 6478873937 5bd67424d1 7151
owner: 63726021@N04
title: Who stole my shoes?!
originalsecret: 6f3baa2955
originalformat: jpg
o_height: 3601
o_width: 5401
datetaken: 2011-12-08 23:09:52
dateupload: 1323382040
tags: blackandwhite bw rain 35mm canon lights sk?ne shadows sweden pavement wideangle flashlight malm? feettoes
license: 0
latitude: 55.587239
longitude: 13.001234
accuracy: 11
views: 79
interestingness: 47 out of 131

photo: 6476082655 152dfd2c42 7160
owner: 11677434@N04
title: day and night
originalsecret: 922abdc105
originalformat: jpg
o_height: 2792
o_width: 2792
datetaken: 2011-12-05 08:05:58
dateupload: 1323338568
tags: morning window water glass sunrise delete5 dawn delete2 twilight cloudy delete6 delete7 save3 delete3 delete delete4 save save2 save4 save5 save6 weeping dewy erith ausra dayandnight nightmeetsday
license: 5
latitude: 51.473791
longitude: 0.177111
accuracy: 13
views: 82
interestingness: 48 out of 131

photo: 6449482405 066e6bdb5d 7162
owner: 63726021@N04
title: X-mas in Malm?
originalsecret: 4d00b57fa4
originalformat: jpg
o_height: 3744
o_width: 5616
datetaken: 2011-12-03 18:34:10
dateupload: 1322957303
tags: 
license: 0
latitude: 55.604932
longitude: 13.00159
accuracy: 13
views: 70
interestingness: 49 out of 131

photo: 6458678309 20cb33dd62 7166
owner: 30208469@N07
title: Mayan
originalsecret: null
originalformat: null
o_height: null
o_width: null
datetaken: 2011-11-27 14:30:47
dateupload: 1323076897
tags: saved autumn bw sculpture london film girl mediumformat deleted7 deleted6 deleted3 coat deleted2 saved2 deleted4 deleted10 mayan deleted5 deleted 6x7 rodinal deleted8 saved3 selfdeveloped ilfordfp4 kozak 125iso mamiyarz67proii sekor110mmf28 tedkozak tadaskazakevicius
license: 0
latitude: 51.502031
longitude: -0.14073
accuracy: 16
views: 255
interestingness: 50 out of 131

photo: 6475657937 c78985bb24 7016
owner: 30658940@N08
title: Stop traditional Brickfields and save the future
originalsecret: null
originalformat: null
o_height: null
o_width: null
datetaken: 2011-05-14 17:58:40
dateupload: 1323348834
tags: poverty life street light sky stilllife cloud rural canon children evening child lifestyle bangladesh 2011 450d 1585mm gettyimagesbangladeshq2
license: 0
latitude: 23.618799
longitude: 90.498008
accuracy: 11
views: 133
interestingness: 51 out of 131

photo: 6462001023 caf7c94228 7142
owner: 50428574@N08
title: Cloughton Wyke
originalsecret: null
originalformat: null
o_height: null
o_width: null
datetaken: 2011-12-04 08:42:32
dateupload: 1323119813
tags: longexposure seascape sunrise rocks yorkshire north scarborough cloughton
license: 0
latitude: 54.340397
longitude: -0.432758
accuracy: 16
views: 186
interestingness: 52 out of 131

photo: 6443694229 9ec5793e34 7145
owner: 15947668@N00
title: The Stray Cats
originalsecret: null
originalformat: null
o_height: null
o_width: null
datetaken: 2011-12-02 23:26:24
dateupload: 1322864784
tags: delete9 delete5 delete2 delete6 delete7 save3 delete8 delete3 save7 save8 delete delete4 save save2 save9 save4 save5 save10 save6 save11 savedbydeletemeuncensored
license: 0
latitude: 13.748957
longitude: 100.531064
accuracy: 16
views: 109
interestingness: 53 out of 131

photo: 6461160301 1865f772f3 7143
owner: 35492921@N06
title: Sinterklaas &  Zwarte Piet  bij ons thuis
originalsecret: null
originalformat: null
o_height: null
o_width: null
datetaken: 2011-12-05 17:51:26
dateupload: 1323110658
tags: hgv otw ?allrightsreserved sinterklaaszwartepiet mikazu001 pepernootsnoepgoed lekkerpeppernotten
license: 0
latitude: 52.725971
longitude: 6.47552
accuracy: 11
views: 120
interestingness: 54 out of 131

photo: 6459023693 4b5be2af53 7147
owner: 39590895@N02
title: memory will save humanity
originalsecret: null
originalformat: null
o_height: null
o_width: null
datetaken: 2011-12-05 12:13:11
dateupload: 1323083591
tags: anna art film girl television analog 35mm canon vintage tv europa europe sweden stockholm ae1 ryan schweden grain retro hide terry flare ann analogue canonae1 allister richardson mcginley weekday wwwlostinagoodwaycom lostinagoodway
license: 0
latitude: 59.332168
longitude: 18.062429
accuracy: 11
views: 153
interestingness: 55 out of 131

photo: 6445726239 d9fec9df5e 7030
owner: 55081733@N07
title: UAE's 40th Birthday Parade
originalsecret: null
originalformat: null
o_height: null
o_width: null
datetaken: 2011-12-02 23:20:20
dateupload: 1322902905
tags: delete9 delete5 delete2 delete6 delete7 save3 delete8 delete3 save7 save8 delete delete4 save save2 save9 save4 abudhabi save5 save10 save6 unitedarabemirates ???? sheikhzayed emirati ????? kandoora ???? dishdasha savedbydeletemeuncensored ????????? hamdaniya ????????? ?????????????????????? ??????? ??????????? guthra kandura uae40thnationalday nationaldayuae40
license: 0
latitude: 24.472541
longitude: 54.34134
accuracy: 14
views: 113
interestingness: 56 out of 131

photo: 6437551561 8211a594e0 7152
owner: 46833691@N05
title: After the Flood Dumfries
originalsecret: f9fce46261
originalformat: jpg
o_height: 1155
o_width: 1754
datetaken: 2011-12-01 15:38:54
dateupload: 1322765955
tags: delete9 delete5 delete2 delete6 delete7 save3 delete8 delete3 save7 save8 delete4 save save2 save9 save4 save5 save10 delete1 save6 savedbydeletemeuncensored dumfriesfloods
license: 0
latitude: 55.066917
longitude: -3.614301
accuracy: 13
views: 119
interestingness: 57 out of 131

photo: 6440732469 bb42662acf 7014
owner: 81147047@N00
title: Villandry Chateau Stairs
originalsecret: null
originalformat: null
o_height: null
o_width: null
datetaken: 2011-06-19 13:40:38
dateupload: 1322818246
tags: pictures old vacation holiday france color colour building castle history texture stairs photography photo europe king photographie photos furniture interior sony picture sigma wideangle pic symmetry castelo inside dslr chateau loire francia castillo hdr highdynamicrange chateaux topaz castels photomatix tonemapped tonemapping chateauvillandry villandrychateau topazadjust loirechateau dslra550
license: 0
latitude: 47.339288
longitude: 0.514984
accuracy: 11
views: 151
interestingness: 58 out of 131

photo: 6461707749 55f5946b0e 7034
owner: 63726021@N04
title: Crossing the street
originalsecret: 09df0f8739
originalformat: jpg
o_height: 3729
o_width: 5593
datetaken: 2011-11-16 13:52:54
dateupload: 1323116568
tags: city people urban blackandwhite bw woman trafficlights building cars architecture contrast canon lights hotel sk?ne europe shadows veil traffic sweden candid muslim islam details religion snapshot culture streetphotography pedestrian wideangle scandinavia niqab malm? centrum dresscode burka qualityhotel ?verg?ngsst?lle zebralagen
license: 0
latitude: 55.601882
longitude: 12.999684
accuracy: 13
views: 88
interestingness: 59 out of 131

photo: 6454446937 0789b0d9ef 7007
owner: 63726021@N04
title: Loving bananas
originalsecret: 7b8c0e12c2
originalformat: jpg
o_height: 3744
o_width: 5616
datetaken: 2011-12-04 15:48:32
dateupload: 1323026522
tags: wood blackandwhite bw food macro kitchen closeup canon table lights sk?ne shadows sweden details bananas scandinavia malm? potassium
license: 0
latitude: 55.604738
longitude: 13.003135
accuracy: 13
views: 79
interestingness: 60 out of 131

photo: 6436577665 5f18bebd9b 7143
owner: 55081733@N07
title: Habibi
originalsecret: null
originalformat: null
o_height: null
o_width: null
datetaken: 2011-12-01 17:34:03
dateupload: 1322752838
tags: sunset delete10 cat delete9 delete5 delete2 cityscape delete6 delete7 balcony structures save3 delete8 delete3 delete delete4 save save2 save4 abudhabi hyatt save5 leaning lean orangeandblue bim rmjm gingertom desertcat tekla guinessbookofrecords adnec capitalgatetower deletedbydeletemeuncensored arabianmau robertmathewjohnsonmarshall
license: 0
latitude: 24.43199
longitude: 54.440345
accuracy: 11
views: 95
interestingness: 61 out of 131

photo: 6476736419 9bce5218b8 7172
owner: 36228124@N06
title: Para mis amigos "Paz y Amor "
originalsecret: null
originalformat: null
o_height: null
o_width: null
datetaken: 2011-12-07 15:16:21
dateupload: 1323351888
tags: argentina amor paz mardelplata tradici?n alegr?a fotograf?a ?ngeles aprehendiz
license: 0
latitude: -37.92768
longitude: -57.543983
accuracy: 11
views: 164
interestingness: 62 out of 131

photo: 6460108813 d672cde7b3 7005
owner: 63726021@N04
title: Eating grilled salmon at a Lebanese restaurant
originalsecret: 0042ce1fec
originalformat: jpg
o_height: 2466
o_width: 3699
datetaken: 2011-12-04 19:41:14
dateupload: 1323098978
tags: food colors canon lights restaurant sk?ne europe shadows dof sweden bokeh details salmon wideangle sallad foodporn scandinavia malm? lebanese shrimps tabbouleh v?rnhemstorget v?rnhem caf?ceder
license: 0
latitude: 55.606096
longitude: 13.00468
accuracy: 13
views: 101
interestingness: 63 out of 131

photo: 6460219517 0e8fccec04 7147
owner: 54829270@N00
title: marina
originalsecret: f336e41905
originalformat: jpg
o_height: 2748
o_width: 3963
datetaken: 2011-12-04 22:47:48
dateupload: 1323100243
tags: barcelona city water marina boats delete5 delete2 spain europe sailing delete6 delete7 bcn save3 delete8 delete3 save7 save8 delete delete4 save save2 historic save9 save4 barceloneta catalunya save5 save10 save6 catalan catalunia catala
license: 4
latitude: 41.3833
longitude: 2.1833
accuracy: 13
views: 94
interestingness: 64 out of 131

photo: 6470461591 2f11a11734 7022
owner: 49371519@N02
title: More 2011 Fall Colors #3
originalsecret: ce223f985c
originalformat: jpg
o_height: 768
o_width: 1024
datetaken: 2011-11-21 16:36:08
dateupload: 1323244924
tags: california travel autumn sunset orange usa fall yellow catchycolors photography ginkgo nikon fallcolors fallfoliage handheld sacramento pointshoot warmlight compactcamera tiltshift 2011 coolpixp7000 nxtrfoto nextierphotography topazlenseffects
license: 0
latitude: 38.615881
longitude: -121.52059
accuracy: 15
views: 42
interestingness: 65 out of 131

photo: 6466740055 75351fc63f 7174
owner: 47223993@N03
title: Nut
originalsecret: 2d1b575148
originalformat: jpg
o_height: 3868
o_width: 2394
datetaken: 2011-12-06 18:06:34
dateupload: 1323191386
tags: china girl delete10 delete9 delete5 delete2 model delete6 delete7 chinese save3 delete8 delete3 delete delete4 save save2 save4 save5 shallowdof deletedbydeletemeuncensored
license: 6
latitude: 25.054753
longitude: 102.70307
accuracy: 14
views: 160
interestingness: 66 out of 131

photo: 6444440753 d244782f4f 7162
owner: 8635067@N05
title: Beach Art: Byron Bay City Beach New South Wales Australia
originalsecret: null
originalformat: null
o_height: null
o_width: null
datetaken: 2011-11-29 12:51:36
dateupload: 1322877544
tags: 
license: 0
latitude: -28.642596
longitude: 153.618736
accuracy: 14
views: 56
interestingness: 67 out of 131

photo: 6441566595 539c9af47d 7160
owner: 12654904@N05
title: Loud Pipes Save Lives
originalsecret: null
originalformat: null
o_height: null
o_width: null
datetaken: 2011-12-01 14:53:29
dateupload: 1322835167
tags: harleydavidson selectivecolor labellefl nikond80
license: 0
latitude: 26.758486
longitude: -81.439075
accuracy: 11
views: 34
interestingness: 68 out of 131

photo: 6477034663 91b90da7ee 7021
owner: 63726021@N04
title: World War 3
originalsecret: ee464504a5
originalformat: jpg
o_height: 3744
o_width: 5616
datetaken: 2011-12-07 12:34:06
dateupload: 1323356511
tags: city sky urban blackandwhite bw sepia contrast canon fence lights war europe shadows dof bokeh steel wideangle x conflict scandinavia malm? worldwar3 roughness sk?nesweden filterroughpastels
license: 0
latitude: 55.611622
longitude: 13.025279
accuracy: 13
views: 64
interestingness: 69 out of 131

photo: 6449666855 8caee12bb6 7157
owner: 63726021@N04
title: Commercialism
originalsecret: 3c7eaceaee
originalformat: jpg
o_height: 3596
o_width: 5394
datetaken: 2011-12-03 18:35:23
dateupload: 1322959778
tags: 
license: 0
latitude: 55.605514
longitude: 13.003135
accuracy: 13
views: 81
interestingness: 70 out of 131

photo: 6442638377 e4891ac1a3 7175
owner: 7933174@N07
title: [Project 1000 Strangers] #2 Vanessa
originalsecret: bd00295fa6
originalformat: jpg
o_height: 474
o_width: 800
datetaken: 2011-12-02 17:12:45
dateupload: 1322849920
tags: 
license: 0
latitude: 50.776255
longitude: 6.083292
accuracy: 14
views: 134
interestingness: 71 out of 131

photo: 6463443483 86f9ef602e 7143
owner: 89441939@N00
title: Save a Prayer
originalsecret: null
originalformat: null
o_height: null
o_width: null
datetaken: 2011-01-09 19:34:13
dateupload: 1323138369
tags: light italy night canon dark hope candles italia catholic candle faith prayer religion christian piemonte christianity biella piedmont prayers allrightsreserved 50d biellese ?angelamlobefaro riproduzioneriservata
license: 0
latitude: 45.560428
longitude: 8.059809
accuracy: 11
views: 60
interestingness: 72 out of 131

photo: 6459288335 03edb63a63 7032
owner: 25854373@N03
title: Welcome to Letchworth Village
originalsecret: 129b0462f7
originalformat: jpg
o_height: 3456
o_width: 5183
datetaken: 2011-12-03 15:20:28
dateupload: 1323090304
tags: usa newyork abandoned hospital unitedstates urbanexploration asylum hdr institution urbex letchworthvillage photomatix thiells physicallyandmentallydisabled residentialinstitution
license: 0
latitude: 41.21698
longitude: -74.021828
accuracy: 16
views: 75
interestingness: 73 out of 131

photo: 6461182705 9bca794ca9 7010
owner: 63726021@N04
title: She?s a slut!
originalsecret: e2937fe3f7
originalformat: jpg
o_height: 3550
o_width: 5326
datetaken: 2011-12-05 18:51:50
dateupload: 1323110921
tags: macro colors canon toys lights punk lego sweden bokeh details humor frankenstein geisha malm? lumberjack
license: 0
latitude: 55.606484
longitude: 13.005023
accuracy: 13
views: 84
interestingness: 74 out of 131

photo: 6466534197 47558b685c 7033
owner: 7133314@N03
title: Dawn at Hedrick Point
originalsecret: null
originalformat: null
o_height: null
o_width: null
datetaken: 2011-09-28 07:05:54
dateupload: 1323188834
tags: dawn wyoming grandtetonnationalpark gtnp tetoncounty cathedralgroup canon24105mm hedrickpond canon5dmarkii hedrickpondoverlook hedrickpoint
license: 0
latitude: 43.75456
longitude: -110.58021
accuracy: 16
views: 42
interestingness: 75 out of 131

photo: 6476212055 0432d3fe3d 7150
owner: 63726021@N04
title: Window shoppers at night
originalsecret: b546e8188f
originalformat: jpg
o_height: 3744
o_width: 5616
datetaken: 2011-12-03 19:12:01
dateupload: 1323341544
tags: christmas xmas city people urban blackandwhite bw fashion sepia canon lights sk?ne europe shadows sweden candid snapshot moda streetphotography wideangle clothes scandinavia malm? accent windowshopping g?gatan s?draf?rstadsgatan
license: 0
latitude: 55.604161
longitude: 13.003118
accuracy: 13
views: 63
interestingness: 76 out of 131

photo: 6462058321 5c83f4fccf 7006
owner: 21455613@N05
title: a hero's mask
originalsecret: null
originalformat: null
o_height: null
o_width: null
datetaken: 2011-12-05 11:36:13
dateupload: 1323120475
tags: life ontario canada underground high nikon key dof bokeh naturallight save hero mines sudbury gasmask fullframe dust fx minerescue d700
license: 0
latitude: 46.419458
longitude: -81.139097
accuracy: 13
views: 107
interestingness: 77 out of 131

photo: 6436068355 e0e126372e 7005
owner: 24278791@N00
title: Respite
originalsecret: null
originalformat: null
o_height: null
o_width: null
datetaken: 2011-11-14 15:39:24
dateupload: 1322744818
tags: saved blur netherlands field yellow focus shoot bokeh voigtlander 14 first bos 58mm depth nokton amstelveen amsterdamse respite
license: 0
latitude: 52.298716
longitude: 4.842824
accuracy: 12
views: 77
interestingness: 78 out of 131

photo: 6467265547 3e641435a6 7033
owner: 63726021@N04
title: S?dra F?rstadsgatan, Malm?
originalsecret: 216f7c9113
originalformat: jpg
o_height: 3553
o_width: 5330
datetaken: 2011-12-03 18:24:18
dateupload: 1323197771
tags: christmas street xmas city decorations urban rain night canon lights sk?ne shadows sweden wideangle scandinavia malm? centrum shoppingstreet g?gatan s?draf?rstadsgatan
license: 0
latitude: 55.599327
longitude: 13.002277
accuracy: 13
views: 57
interestingness: 79 out of 131

photo: 6433898915 2ee4bd3f0e 7014
owner: 31484281@N06
title: Save on Meats.
originalsecret: null
originalformat: null
o_height: null
o_width: null
datetaken: 2011-11-29 11:36:19
dateupload: 1322703534
tags: blackandwhite bw canada film vancouver analog 35mm nikon britishcolumbia saveonmeats gastown ilforddelta3200 fm2n nikonfm2n
license: 0
latitude: 49.281811
longitude: -123.105669
accuracy: 15
views: 127
interestingness: 80 out of 131

photo: 6469680161 15600ea07c 7147
owner: 56459548@N08
title: Seascape 10
originalsecret: null
originalformat: null
o_height: null
o_width: null
datetaken: 2011-12-07 05:47:52
dateupload: 1323230558
tags: morning sea sun seascape beach nature water rock sunrise am rocks rise scape flickraward
license: 0
latitude: 26.331785
longitude: 50.227603
accuracy: 16
views: 75
interestingness: 81 out of 131

photo: 6459348757 02debf84d8 7013
owner: 63726021@N04
title: Swedish candy
originalsecret: 768fbab528
originalformat: jpg
o_height: 3744
o_width: 5616
datetaken: 2011-12-03 23:32:03
dateupload: 1323089100
tags: macro photography candy colors green chocolate daim godis sweets bokeh dof canon malm? sweden
license: 0
latitude: 55.60532
longitude: 13.004336
accuracy: 13
views: 82
interestingness: 82 out of 131

photo: 6442502767 8da7f047fd 7173
owner: 61583350@N06
title: Marghalla Hills
originalsecret: null
originalformat: null
o_height: null
o_width: null
datetaken: 2011-11-27 18:43:21
dateupload: 1322848058
tags: 
license: 0
latitude: 33.762737
longitude: 73.055992
accuracy: 11
views: 51
interestingness: 83 out of 131

photo: 6444309009 b9571fa439 7025
owner: 34467998@N03
title: Grand Central Terminal
originalsecret: f5996a9b06
originalformat: jpg
o_height: 3744
o_width: 5616
datetaken: 2011-12-02 04:14:21
dateupload: 1322875127
tags: nyc newyorkcity newyork delete10 delete9 delete5 delete2 delete6 save3 delete3 delete delete4 save save2 grandcentralstation grandcentral delete11 grandcentralterminal delete12
license: 4
latitude: 40.751621
longitude: -73.976526
accuracy: 15
views: 87
interestingness: 84 out of 131

photo: 6433448315 0d374329c7 7006
owner: 27869077@N05
title: Whirlwind
originalsecret: null
originalformat: null
o_height: null
o_width: null
datetaken: 2011-11-24 00:46:09
dateupload: 1322770389
tags: love happiness karma kindness understanding makinout soulpatrol turntheheatup viewminder decembercraziness christmasmojomagic thelovelock thinkinaboutthehorizontalhula
license: 0
latitude: 41.909136
longitude: -87.675683
accuracy: 15
views: 155
interestingness: 85 out of 131

photo: 6475715959 6174f36cab 7014
owner: 93119846@N00
title: 30 Days of Gratitude: Day 25... Lucky & Sox
originalsecret: null
originalformat: null
o_height: null
o_width: null
datetaken: 2011-12-07 23:35:14
dateupload: 1323329714
tags: cats cute love bed phonepic sweet brothers sox together lucky kawaii thankful sweetness gratitude kittys tabbys funnythat gratitudeproject windows7phone catbunkbed theyhardlyusetheirbunkbedtheyseemtoloveourbedmore
license: 0
latitude: 37.774106
longitude: -122.436447
accuracy: 11
views: 41
interestingness: 86 out of 131

photo: 6442608675 ec0690d64c 7148
owner: 63926429@N08
title: Glen Echo Amusement, 2011
originalsecret: null
originalformat: null
o_height: null
o_width: null
datetaken: 2011-08-28 17:06:56
dateupload: 1322849507
tags: park delete5 delete2 delete6 echo save3 delete3 save7 save8 delete delete4 save save2 glen save9 save4 save5 save10 save6 savedbythehotbox
license: 3
latitude: 38.965849
longitude: -77.138292
accuracy: 15
views: 107
interestingness: 87 out of 131

photo: 6470434415 6ae343f531 7168
owner: 25006582@N06
title: Western Hotel & Casino
originalsecret: null
originalformat: null
o_height: null
o_width: null
datetaken: 2011-12-05 20:27:27
dateupload: 1323244319
tags: old city vegas blue red sky orange white building classic film beautiful sign yellow analog 35mm canon vintage outside outdoors hotel downtown neon lasvegas kodak gorgeous nevada nick casino scan retro 35mmfilm signage western neonsign closing fremontstreet kodakmax400 closure 400asa expiredfilm canont70 kodakfilm colorfilm epson4490 westernhotelandcasino westerncasino westernhotel canonfilmcamera expired2005 nickleonard closingonjanuary162012
license: 0
latitude: 36.167358
longitude: -115.136169
accuracy: 15
views: 58
interestingness: 88 out of 131

photo: 6466529459 86b4cbe84a 7163
owner: 56459548@N08
title: Bulbul 11
originalsecret: null
originalformat: null
o_height: null
o_width: null
datetaken: 2011-12-06 14:57:10
dateupload: 1323188777
tags: trees tree green bird nature birds fly bulbul
license: 0
latitude: 26.298171
longitude: 50.106947
accuracy: 16
views: 21
interestingness: 89 out of 131

photo: 6450740883 5f7639503f 7035
owner: 42256981@N04
title: Walsall Corporation: 102 RDH102F 1968 Daimler Fleetline CRG6LX Northern Counties H70D in Walsall Bus Station
originalsecret: 46753fc2da
originalformat: jpg
o_height: 1294
o_width: 2005
datetaken: 1969-11-01 00:00:00
dateupload: 1322975466
tags: bus busstation daimler fleetline northerncounties walsallcorporation crg6lx shortfleetline
license: 0
latitude: 52.586233
longitude: -1.98374
accuracy: 15
views: 70
interestingness: 90 out of 131

photo: 6437744413 cf9c7b9bb7 7033
owner: 46833691@N05
title: Flood lines Two
originalsecret: ce500c43d9
originalformat: jpg
o_height: 1226
o_width: 1754
datetaken: 2011-12-01 16:41:58
dateupload: 1322768617
tags: delete10 delete9 delete5 delete2 delete6 delete7 save3 delete8 delete3 delete delete4 save save2 save4 deletedbydeletemeuncensored
license: 0
latitude: 55.06672
longitude: -3.613185
accuracy: 13
views: 75
interestingness: 91 out of 131

photo: 6479424255 73edb1d3e7 7146
owner: 11677434@N04
title: when the night meets day
originalsecret: 5b1e857b2c
originalformat: jpg
o_height: 2848
o_width: 2848
datetaken: 2011-12-05 08:05:59
dateupload: 1323391045
tags: delete2 save3 delete3 delete delete4 save save2 save4 save5 nightandday
license: 5
latitude: 51.473791
longitude: 0.177111
accuracy: 13
views: 52
interestingness: 92 out of 131

photo: 6460114989 590155dc5c 7030
owner: 56459548@N08
title: Hidden
originalsecret: null
originalformat: null
o_height: null
o_width: null
datetaken: 2011-12-05 16:26:31
dateupload: 1323099048
tags: macro bird nature birds fly small hidden flickraward
license: 0
latitude: 26.297555
longitude: 50.107208
accuracy: 16
views: 36
interestingness: 93 out of 131

photo: 6470426977 0285470f01 7022
owner: 25006582@N06
title: Western Hotel & Casino
originalsecret: null
originalformat: null
o_height: null
o_width: null
datetaken: 2011-12-02 00:48:41
dateupload: 1323244157
tags: old city vegas blue windows sky white building classic film architecture analog 35mm canon vintage outside outdoors hotel downtown rooms lasvegas kodak nevada nick casino scan retro sidewalk 35mmfilm western closing fremontstreet kodakmax400 airconditioners closure hotelrooms 400asa parkingmeters expiredfilm canont70 kodakfilm colorfilm epson4490 westernhotelandcasino westerncasino westernhotel canonfilmcamera expired2005 nickleonard closingonjanuary162012
license: 0
latitude: 36.167358
longitude: -115.136169
accuracy: 15
views: 40
interestingness: 94 out of 131

photo: 6442072981 328a895fa4 7031
owner: 23964765@N08
title: Save our Sea Pool, Bude, Cornwall
originalsecret: 5848cbde10
originalformat: jpg
o_height: 1098
o_width: 2000
datetaken: 2011-11-30 09:16:46
dateupload: 1322842398
tags: cornwall waves atlantic bude seapool
license: 0
latitude: 50.837492
longitude: -4.558296
accuracy: 13
views: 44
interestingness: 95 out of 131

photo: 6440013099 99bd6b741d 7028
owner: 68971232@N08
title: Marlin, Bear Seamount 200 miles SE of Nantucket
originalsecret: null
originalformat: null
o_height: null
o_width: null
datetaken: 2011-06-19 00:35:11
dateupload: 1322802590
tags: delete10 delete9 delete5 delete2 delete6 delete7 delete8 delete3 delete delete4 save save2 marlin deletedbythehotbox davensuze3
license: 0
latitude: 39.892879
longitude: -66.818847
accuracy: 5
views: 65
interestingness: 96 out of 131

photo: 6458459595 0a3dfe360d 7030
owner: 49371519@N02
title: More 2011 Fall Colors #1
originalsecret: 0e5b1cfbdc
originalformat: jpg
o_height: 768
o_width: 1024
datetaken: 2011-11-21 16:23:09
dateupload: 1323072592
tags: california travel autumn sunset red orange usa green fall catchycolors photography nikon fallcolors fallfoliage coolpix handheld sacramento pointshoot warmlight compactcamera 2011 p7000 nxtrfoto nextierphotography topazlenseffects
license: 0
latitude: 38.615914
longitude: -121.520934
accuracy: 15
views: 68
interestingness: 97 out of 131

photo: 6436009819 23c9902f68 7032
owner: 12097621@N00
title: Saint Francis Xavier
originalsecret: 74f22dde11
originalformat: jpg
o_height: 2029
o_width: 2536
datetaken: 2011-10-15 14:58:46
dateupload: 1322743767
tags: light church lines delete10 delete9 delete5 delete2 delete6 delete7 save3 delete8 delete3 save7 stainedglass save8 delete delete4 save save2 ceiling save9 save4 save5 xavier save6 deletedbydeletemeuncensored xavierchruch
license: 2
latitude: 38.637091
longitude: -90.233298
accuracy: 16
views: 104
interestingness: 98 out of 131

photo: 6477282891 01d3db6fa6 7010
owner: 63726021@N04
title: Are you thirsty?
originalsecret: 891c582760
originalformat: jpg
o_height: 3744
o_width: 5616
datetaken: 2011-12-05 12:50:51
dateupload: 1323360008
tags: street city urban blackandwhite art cars colors yellow canon poster sk?ne europe december traffic sweden ad wideangle advertisement malm? babel sk?netrafiken selectivecolors v?rnhemstorget filtercutout
license: 0
latitude: 55.605514
longitude: 13.008285
accuracy: 13
views: 62
interestingness: 99 out of 131

photo: 6466685889 fb952caaee 7167
owner: 23892830@N04
title: Escarabajo Grande!
originalsecret: null
originalformat: null
o_height: null
o_width: null
datetaken: 2011-10-16 12:46:00
dateupload: 1323190692
tags: detail macro nature closeup insect mexico beetle baja bajacaliforniasur loreto clickbeetle southoftheborder arthropod elateridae bigbeetle villadelpalmar bigassbug ensenadablanca villadelpalmarresort zoniedude1 ?amom?xico earthcreatures exotictravels canonpowershotg11 earthnaturelife wherethedesertmeetsthesea bajaadventure2011 bah?adeloreto escarabajogrande notsowelcomeguest crawlycritter ampedusspp
license: 0
latitude: 25.716559
longitude: -111.23125
accuracy: 16
views: 34
interestingness: 100 out of 131

photo: 6460802779 fdaa6c8fa2 7021
owner: 55625751@N04
title: Pointless color
originalsecret: null
originalformat: null
o_height: null
o_width: null
datetaken: 2011-12-05 09:36:28
dateupload: 1323106588
tags: delete10 delete9 delete5 delete2 delete6 delete7 delete8 delete3 delete delete4 save delete11 delete12 deletedbythehotboxuncensoredgroup
license: 6
latitude: 41.890202
longitude: 12.492527
accuracy: 16
views: 62
interestingness: 101 out of 131

photo: 6473993873 ea7633bf3c 7002
owner: 68061227@N00
title: 343/365: Cute Baby
originalsecret: 985326a45f
originalformat: jpg
o_height: 6048
o_width: 4032
datetaken: 2011-11-19 17:13:20
dateupload: 1323299427
tags: 
license: 1
latitude: 53.560016
longitude: 9.989211
accuracy: 15
views: 46
interestingness: 102 out of 131

photo: 6440022529 4abce51377 7009
owner: 54422883@N05
title: Lucky Meadow
originalsecret: null
originalformat: null
o_height: null
o_width: null
datetaken: 2011-05-19 15:25:51
dateupload: 1322802760
tags: black nikon raw 1635mmf4gvr blinkagain
license: 0
latitude: 55.769602
longitude: 12.472593
accuracy: 15
views: 58
interestingness: 103 out of 131

photo: 6470428487 45641df1ef 7021
owner: 25006582@N06
title: Western Hotel & Casino
originalsecret: null
originalformat: null
o_height: null
o_width: null
datetaken: 2011-12-05 20:21:47
dateupload: 1323244191
tags: old city vegas blue sky classic film sign analog 35mm canon vintage outside outdoors lights hotel peeling downtown neon lasvegas kodak streetlights parking nevada nick casino scan retro 35mmfilm signage western neonsign lightpoles closing fremontstreet kodakmax400 closure 400asa expiredfilm canont70 kodakfilm colorfilm epson4490 westernhotelandcasino westerncasino westernhotel canonfilmcamera parkinglotsign expired2005 nickleonard closingonjanuary162012
license: 0
latitude: 36.167358
longitude: -115.136169
accuracy: 15
views: 36
interestingness: 104 out of 131

photo: 6466728939 733dc23194 7152
owner: 38745062@N02
title: 16-bits vs. 8-bits - a Photoshop Tutorial
originalsecret: null
originalformat: null
o_height: null
o_width: null
datetaken: 2011-12-06 10:03:47
dateupload: 1323169640
tags: photoshop tutorial anseladams 16bit cameraraw photoshoptutorial rawfiles 16bits thetetonssnakeriver
license: 0
latitude: 43.754008
longitude: -110.623451
accuracy: 16
views: 44
interestingness: 105 out of 131

photo: 6460984099 2767008f52 7020
owner: 30711379@N07
title: Reflective puddle of Packard Graffiti
originalsecret: 4155719f22
originalformat: jpg
o_height: 2160
o_width: 3248
datetaken: 2011-11-25 12:07:12
dateupload: 1323108589
tags: wood november light shadow urban color reflection art fall abandoned water digital fun puddle graffiti artwork midwest decay michigan detroit panasonic adventure jesussaves gravel packardplant 313 motown motorcity 2011
license: 0
latitude: 42.365139
longitude: -83.044538
accuracy: 13
views: 36
interestingness: 106 out of 131

photo: 6451789987 383d38842e 7165
owner: 45674358@N07
title: 57th De Colores
originalsecret: 62e15d7272
originalformat: jpg
o_height: 577
o_width: 864
datetaken: 2011-12-04 09:45:43
dateupload: 1322994774
tags: autumn red nature christianity mygearandme
license: 0
latitude: 37.545589
longitude: 127.00147
accuracy: 16
views: 63
interestingness: 107 out of 131

photo: 6469633643 484ee4f577 7147
owner: 7344083@N05
title: Feeling Lofty
originalsecret: null
originalformat: null
o_height: null
o_width: null
datetaken: 2011-12-03 22:05:35
dateupload: 1323229838
tags: nyc newyorkcity sign delete10 night delete9 delete5 lights delete2 nikon delete6 delete7 manhattan wave delete8 delete3 delete delete4 save save2 timessquare delete11 f28 highiso theloft iso1250 150mm sigma150mmf28macro hpexif 0002sec d700
license: 0
latitude: 40.754613
longitude: -73.987337
accuracy: 16
views: 58
interestingness: 108 out of 131

photo: 6470683383 7cdd98e93a 7016
owner: 34525698@N00
title: THE BATTLESHIP USS NORTH CAROLINA
originalsecret: null
originalformat: null
o_height: null
o_width: null
datetaken: 2011-12-07 04:23:33
dateupload: 1323249813
tags: history monument water river nc wwii northcarolina historic battleship wilmington usnavy usn retirement warship capefearriver 0474
license: 0
latitude: 34.235789
longitude: -77.953491
accuracy: 11
views: 60
interestingness: 109 out of 131

photo: 6462126759 5d2d628b9f 7163
owner: 19646481@N06
title: Sometimes,,,,,,,,,
originalsecret: 257d929d85
originalformat: jpg
o_height: 2390
o_width: 3542
datetaken: 2011-12-05 16:40:56
dateupload: 1323121256
tags: pink bw flower apple blossom petal stamen bloom precise selectcolor presission
license: 4
latitude: 42.575095
longitude: -84.44365
accuracy: 14
views: 36
interestingness: 110 out of 131

photo: 6454142717 af46c12cbd 7141
owner: 7693310@N04
title: Jesus Saves
originalsecret: null
originalformat: null
o_height: null
o_width: null
datetaken: 2011-11-28 12:03:36
dateupload: 1323023393
tags: california wood old blackandwhite abandoned route66 rocks desert watertower jesussaves shrub ladelta thingsthatremindmeofasteinbecknovel
license: 0
latitude: 34.6406
longitude: -117.345153
accuracy: 16
views: 35
interestingness: 111 out of 131

photo: 6448980781 020fe30d61 7142
owner: 31746161@N04
title: Stepping Stones
originalsecret: b5a4d9afe8
originalformat: jpg
o_height: 1333
o_width: 2000
datetaken: 2011-12-03 22:15:39
dateupload: 1322950539
tags: longexposure sea clouds rocks time kimmeridgedorsetengland
license: 0
latitude: 50.611785
longitude: -2.132377
accuracy: 11
views: 38
interestingness: 112 out of 131

photo: 6435083075 b99fb1838b 7143
owner: 28731195@N08
title: Santa Says, "Please, Help Save Polar Bears!"
originalsecret: null
originalformat: null
o_height: null
o_width: null
datetaken: 2011-11-29 19:58:35
dateupload: 1322722948
tags: santa christmas winter tree photography lights photo beads nikon photographer image bears photograph presents bulbs polarbears copyrightimage pleasesignthepetition handpaintedornament taniasimpson helpsavepolarbears tistheseasontogivetothepolarbears
license: 0
latitude: 49.764634
longitude: -119.756469
accuracy: 10
views: 49
interestingness: 113 out of 131

photo: 6464109235 f1b5127f4a 7156
owner: 65802182@N00
title: Daily App Experiment #326 "Sticks & Stones"
originalsecret: 3fcf40c59b
originalformat: jpg
o_height: 2448
o_width: 2448
datetaken: 2011-12-05 19:56:17
dateupload: 1323147294
tags: girl mystery square redhead squareformat mohawk normal unionsquare iphoneography instagramapp uploaded:by=instagram foursquare:venue=40bbc700f964a520b1001fe3 instawalksf unionsquarewalk
license: 2
latitude: 37.787894
longitude: -122.407479
accuracy: 16
views: 57
interestingness: 114 out of 131

photo: 6433529957 28444c1cd5 7033
owner: 11677434@N04
title: Hot thinking
originalsecret: 86fa98fded
originalformat: jpg
o_height: 2190
o_width: 2190
datetaken: 2009-12-05 22:46:47
dateupload: 1322697999
tags: saved hot lava deleted7 deleted9 deleted6 deleted3 deleted2 deleted4 deleted10 angry devil deleted5 deleted deleted8 gintare redhotchilli vulcaninc lavahead
license: 5
latitude: 51.469033
longitude: 0.097997
accuracy: 14
views: 64
interestingness: 115 out of 131

photo: 6470430711 b9bde50a2b 7144
owner: 25006582@N06
title: Western Hotel & Casino
originalsecret: null
originalformat: null
o_height: null
o_width: null
datetaken: 2011-12-05 20:52:27
dateupload: 1323244236
tags: old city vegas blue red sky orange white classic film beautiful sign yellow clouds analog 35mm canon vintage outside outdoors gold hotel downtown neon lasvegas kodak gorgeous nevada nick casino scan retro 35mmfilm signage western bulbs neonsign closing cocktails fremontstreet bingo kodakmax400 closure 400asa 24hours expiredfilm canont70 kodakfilm colorfilm epson4490 westernhotelandcasino westerncasino westernhotel canonfilmcamera expired2005 nickleonard werelooserthanourneighbors winmorehere downtownsloosestslots closingonjanuary162012
license: 0
latitude: 36.167358
longitude: -115.136169
accuracy: 15
views: 61
interestingness: 116 out of 131

photo: 6480657249 4292e539eb 7154
owner: 26336624@N07
title: The golden sunset
originalsecret: null
originalformat: null
o_height: null
o_width: null
datetaken: 2011-09-10 18:41:33
dateupload: 1323414091
tags: california sunset landscape sony goldensunset savetheearth suvghoshphotography sonyhx9v suvrangshughoshphography sunsetatmountdiablo
license: 0
latitude: 37.837987
longitude: -121.967124
accuracy: 16
views: 20
interestingness: 117 out of 131

photo: 6470463337 d08841d86b 7175
owner: 81147047@N00
title: A Galaxy Far Far Away
originalsecret: null
originalformat: null
o_height: null
o_width: null
datetaken: 2009-08-11 22:33:06
dateupload: 1323244965
tags: world moon photoshop stars landscape volcano starwars spain rocks space alien dream surreal lanzarote galaxy fantasy nebula crater montage photoediting planet layer layers sciencefiction editing transparent universe desolate canaryislands cosmos hdr stardust anotherworld topaz puertodelcarmen alienworld montanacuervo topazadjust
license: 0
latitude: 29.001684
longitude: -13.688192
accuracy: 13
views: 128
interestingness: 118 out of 131

photo: 6480385033 19b32c0214 7012
owner: 22195068@N04
title: Series:  Christiana Christmas
originalsecret: 3db26921ae
originalformat: jpg
o_height: 3850
o_width: 2567
datetaken: 2009-12-23 18:56:49
dateupload: 1323437968
tags: christmas portrait woman holiday girl beautiful beauty fashion lady female pose asian glasses model pretty chinese lifestyle style linda belle theme em hermosa manis maganda cantik gadis ?? ??p cewek ???? xinh ????? ?????? g?i? ????? ?c?
license: 0
latitude: 47.620642
longitude: -122.350552
accuracy: 15
views: 116
interestingness: 119 out of 131

photo: 6439308277 f23dfba1d9 7031
owner: 8609138@N03
title: On a train - Sri Lanka
originalsecret: null
originalformat: null
o_height: null
o_width: null
datetaken: 2011-04-29 10:31:22
dateupload: 1322790599
tags: portrait woman retrato mulher srilanka bwblackandwhite ?nikonflickraward?
license: 0
latitude: 6.058623
longitude: 80.220703
accuracy: 7
views: 43
interestingness: 120 out of 131

photo: 6480529399 8fd3ea4d2d 7173
owner: 56459548@N08
title: Heron 7
originalsecret: null
originalformat: null
o_height: null
o_width: null
datetaken: 2011-12-09 07:41:40
dateupload: 1323411132
tags: sea bird beach heron birds fly long herons khobar flickraward
license: 0
latitude: 26.332153
longitude: 50.226788
accuracy: 15
views: 33
interestingness: 121 out of 131

photo: 6469029371 1f8c0ea1a5 7147
owner: 75221980@N00
title: Serenade
originalsecret: 1222b3253a
originalformat: jpg
o_height: 675
o_width: 1200
datetaken: 2011-12-04 07:01:46
dateupload: 1323220788
tags: morning autumn beach landscape nc waves waterfront fortfisher wilmingtonnc coquina d700 coquinarock distagon1835zf
license: 0
latitude: 33.974399
longitude: -77.913537
accuracy: 16
views: 33
interestingness: 122 out of 131

photo: 6480819087 fcb032a0a1 7144
owner: 81147047@N00
title: DLR Train Tunnel Express
originalsecret: null
originalformat: null
o_height: null
o_width: null
datetaken: 2011-11-29 16:31:24
dateupload: 1323417838
tags: pictures street uk england urban motion blur color colour london glass station underground concrete photography lights photo office movement colours photos britain sony capital transport tube perspective tracks picture cities cityscapes sigma rail wideangle tunnel pic structure transportation londres docklands canarywharf dlr hdr highdynamicrange shutterspeed docklandslightrailway photomatix tonemapped dslra700
license: 0
latitude: 51.487155
longitude: -0.009441
accuracy: 13
views: 42
interestingness: 123 out of 131

photo: 6460105237 028a052659 7173
owner: 56459548@N08
title: Yellow Flower
originalsecret: null
originalformat: null
o_height: null
o_width: null
datetaken: 2011-12-05 16:04:28
dateupload: 1323098937
tags: flowers white flower macro green nature yellow
license: 0
latitude: 26.297555
longitude: 50.107208
accuracy: 16
views: 47
interestingness: 124 out of 131

photo: 6438526673 db67d76247 7152
owner: 20802739@N03
title: "Neon Savior"
originalsecret: null
originalformat: null
o_height: null
o_width: null
datetaken: 2011-11-26 12:46:30
dateupload: 1322778703
tags: nyc newyorkcity sky eastvillage ny newyork sign canon 50mm neon village cross manhattan religion jesus christian lookingup fireescape christianity jesussaves saves greenwichvillage alphabetcity canonef50mmf18ii 40d canoneos40d
license: 0
latitude: 40.72764
longitude: -73.979744
accuracy: 15
views: 42
interestingness: 125 out of 131

photo: 6471053703 d7b0bdd9b6 7147
owner: 21551017@N04
title: House at Howth
originalsecret: null
originalformat: null
o_height: null
o_width: null
datetaken: 2011-11-25 16:12:27
dateupload: 1323257806
tags: 
license: 0
latitude: 53.364722
longitude: -6.059167
accuracy: 16
views: 26
interestingness: 126 out of 131

photo: 6468395067 d22a6da737 7142
owner: 46007633@N08
title: Day Nine
originalsecret: null
originalformat: null
o_height: null
o_width: null
datetaken: 2011-12-06 13:03:48
dateupload: 1323211535
tags: christmas selfportrait green kitchen gnome tea christmastree apron wreath redhat gnomes tomte gnomo nisse knome 365days
license: 0
latitude: 61.186286
longitude: -149.84991
accuracy: 11
views: 52
interestingness: 127 out of 131

photo: 6438173067 32ddced7fd 7150
owner: 28864494@N02
title: Weir
originalsecret: null
originalformat: null
o_height: null
o_width: null
datetaken: 2011-11-30 13:38:30
dateupload: 1322774136
tags: longexposure trees sky water lee filters warwickshire stratforduponavon weir riveravon 10stop
license: 0
latitude: 52.180523
longitude: -1.711399
accuracy: 14
views: 21
interestingness: 128 out of 131

photo: 6451745085 688e7ba349 7149
owner: 68061227@N00
title: 339/365 Leave me until SNOWING
originalsecret: dbc65d7d08
originalformat: jpg
o_height: 467
o_width: 700
datetaken: 2011-11-27 20:40:55
dateupload: 1322993964
tags: 
license: 1
latitude: 53.551052
longitude: 9.998738
accuracy: 16
views: 38
interestingness: 129 out of 131

photo: 6470392723 bce27bf45e 7153
owner: 55081733@N07
title: Ana Watani - Watani Ana
originalsecret: null
originalformat: null
o_height: null
o_width: null
datetaken: 2011-12-02 22:54:21
dateupload: 1323243404
tags: delete10 delete9 delete5 delete2 delete6 delete7 eid delete8 delete3 delete delete4 save save2 abudhabi unitedarabemirates ???????? sheikhzayed emirati ??? egal ???? ??????? qutra ?????????????????????? ?????? ??????? deletedbydeletemeuncensored ???????????????? nationaldayuae40
license: 0
latitude: 24.46881
longitude: 54.3437
accuracy: 14
views: 35
interestingness: 130 out of 131

photo: 6464790401 bbef4b842e 7159
owner: 49371519@N02
title: More 2011 Fall Colors #2
originalsecret: 785b7172b1
originalformat: jpg
o_height: 768
o_width: 1024
datetaken: 2011-11-21 16:26:58
dateupload: 1323159664
tags: california travel autumn sunset red usa green fall yellow catchycolors photography nikon fallcolors fallfoliage coolpix handheld sacramento pointshoot warmlight compactcamera 2011 p7000 nxtrfoto nextierphotography topazlenseffects
license: 0
latitude: 38.616007
longitude: -121.520333
accuracy: 15
views: 31
interestingness: 131 out of 131

photo: 6477641159 3a1f2a9059 7155
owner: 71978960@N00
title: Frozen in time
originalsecret: null
originalformat: null
o_height: null
o_width: null
datetaken: 2011-11-24 13:16:28
dateupload: 1323364944
tags: thanksgiving city longexposure chicago cold girl standing frozen illinois iceskating icerink
license: 0
latitude: 41.881831
longitude: -87.622146
accuracy: 11
views: 14
interestingness: 132 out of 131

photo: 6463152049 7199bbc5b0 7164
owner: 73029069@N00
title: Harry Truman Cadillac Limousine
originalsecret: null
originalformat: null
o_height: null
o_width: null
datetaken: 2011-12-05 20:21:42
dateupload: 1323134502
tags: harry cadillac limousine truman
license: 0
latitude: 38.897779
longitude: -77.036476
accuracy: 14
views: 52
interestingness: 133 out of 131

photo: 6439895723 804520252d 7143
owner: 37871041@N02
title: [?] How to win a Photography Competition
originalsecret: null
originalformat: null
o_height: null
o_width: null
datetaken: 2011-09-16 06:03:30
dateupload: 1322800383
tags: international loupe awards insults professional editing clean photography panasonic gh2 canon fd lens 28mm f28 andy kaufman tony clifton win corrupt masters ford shelby cobra gt500 fake shonks unprofessional loopy westway
license: 0
latitude: -34.00749
longitude: 151.191959
accuracy: 13
views: 90
interestingness: 134 out of 131

photo: 6472682671 59d38a6412 7016
owner: 55370236@N07
title: Dec 07, 2011 [Day 037)
originalsecret: ab8c19f44d
originalformat: jpg
o_height: 1920
o_width: 2560
datetaken: 2011-12-07 10:15:00
dateupload: 1323282060
tags: christmas holiday holidays december sony cybershot decorating year2 christmasdecorating dscf717 366 2011 sonycybershotdscf717 christmasideas jamesseattle james?decoratingtips howtosavemoneyonholidaydecorating decoratingyourwalls
license: 0
latitude: 47.677177
longitude: -122.202472
accuracy: 13
views: 38
interestingness: 135 out of 131

photo: 6458859865 2fa09da8fb 7155
owner: 42038165@N02
title: Brioude - Saint-Julien
originalsecret: 3b848ac787
originalformat: jpg
o_height: 1536
o_width: 2048
datetaken: 2011-04-01 00:00:00
dateupload: 1323080463
tags: france lion allier romanesque doorhandle auvergne doorknocker 43 brioude hauteloire saintjulien plinius craplet eurich victorius romanauvergnat gregoryoftours guillaumelepieux williamthepious
license: 0
latitude: 45.293618
longitude: 3.38455
accuracy: 16
views: 18
interestingness: 136 out of 131

photo: 6458692919 447262013b 7031
owner: 25857074@N03
title: UNHCR News Story: World AIDS Day: Love helps Colombian couple overcome discrimination
originalsecret: null
originalformat: null
o_height: null
o_width: null
datetaken: 2011-12-02 18:04:36
dateupload: 1323077188
tags: poverty christmas news love latinamerica southamerica support couple colombia hiv worldaidsday refugees shaddow help aid health care shelter awareness humanrights information protection stigma assistance integration unhcr hivaids discrimination persecution displacement newsstory cucuta advocacy stigmatization medicaltreatment unrefugeeagency ant?nioguterres unhighcommissionerforrefugees highcommissionerforrefugees forciblydisplaced nortedesantanderdepartment hoasisfoundation recolvi thecolombiannetworkofhivaidspositivepeople personofconcern socialprotetionbenefice theprovidafoundation
license: 0
latitude: 7.88103
longitude: -72.51892
accuracy: 11
views: 64
interestingness: 137 out of 131

photo: 6455563829 ef3c189c52 7146
owner: 68061227@N00
title: 340/365: The Bridge
originalsecret: 2fa0ff9b8c
originalformat: jpg
o_height: 467
o_width: 700
datetaken: 2011-12-04 18:45:37
dateupload: 1323037274
tags: 
license: 1
latitude: 53.524741
longitude: 9.930025
accuracy: 13
views: 57
interestingness: 138 out of 131

photo: 6447026419 ef90d2d2c4 7149
owner: 91903730@N00
title: Downhill House
originalsecret: f50136ac6f
originalformat: jpg
o_height: 520
o_width: 800
datetaken: 2011-08-18 17:44:34
dateupload: 1322926358
tags: house castle estate north downhill londonderry northernireland derry castlerock
license: 0
latitude: 55.165264
longitude: -6.806674
accuracy: 13
views: 30
interestingness: 139 out of 131

photo: 6471610925 879a8b63a3 7145
owner: 64232630@N00
title: Please Don't Do Stupid Shit.
originalsecret: 85f5c3afd2
originalformat: jpg
o_height: 3000
o_width: 4000
datetaken: 2011-11-25 14:55:47
dateupload: 1323267407
tags: california wood urban usa yellow america la words losangeles downtown unitedstates cityhall text political letters protest demonstration socal 99 shit stupid downtownla protests 99percent occupation ows occupy occupywallstreet occupyla occupylosangeles ninetyninepercent s6100100dscn0709
license: 3
latitude: 34.05325
longitude: -118.243172
accuracy: 16
views: 60
interestingness: 140 out of 131

photo: 6464361325 eda9dd555c 7008
owner: 46621910@N02
title: 365 day 46 | Saving the ducks
originalsecret: 1f2eccfe20
originalformat: jpg
o_height: 1724
o_width: 2500
datetaken: 2011-12-06 16:23:04
dateupload: 1323151495
tags: lumix duck toilet 365 gh2
license: 0
latitude: -43.483348
longitude: 172.619504
accuracy: 13
views: 256
interestingness: 141 out of 131

photo: 6448280945 8d59e6c483 7002
owner: 9745487@N02
title: how many movie titles?
originalsecret: null
originalformat: null
o_height: null
o_width: null
datetaken: 2011-09-24 17:12:01
dateupload: 1322941754
tags: plaza abstract architecture mall movie budapest title titles allee
license: 0
latitude: 47.475189
longitude: 19.04822
accuracy: 16
views: 83
interestingness: 142 out of 131

photo: 6440404111 fda7334785 7015
owner: 8790585@N02
title: Kirkjufell II - Sunkissed Tip
originalsecret: null
originalformat: null
o_height: null
o_width: null
datetaken: 2011-11-26 11:48:42
dateupload: 1322810470
tags: mountain snow iceland kirkjufell sn?fellsnes snj?r grundarfj?r?ur 2011 fjall
license: 0
latitude: 64.960039
longitude: -23.356933
accuracy: 10
views: 21
interestingness: 143 out of 131

photo: 6433898741 cd608b0db7 7006
owner: 31484281@N06
title: Save on Meats.
originalsecret: null
originalformat: null
o_height: null
o_width: null
datetaken: 2011-11-29 11:36:13
dateupload: 1322703531
tags: blackandwhite bw canada film vancouver analog 35mm nikon britishcolumbia saveonmeats gastown ilforddelta3200 fm2n nikonfm2n
license: 0
latitude: 49.281895
longitude: -123.105733
accuracy: 15
views: 136
interestingness: 144 out of 131

photo: 6472544941 ea53e6bc18 7148
owner: 61440293@N06
title: Typhoon shelter
originalsecret: e128f53486
originalformat: jpg
o_height: 1005
o_width: 1496
datetaken: 2003-01-01 00:00:00
dateupload: 1323279561
tags: village hill tsunami tribe shelter typhoon solomonislands bellona
license: 0
latitude: -11.285029
longitude: 159.777631
accuracy: 11
views: 22
interestingness: 145 out of 131

photo: 6450625695 23b2c4ae31 7017
owner: 32416764@N00
title: Save the bay
originalsecret: null
originalformat: null
o_height: null
o_width: null
datetaken: 2011-12-03 23:42:14
dateupload: 1322973734
tags: chesapeakebay stormdrains
license: 0
latitude: 39.569101
longitude: -76.989719
accuracy: 15
views: 23
interestingness: 146 out of 131

photo: 6470427685 f8b1c19366 7157
owner: 25006582@N06
title: Western Hotel & Casino
originalsecret: null
originalformat: null
o_height: null
o_width: null
datetaken: 2011-12-05 21:00:38
dateupload: 1323244173
tags: old city vegas blue red sky white money detail classic film sign yellow closeup analog 35mm canon vintage outside outdoors hotel downtown neon lasvegas kodak nevada nick casino scan retro 35mmfilm signage western neonsign lettering closing cocktails fremontstreet bingo fonts kodakmax400 lightpole closure 400asa 24hours expiredfilm canont70 kodakfilm colorfilm epson4490 westernhotelandcasino westerncasino westernhotel canonfilmcamera expired2005 nickleonard werelooserthanourneighbors winmorehere downtownsloosestslots closingonjanuary162012 coorsdraft
license: 0
latitude: 36.167358
longitude: -115.136169
accuracy: 15
views: 35
interestingness: 147 out of 131

photo: 6446029173 a1e1824313 7020
owner: 26914671@N08
title: ...here we go...para o sal?o novamente...
originalsecret: null
originalformat: null
o_height: null
o_width: null
datetaken: 2011-12-03 08:56:12
dateupload: 1322909772
tags: 
license: 0
latitude: -23.574489
longitude: -46.688289
accuracy: 14
views: 45
interestingness: 148 out of 131

photo: 6471079927 d55795d187 7167
owner: 20079587@N00
title: Hawaii , caldeira de l'Haleakala , Maui island ...
originalsecret: 3794603455
originalformat: jpg
o_height: 1555
o_width: 2590
datetaken: 2006-08-07 19:47:12
dateupload: 1323258358
tags: 
license: 0
latitude: 20.76913
longitude: -156.242858
accuracy: 7
views: 31
interestingness: 149 out of 131

photo: 6471320523 b2c164bb10 7015
owner: 25857074@N03
title: UNHCR News Story: Landmark UNHCR conference opens with appeal for the world's forcibly displaced, stateless
originalsecret: null
originalformat: null
o_height: null
o_width: null
datetaken: 2011-12-07 10:48:25
dateupload: 1323262968
tags: news switzerland europe peace geneva refugees security un help aid worldwarii information protection climatechange unhcr displacement newsstory asylumseekers idps migrants emergencies naturaldisasters sexualviolence stateless hillaryrodhamclinton palaisdesnations internallydisplacedpeople ussecretaryofstate genderbasedviolence forceddisplacement internallydisplaced unrefugeeagency unitedstatessecretaryofstate ant?nioguterres unhighcommissionerforrefugees highcommissionerforrefugees the1951unrefugeeconvention protracteddisplacement theconventiononthereductionofstatelessness politicalcrises miniterialmeeting therefugeeconvention theunconventionrelatingtothestatusofrefugees
license: 0
latitude: 46.208351
longitude: 6.1427
accuracy: 11
views: 65
interestingness: 150 out of 131

photo: 6433898855 784f5f371c 7148
owner: 31484281@N06
title: Save on Meats.
originalsecret: null
originalformat: null
o_height: null
o_width: null
datetaken: 2011-11-29 11:36:19
dateupload: 1322703533
tags: blackandwhite bw canada film vancouver analog 35mm nikon britishcolumbia saveonmeats gastown ilforddelta3200 fm2n nikonfm2n
license: 0
latitude: 49.281818
longitude: -123.105626
accuracy: 15
views: 124
interestingness: 151 out of 131

photo: 6459281979 87125fc68d 7171
owner: 25854373@N03
title: The Dungeon
originalsecret: ddda6291e8
originalformat: jpg
o_height: 5173
o_width: 3443
datetaken: 2011-12-03 15:25:54
dateupload: 1323090196
tags: usa newyork abandoned hospital unitedstates urbanexploration asylum hdr institution urbex letchworthvillage photomatix thiells physicallyandmentallydisabled residentialinstitution
license: 0
latitude: 41.216713
longitude: -74.021731
accuracy: 16
views: 64
interestingness: 152 out of 131

photo: 6480529913 46472c502c 7161
owner: 56459548@N08
title: Heron 6
originalsecret: null
originalformat: null
o_height: null
o_width: null
datetaken: 2011-12-09 07:41:41
dateupload: 1323411143
tags: sea bird beach heron birds fly long herons khobar
license: 0
latitude: 26.332153
longitude: 50.226788
accuracy: 15
views: 21
interestingness: 153 out of 131

photo: 6470426595 616893305d 7033
owner: 94102979@N00
title: Sheikh Lotf Allah Mosque
originalsecret: dafd6197db
originalformat: jpg
o_height: 640
o_width: 960
datetaken: 2011-11-06 10:46:27
dateupload: 1323244148
tags: blue light people iran interior middleeast mosque tourists ceiling tiles iranian esfahan d300s catalinmarin momentaryawecom sheikhlotfmosque
license: 0
latitude: 32.65746
longitude: 51.678732
accuracy: 16
views: 25
interestingness: 154 out of 131

photo: 6460794551 316d8e4c0d 7175
owner: 47642109@N04
title: Wont be on flickr until January
originalsecret: ba22dc9c9c
originalformat: jpg
o_height: 2448
o_width: 3264
datetaken: 2011-11-25 12:05:05
dateupload: 1323106499
tags: flickrandroidapp:filter=none
license: 1
latitude: 53.840644
longitude: -1.519967
accuracy: 16
views: 20
interestingness: 155 out of 131

photo: 6450030671 ba8a47e58b 7005
owner: 17510449@N07
title: Kirsten Letourneari from Tecumseh, KS with Shawnee Heights High School
originalsecret: null
originalformat: null
o_height: null
o_width: null
datetaken: 2011-11-20 23:24:47
dateupload: 1322965048
tags: christmas family school trees people mountain newyork green art home water nova animal glitter kids trash stars religious washington community war paint peace kentucky space flag unitedstatesofamerica group cancer conservation diversity astronaut felt save aliens nasa clean explore health environment leader twintowers express olympic agriculture racism elementary planting abuse humans equality global facebook discover intolerance saturnvrocket presidentobama internationalfibercollaborative thedreamrocket
license: 0
latitude: 39.048141
longitude: -95.582046
accuracy: 11
views: 23
interestingness: 156 out of 131

photo: 6435756361 0aa6dc2946 7164
owner: 72181661@N00
title: The Millennium Footbridge And St.Paul's Cathedral
originalsecret: null
originalformat: null
o_height: null
o_width: null
datetaken: 2011-05-14 04:29:26
dateupload: 1322738652
tags: 
license: 0
latitude: 51.509864
longitude: -0.098404
accuracy: 14
views: 59
interestingness: 157 out of 131

photo: 6470163507 f8e3c482c1 7030
owner: 22812711@N05
title: Decades Gone By
originalsecret: null
originalformat: null
o_height: null
o_width: null
datetaken: 2003-05-25 20:39:22
dateupload: 1323238529
tags: usa landscape
license: 0
latitude: 47.416105
longitude: -120.179748
accuracy: 16
views: 13
interestingness: 158 out of 131

photo: 6463775837 6ca2d921e4 7013
owner: 7291299@N08
title: Five Across
originalsecret: null
originalformat: null
o_height: null
o_width: null
datetaken: 2011-07-20 10:53:46
dateupload: 1323142646
tags: road summer blackandwhite bw canada animal cow highway cows zoom 5 five farm barns 300mm alberta nikkor 70300mm deadend zoomed fiveacross ruralroads southernalberta ruralfarm nikond90 nikkor70300mmvr ruralalberta
license: 0
latitude: 50.839335
longitude: -114.15842
accuracy: 11
views: 65
interestingness: 159 out of 131

photo: 6470426299 f3f22a7648 7014
owner: 25006582@N06
title: Western Hotel & Casino
originalsecret: null
originalformat: null
o_height: null
o_width: null
datetaken: 2011-12-02 00:45:10
dateupload: 1323244140
tags: old city vegas blue windows sky brown white classic film analog 35mm canon vintage fence outside outdoors hotel gate downtown rooms doors lasvegas kodak nevada nick casino scan retro 35mmfilm western closing fremontstreet kodakmax400 airconditioners closure hotelrooms 400asa expiredfilm canont70 kodakfilm colorfilm epson4490 westernhotelandcasino westerncasino westernhotel canonfilmcamera expired2005 nickleonard closingonjanuary162012
license: 0
latitude: 36.167358
longitude: -115.136169
accuracy: 15
views: 9
interestingness: 160 out of 131

photo: 6459033923 1be5235da6 7007
owner: 38816240@N02
title: save_the_trees
originalsecret: e00f4f754c
originalformat: jpg
o_height: 1280
o_width: 1280
datetaken: 2011-12-05 12:16:20
dateupload: 1323083780
tags: trees sky tree metal canon square croatia 5d format split silhoutte mkii
license: 3
latitude: 43.512175
longitude: 16.443754
accuracy: 16
views: 40
interestingness: 161 out of 131

photo: 6456946371 7e32a9bd49 7171
owner: 24014153@N04
title: Monsterpiece
originalsecret: f4ccb195f9
originalformat: jpg
o_height: 680
o_width: 1020
datetaken: 2011-12-03 07:51:26
dateupload: 1323052019
tags: saved sanfrancisco beautiful fashion flesh naked nude deleted7 women deleted6 body deleted3 deleted2 saved2 deleted4 victorian makeup pale save4 sutrobaths deleted5 deleted deleted8 saved3 artisticnude highfashion curledhair curlyblonde
license: 5
latitude: 37.778855
longitude: -122.513995
accuracy: 15
views: 228
interestingness: 162 out of 131

photo: 6452256861 8d74d3c78b 7009
owner: 54667807@N08
title: Salford Docks 1966.
originalsecret: null
originalformat: null
o_height: null
o_width: null
datetaken: 1966-05-01 00:00:00
dateupload: 1323002331
tags: truck salfordquays caterpillar lorry stockport bulldozer cargoship foden thamestrader salforddocks caterpillarbulldozer edwardbeck edwardbecksonltd gregstreetstockport teddybeck cja848c
license: 0
latitude: 53.468325
longitude: -2.289276
accuracy: 16
views: 33
interestingness: 163 out of 131

photo: 6437547301 36f7d713f2 7016
owner: 44280066@N07
title: PurpleSunRise1
originalsecret: 75d58fb14a
originalformat: jpg
o_height: 900
o_width: 1500
datetaken: 2011-12-01 19:32:23
dateupload: 1322765894
tags: morning sky clouds sunrise copenhagen denmark purple danmark k?benhavn sortedamss?en sortedamlake
license: 0
latitude: 55.687758
longitude: 12.566857
accuracy: 14
views: 15
interestingness: 164 out of 131

photo: 6436050611 7d066b6295 7018
owner: 11636080@N00
title: Just saved this little guy from the cat. He survived.
originalsecret: null
originalformat: null
o_height: null
o_width: null
datetaken: 2011-12-01 10:29:43
dateupload: 1322744505
tags: bird uruguay puntadeleste alkimia afnikkor50mmf14d
license: 0
latitude: -34.937989
longitude: -54.924726
accuracy: 16
views: 1185
interestingness: 165 out of 131

photo: 6435178697 cc75ba2a67 7146
owner: 8790585@N02
title: Kirkjufell
originalsecret: null
originalformat: null
o_height: null
o_width: null
datetaken: 2011-11-26 11:43:41
dateupload: 1322725044
tags: mountain snow village kirkjufell sunkissed sn?fellsnes snj?r grundarfj?r?ur 2011 fjall ?orp
license: 0
latitude: 64.953209
longitude: -23.350753
accuracy: 10
views: 23
interestingness: 166 out of 131

photo: 6473065287 fecca3c405 7161
owner: 68061227@N00
title: 342/365: With my love
originalsecret: 1f970d5339
originalformat: jpg
o_height: 467
o_width: 700
datetaken: 2011-11-19 16:52:16
dateupload: 1323286494
tags: 
license: 1
latitude: 53.559806
longitude: 9.98816
accuracy: 15
views: 23
interestingness: 167 out of 131

photo: 6467924439 f49b50f659 7023
owner: 68061227@N00
title: 341/365: Remnants of dreams of a tree
originalsecret: 091a9cd7c9
originalformat: jpg
o_height: 467
o_width: 700
datetaken: 2011-11-19 17:11:01
dateupload: 1323205789
tags: 
license: 1
latitude: 53.559812
longitude: 9.989125
accuracy: 15
views: 22
interestingness: 168 out of 131

photo: 6446648755 69ff744cea 7157
owner: 66494794@N04
title: Are the ducks swimming?
originalsecret: 1a734a1b3d
originalformat: jpg
o_height: 2448
o_width: 3264
datetaken: 2011-12-03 13:22:26
dateupload: 1322920956
tags: river duck child
license: 0
latitude: 45.784703
longitude: 15.957362
accuracy: 14
views: 20
interestingness: 169 out of 131

photo: 6443058451 c479ef434e 7029
owner: 28502132@N05
title: HDR Kearney & Trecker 2H horizontal milling machine
originalsecret: null
originalformat: null
o_height: null
o_width: null
datetaken: 2011-12-02 14:17:40
dateupload: 1322855701
tags: mill horizontal vintage rust iron peeling paint cut grunge wwii machine dirty worldwarii milwaukee castiron production kearney tool hdr corrosion drill relic milling bore 2h trecker oxide swarf 5xp
license: 4
latitude: 43.670882
longitude: -75.300582
accuracy: 16
views: 32
interestingness: 170 out of 131

photo: 6470424925 5893da0b76 7145
owner: 25006582@N06
title: Western Hotel & Casino
originalsecret: null
originalformat: null
o_height: null
o_width: null
datetaken: 2011-12-05 20:41:23
dateupload: 1323244108
tags: old city vegas blue red sky classic film sign analog 35mm canon vintage painting outside outdoors hotel parkinglot paint downtown lasvegas kodak nevada bricks nick casino scan retro gaming poker brickwall 35mmfilm western closing fremontstreet bingo kodakmax400 slots closure 400asa expiredfilm canont70 kodakfilm colorfilm epson4490 westernhotelandcasino westerncasino westernhotel canonfilmcamera expired2005 nickleonard closingonjanuary162012
license: 0
latitude: 36.167358
longitude: -115.136169
accuracy: 15
views: 25
interestingness: 171 out of 131

photo: 6446479927 4430611fd8 7010
owner: 58619664@N02
title: ebay_Christmas_Boutique_London_Usain_Bolt_2700
originalsecret: null
originalformat: null
o_height: null
o_width: null
datetaken: 2011-12-01 18:00:30
dateupload: 1322918412
tags: christmas london store ebay 15 siliconvalley olympics ecommerce qr shopfront deanstreet impersonation 2011 qrcodes conceptstore 3435 onlinecommerce quickresponsecode ebayboutique ebaycouk usainbolt christmasboutique december2011 ebaylondon matrixbarcode w1d4pr
license: 0
latitude: 51.513301
longitude: -0.132149
accuracy: 16
views: 64
interestingness: 172 out of 131

photo: 6435085559 41fe40a860 7159
owner: 14599003@N06
title: 2011  I think I know you.  Remind me of your name.
originalsecret: fa20f8000d
originalformat: jpg
o_height: 1966
o_width: 2621
datetaken: 2011-06-07 11:46:57
dateupload: 1322723000
tags: bear polarbear churchill sparring capechurchill savethepolarbear
license: 0
latitude: 58.714398
longitude: -93.289031
accuracy: 9
views: 20
interestingness: 173 out of 131

photo: 6480107871 8855dfd719 7032
owner: 22592478@N00
title: The "Save the Euro" german way - Berlin flavors
originalsecret: null
originalformat: null
o_height: null
o_width: null
datetaken: 2011-04-10 12:43:11
dateupload: 1323402725
tags: berlin germany deutschland v?tor cracas
license: 0
latitude: 52.520634
longitude: 13.405562
accuracy: 15
views: 27
interestingness: 174 out of 131

photo: 6477936059 5661fd1e78 7149
owner: 81556146@N00
title: Last temporary building in Ottawa
originalsecret: 5c71123ea2
originalformat: jpg
o_height: 1320
o_width: 1760
datetaken: 2011-11-11 09:57:54
dateupload: 1323369163
tags: 
license: 0
latitude: 45.422431
longitude: -75.702323
accuracy: 11
views: 23
interestingness: 175 out of 131

photo: 6477774377 6f4a799dff 7003
owner: 62477474@N02
title: San Mart?n de Tours, Artaiz (Navarra)
originalsecret: 037ee07459
originalformat: jpg
o_height: 2101
o_width: 3149
datetaken: 2011-05-01 20:04:23
dateupload: 1323366865
tags: romanesque leviathan anastasis rom?nico cerberos leviat?n theharrowingofhell descensoalosinfiernos
license: 0
latitude: 42.74755
longitude: -1.470409
accuracy: 11
views: 10
interestingness: 176 out of 131

photo: 6454303563 b1a1ec4a02 7019
owner: 60717588@N02
title: Chair Under a Bridge ? 2
originalsecret: 3dd64bf11a
originalformat: jpg
o_height: 3456
o_width: 5184
datetaken: 2011-12-04 13:33:52
dateupload: 1323025078
tags: city atlanta streetart canon graffiti save uaa
license: 3
latitude: 33.774527
longitude: -84.408259
accuracy: 16
views: 53
interestingness: 177 out of 131

photo: 6447531741 642b07366f 7032
owner: 10168976@N02
title: Save the Cheerleader
originalsecret: e918c1faed
originalformat: jpg
o_height: 4288
o_width: 2848
datetaken: 2011-11-04 21:39:06
dateupload: 1322932519
tags: silhouette night fire homecoming bonfire cheerleader baylor bayloruniversity baylorhomecoming
license: 3
latitude: 31.543083
longitude: -97.121661
accuracy: 15
views: 23
interestingness: 178 out of 131

photo: 6436686159 921afa754c 7017
owner: 81481744@N00
title: ?ngel 79/100
originalsecret: null
originalformat: null
o_height: null
o_width: null
datetaken: 2011-11-25 18:10:52
dateupload: 1322754358
tags: student nikon centro puebla estudiante satoru d3000 100strangers
license: 0
latitude: 19.041739
longitude: -98.194642
accuracy: 16
views: 58
interestingness: 179 out of 131

photo: 6480530643 a98d726b2f 7005
owner: 56459548@N08
title: Heron 5
originalsecret: null
originalformat: null
o_height: null
o_width: null
datetaken: 2011-12-09 07:41:42
dateupload: 1323411160
tags: sea bird beach heron birds fly long herons khobar
license: 0
latitude: 26.332153
longitude: 50.226788
accuracy: 15
views: 20
interestingness: 180 out of 131

photo: 6471295477 5eeac647b4 7002
owner: 11185080@N03
title: Public Sector Strikes in Preston #strike #n30 Communication Workers Union  Banner Central & West Lancs Branch : Cheapside Preston :
originalsecret: null
originalformat: null
o_height: null
o_width: null
datetaken: 2011-11-30 03:32:50
dateupload: 1323262490
tags: uk england people english digital photoshop nikon zoom flash north lancashire adobe preston british nikkor lenses nikond1x d1x alienskinexposure 70210mmf4af metz54mz3 nikonzoom70210mmf4series nikkor70210mmf4afzoom
license: 0
latitude: 53.758549
longitude: -2.699235
accuracy: 16
views: 28
interestingness: 181 out of 131

photo: 6469282635 f6581169c5 7025
owner: 79834099@N00
title: St. Bernard
originalsecret: 8852163ae3
originalformat: jpg
o_height: 1987
o_width: 3000
datetaken: 2011-12-06 21:11:04
dateupload: 1323224670
tags: vacation pets paris dogs cemetery statues tombstones stbernard petcemetery 2011 lecimeti?redeschiensdasni?ressurseine
license: 2
latitude: 48.910114
longitude: 2.297601
accuracy: 16
views: 4
interestingness: 182 out of 131

photo: 6469270923 98e7c659e3 7169
owner: 79834099@N00
title: St. Bernard
originalsecret: 3bc0094412
originalformat: jpg
o_height: 4841
o_width: 3206
datetaken: 2011-09-18 14:22:34
dateupload: 1323224511
tags: vacation pets paris dogs cemetery tombstones stbernard petcemetery 2011 lecimeti?redeschiensdasni?ressurseine
license: 2
latitude: 48.910052
longitude: 2.297738
accuracy: 16
views: 2
interestingness: 183 out of 131

photo: 6468289389 ccd879b80f 7143
owner: 73877479@N00
title: Self installed RAM upgrade for Macbook Pro
originalsecret: null
originalformat: null
o_height: null
o_width: null
datetaken: 2011-12-06 16:47:02
dateupload: 1323210211
tags: 
license: 0
latitude: 41.381833
longitude: -81.517834
accuracy: 16
views: 24
interestingness: 184 out of 131

photo: 6466905687 1c6d9d1edc 7035
owner: 47405810@N03
title: Tiny Tot
originalsecret: d5ee2817d6
originalformat: jpg
o_height: 800
o_width: 600
datetaken: 2011-09-22 17:45:25
dateupload: 1323193456
tags: england dog cute home animals puppy somerset september terrier jackrussell 2011
license: 0
latitude: 51.220539
longitude: -2.966995
accuracy: 12
views: 29
interestingness: 185 out of 131

photo: 6454959593 0e64d554d4 7171
owner: 14599003@N06
title: Vicks and the crow
originalsecret: 08725d1652
originalformat: jpg
o_height: 1831
o_width: 2441
datetaken: 2010-12-28 09:25:23
dateupload: 1323031455
tags: bear rotterdam polarbear vicks crow bearcub blijdorpzoo savethepolarbear
license: 0
latitude: 51.862499
longitude: 4.521689
accuracy: 13
views: 33
interestingness: 186 out of 131

photo: 6451213493 6ab418ba28 7028
owner: 24733811@N04
title: Neuvrith Stops Puck
originalsecret: 9ba97a243d
originalformat: jpg
o_height: 800
o_width: 1200
datetaken: 2011-12-03 20:19:52
dateupload: 1322983662
tags: usa ice hockey nhl washingtondc dc washington goalie caps icehockey center save verizon capitals nationalhockeyleague verizoncenter neuvirth
license: 2
latitude: 38.89793
longitude: -77.021033
accuracy: 16
views: 23
interestingness: 187 out of 131

photo: 6440777517 2fd9db42aa 7031
owner: 53634834@N07
title: Save a Heart; Spill Your Guts.
originalsecret: null
originalformat: null
o_height: null
o_width: null
datetaken: 2011-12-02 03:48:21
dateupload: 1322819442
tags: 
license: 0
latitude: 41.852045
longitude: -88.084945
accuracy: 11
views: 25
interestingness: 188 out of 131

photo: 6471480349 c4c8c7b1a1 7151
owner: 49573496@N02
title: Lifebuoy
originalsecret: f1ba8e7b97
originalformat: jpg
o_height: 1228
o_width: 1228
datetaken: 2011-12-05 21:42:07
dateupload: 1323265526
tags: life china rescue film water analog lomo lomography asia fuji save stanley lubitel universal buoy 166 fujicolor160pro
license: 0
latitude: 22.217443
longitude: 114.212322
accuracy: 13
views: 14
interestingness: 189 out of 131

photo: 6460100945 594e1b37af 7151
owner: 56459548@N08
title: White Flower
originalsecret: null
originalformat: null
o_height: null
o_width: null
datetaken: 2011-12-05 16:00:53
dateupload: 1323098887
tags: flowers white flower macro green nature yellow
license: 0
latitude: 26.297555
longitude: 50.107208
accuracy: 16
views: 40
interestingness: 190 out of 131

photo: 6441087403 4732b7d261 7034
owner: 59898141@N06
title: I'm a Homewrecker
originalsecret: f5576dd460
originalformat: jpg
o_height: 2733
o_width: 2734
datetaken: 2011-10-05 13:20:47
dateupload: 1322826418
tags: pink sleeping baby nature animal closeup square three nikon raw babies nest newengland newhampshire nh mice squareformat triplets mousenest sleepingbabies babymice veryyoung walpolenh distanthill walpolenewhampshire d3100 nikond3100 distanthillgardens
license: 0
latitude: 43.085062
longitude: -72.364969
accuracy: 13
views: 30
interestingness: 191 out of 131

photo: 6437275051 8507b496a4 7168
owner: 68929675@N02
title: Oh, Oldenburg
originalsecret: null
originalformat: null
o_height: null
o_width: null
datetaken: 2011-08-01 00:00:00
dateupload: 1322762124
tags: wood inglaterra england london museum madera mus?e tatemodern popart londres plug angleterre museo bois prise claesoldenburg enchufe artepop
license: 0
latitude: 51.507724
longitude: -0.099284
accuracy: 16
views: 10
interestingness: 192 out of 131

photo: 6472254847 95b22a76d2 7146
owner: 72199305@N00
title: Save the Pelicans!
originalsecret: e001bf2f70
originalformat: jpg
o_height: 1107
o_width: 1642
datetaken: 2011-10-28 17:57:42
dateupload: 1323275954
tags: life california sunset vacation color tree bird nature animal santabarbara fun pier boat fly flying nikon beak feathers lifeguard pelican palm ring palmtree wharf feed lifesaver lifering aaronmeyersphotography
license: 0
latitude: 34.408609
longitude: -119.684886
accuracy: 14
views: 25
interestingness: 193 out of 131

photo: 6466580469 424bfbb998 7005
owner: 56459548@N08
title: Bulbul 16
originalsecret: null
originalformat: null
o_height: null
o_width: null
datetaken: 2011-12-06 15:09:35
dateupload: 1323189400
tags: trees tree green bird nature birds fly bulbul
license: 0
latitude: 26.298171
longitude: 50.106947
accuracy: 16
views: 11
interestingness: 194 out of 131

photo: 6465701943 a1e095322e 7002
owner: 8833545@N03
title: AA Box No 472, A93, Cambus O' May, Nr Ballater, Royal Deeside, Cairngorms National Park, Aberdeenshire, Scotland, UK.
originalsecret: fdddc9c862
originalformat: jpg
o_height: 3264
o_width: 2448
datetaken: 2012-12-06 00:20:36
dateupload: 1323177943
tags: uk white snow black cold ice yellow scotland aberdeenshire box aa cairngormsnationalpark royaldeeside cambusomay 472 deesideimages nrballater 472061211
license: 0
latitude: 57.065827
longitude: -2.947649
accuracy: 14
views: 18
interestingness: 195 out of 131

photo: 6460754377 82a62690a5 7011
owner: 23885771@N03
title: HMS Victory - souvenir badge (1960?s / 1970?s)
originalsecret: e7707dca76
originalformat: jpg
o_height: 421
o_width: 461
datetaken: 2011-11-22 13:29:45
dateupload: 1323106043
tags: hmsvictory royalnavy portsmouthharbour battleoftrafalgar museumship enamelbadge admiralhorationelson navalbattles battleofushant battleofcapeofstvincent
license: 0
latitude: 50.801683
longitude: -1.109511
accuracy: 15
views: 17
interestingness: 196 out of 131

photo: 6442585247 50cc80ffa0 7002
owner: 8833545@N03
title: 'Mini Museum', AA Box No 472, A93, Cambus O' May, Nr Ballater, Royal Deeside, Cairngorms National Park, Aberdeenshire, Scotland, UK.
originalsecret: ffc5ddd0b9
originalformat: jpg
o_height: 4608
o_width: 3456
datetaken: 2011-12-01 02:30:10
dateupload: 1322849177
tags: heritage box national 1950s 1960s ballater aa cairngormsnationalpark socialhistory telephoneboxes royaldeeside sentrybox automobileassociation breakdowns minimuseum deesideimages box472 deesidecairngorms parkaberdeenshirescotlanduka93deeside imageshistoryenglish aapatrols
license: 0
latitude: 57.065913
longitude: -2.947811
accuracy: 14
views: 33
interestingness: 197 out of 131

photo: 6441093375 d7b9e15cd9 7162
owner: 68061227@N00
title: 337/365: Gathering on the BAR
originalsecret: a652123da0
originalformat: jpg
o_height: 467
o_width: 700
datetaken: 2011-11-27 21:21:39
dateupload: 1322826555
tags: 
license: 1
latitude: 53.551262
longitude: 9.999135
accuracy: 16
views: 60
interestingness: 198 out of 131

photo: 6453833463 eec2b2cff0 7032
owner: 63893524@N07
title: Temple of Debod
originalsecret: null
originalformat: null
o_height: null
o_width: null
datetaken: 2011-12-03 13:40:34
dateupload: 1323020240
tags: madrid blackandwhite bw blancoynegro canon eos spain egypt bn templodedebod templeofdebod 1000d eos1000d eduolier
license: 0
latitude: 40.420299
longitude: -3.70577
accuracy: 11
views: 30
interestingness: 199 out of 131

photo: 6443752851 ebda480fbb 7013
owner: 44280066@N07
title: New Carlsberg Glyptotek HDR
originalsecret: ca8b29913e
originalformat: jpg
o_height: 900
o_width: 1500
datetaken: 2011-12-02 23:39:57
dateupload: 1322865672
tags: longexposure museum copenhagen k?benhavn glyptotek nycarlsbergglyptotek newcarlsbergglyptotec
license: 0
latitude: 55.672847
longitude: 12.573122
accuracy: 15
views: 19
interestingness: 200 out of 131

photo: 6454951153 5005b6642d 7142
owner: 14599003@N06
title: Vicks
originalsecret: 56bb303964
originalformat: jpg
o_height: 1391
o_width: 1855
datetaken: 2010-12-28 09:22:50
dateupload: 1323031372
tags: bear rotterdam polarbear vicks bearcub blijdorpzoo savethepolarbear
license: 0
latitude: 51.862499
longitude: 4.521689
accuracy: 13
views: 21
interestingness: 201 out of 131

photo: 6466519445 38d9602ee6 7155
owner: 56459548@N08
title: Bulbul 10
originalsecret: null
originalformat: null
o_height: null
o_width: null
datetaken: 2011-12-06 14:55:32
dateupload: 1323188652
tags: trees tree green bird nature birds fly bulbul
license: 0
latitude: 26.298171
longitude: 50.106947
accuracy: 16
views: 11
interestingness: 202 out of 131

photo: 6463423121 dd37c8971d 7143
owner: 26508473@N06
title: Arista-Edu 400 Film
originalsecret: 7cc70c0259
originalformat: jpg
o_height: 683
o_width: 1024
datetaken: 2011-12-05 19:09:48
dateupload: 1323138116
tags: aristaedu marioherrera freestylesales
license: 0
latitude: 34.064571
longitude: -117.647811
accuracy: 11
views: 33
interestingness: 203 out of 131

photo: 6462883783 a9639298e8 7166
owner: 53595130@N06
title: The X50 to Dumplington
originalsecret: 5ee9cf4381
originalformat: jpg
o_height: 3000
o_width: 4000
datetaken: 2011-12-03 13:08:50
dateupload: 1323130839
tags: bus geotagged manchester piccadilly 2011 greatermanchester stagecoachmanchester piccadillygardensbusstation nikoncoolpixs570 dumplingtoncentre tfgm dennistridentenviro400 xmas2011
license: 4
latitude: 53.480483
longitude: -2.238228
accuracy: 16
views: 19
interestingness: 204 out of 131

photo: 6448229993 a62cf2afdc 7018
owner: 63972726@N08
title: Water Tank vs. Scratch on Film
originalsecret: null
originalformat: null
o_height: null
o_width: null
datetaken: 2011-11-23 23:23:08
dateupload: 1322941088
tags: sky newyork film analog nikon chelsea fuji watertank fm3a pro400h 50mmf14afd scratchedfilm
license: 0
latitude: 40.741892
longitude: -73.993424
accuracy: 15
views: 22
interestingness: 205 out of 131

photo: 6447468883 846f59c58b 7033
owner: 54056142@N02
title: Job 10:12
originalsecret: 23a188b152
originalformat: jpg
o_height: 1173
o_width: 1640
datetaken: 2011-03-13 09:24:05
dateupload: 1322931814
tags: christian inspirational bibleverses sharetheword job1012
license: 4
latitude: 16.610202
longitude: 120.309906
accuracy: 11
views: 17
interestingness: 206 out of 131

photo: 6440796075 4ecd63cfa6 7145
owner: 56838581@N08
title: Intimissimi billboard in 163 MPx
