
mintime: 1322697600 maxtime: 1322717395.08
numimgs: 216
total pages: 1
visiting only 1 pages ( up to 250 images)
photo: 6433881325 28bcb446fe 7165
owner: 13547802@N05
title: Green Stream - Aurora near Reykjav?k Iceland
originalsecret: 0c62bd0748
originalformat: jpg
o_height: 650
o_width: 950
datetaken: 2011-11-30 22:23:41
dateupload: 1322703280
tags: winter sky mountain lake snow storm reflection green ice weather river photography solar iceland astro arctic aurora magnetic northernlights 2011 arcticphoto
license: 0
latitude: 64.209514
longitude: -21.608905
accuracy: 11
views: 1386
interestingness: 1 out of 216

photo: 6434095831 ab155cbaf5 7155
owner: 36799084@N07
title: "Point Peele in Full Moon" Explored 11/30/11 # 270 Thank you!
originalsecret: null
originalformat: null
o_height: null
o_width: null
datetaken: 2010-09-20 03:29:54
dateupload: 1322706416
tags: canada geotagged dreamworks texturen nikongroup artmix ninianlifstextureaddicts flickrtextures heartandsoulphotography thefarpavilions magicartoftextures artofimages distressedtextures workingwithtextures thetexturedlandscape createtolive perfectioninpictures artuniinternational breathtakingcapture irenesteeves textureinfinitebook temarisgalacticstudio galleryofwonders adriennesuntouchabledream excellentgallery texturegenius matsgallery elegantphotoart amazingtexturedphotos photoartisttextures texturingtheworld artclassandvalue theromanticstorybook witnesstheemergingspiritinvite treasuresofkeepyoureyesopenadminvite magicuniverseadminvite theawardtreeadminvite tatotinvite avpamaingrp texturemonamourinvite galleryofdreamsadminvite keepyoureyesopennopeople treasuresofthisworldnopeople theworldwelovenopeople womanscreativity naturebyseasonnomanmade texturemyworldadminvite bookofinspirationstextured aworldmadeoftexturesadminvite lovelymotherearthfinearts heartsofoakadminvite photoshopforever ictadminvite netartisticvirtualspaceadminvite natureoftheuniversenomanmade digitalartsceneproadminvite tbcptextures irresistablybeautifultexturesadminvite theworldofeleganttextures magicunicornverybestinvite enchantingatmospheresandevocativesensationsadminvite
license: 0
latitude: 41.909443
longitude: -82.508804
accuracy: 15
views: 505
interestingness: 2 out of 216

photo: 6433556133 729274c8e7 7157
owner: 11746711@N08
title: New York City on 11/28/2011
originalsecret: null
originalformat: null
o_height: null
o_width: null
datetaken: 2011-11-28 05:10:44
dateupload: 1322698433
tags: nyc newyorkcity longexposure newyork reflection night skyscraper geotagged downtown cityscape dumbo gehry financialdistrict eastriver gothamist wallstreet fdrdrive hdr southstreet seaport woolworthbuilding brooklynbridgepark freedomtower mudpig beekmanplace stevekelley beekmantower 60wallstreet 8sprucestreet oneworldtradecenter stevenkelley
license: 0
latitude: 40.695794
longitude: -73.999679
accuracy: 16
views: 1046
interestingness: 3 out of 216

photo: 6434321127 b229334523 7165
owner: 56488350@N00
title: is this what they mean by "winter wonderland?"
originalsecret: null
originalformat: null
o_height: null
o_width: null
datetaken: 2011-11-30 10:43:33
dateupload: 1322709783
tags: macro newmex snowflakeswinter ol?tusfotos blinkagain bestofblinkwinners blinkagainsuperstars
license: 0
latitude: 36.358744
longitude: -105.608053
accuracy: 15
views: 170
interestingness: 4 out of 216

photo: 6434715501 48f903d03e 7009
owner: 9413478@N08
title: Columbia River.
originalsecret: null
originalformat: null
o_height: null
o_width: null
datetaken: 2011-08-25 03:53:40
dateupload: 1322715654
tags: blue sunset sky max clouds oregon river washington deep columbia i84 maranza maranzamax flickrstruereflection1 flickrstruereflection2
license: 0
latitude: 45.542577
longitude: -122.275428
accuracy: 14
views: 303
interestingness: 5 out of 216

photo: 6434711141 17c8b7d069 7156
owner: 49031479@N04
title: Startrails & light...
originalsecret: 94184525c6
originalformat: jpg
o_height: 1280
o_width: 954
datetaken: 2011-12-01 04:58:42
dateupload: 1322715579
tags: uk longexposure england orange lightpainting colour night canon photography evening streetlights spin gothic orb moonlit nighttime sphere lighttrails nightscene canon1740mmf4lusm ott hardwick startrails lightpolution lightpainted lapp northeastengland lenser canoneos5dmarkii hardwickcountrypark lenserv24 iluminatte fellwalker1 lensert7 seemedlikeagoodideathetime
license: 0
latitude: 54.65591
longitude: -1.463284
accuracy: 15
views: 217
interestingness: 6 out of 216

photo: 6434795383 79d73e8543 7156
owner: 24973309@N04
title: Weites Wasser, hoher Himmel
originalsecret: 32431e468b
originalformat: jpg
o_height: 1909
o_width: 2800
datetaken: 2011-11-20 16:18:18
dateupload: 1322717075
tags: sunset panorama germany deutschland bavaria see abend wasser oberbayern starnbergersee colorefexpro4
license: 0
latitude: 47.84476
longitude: 11.338448
accuracy: 14
views: 132
interestingness: 7 out of 216

photo: 6433605279 b0dc3610f8 7020
owner: 38882101@N03
title: Fresh Fish
originalsecret: 94252a20c3
originalformat: jpg
o_height: 683
o_width: 1024
datetaken: 2011-02-12 12:44:55
dateupload: 1322699187
tags: canon eagle baldeagle iowa raptor mississippiriver eagles raptors baldeagles 2011 avianexcellence 800mmf56 canon1dmarkiv lockdam14
license: 0
latitude: 41.572563
longitude: -90.405464
accuracy: 11
views: 104
interestingness: 8 out of 216

photo: 6434060839 a54c181865 7147
owner: 7202153@N03
title: Clear Creek Canyon & North Rim from Tonto Trail - Grand Canyon
originalsecret: 56f9d7b485
originalformat: jpg
o_height: 3000
o_width: 4000
datetaken: 2011-11-20 13:35:46
dateupload: 1322705914
tags: park camping light arizona storm clouds creek nationalpark hiking grandcanyon grand canyon hike trail national backpacking backcountry grandview tonto southrim grandcanyonnationalpark tontotrail alhikesaz belowtherim gc2011 grandviewyakipoint2011 clearcreekcanyonclear
license: 2
latitude: 36.091657
longitude: -112.077916
accuracy: 16
views: 110
interestingness: 9 out of 216

photo: 6433533363 6216833974 7031
owner: 45939540@N05
title: Megan float - Mamiya C33
originalsecret: 6384b5c2cc
originalformat: jpg
o_height: 1024
o_width: 1039
datetaken: 2011-11-30 02:01:05
dateupload: 1322698054
tags: 
license: 4
latitude: 45.511791
longitude: -122.675628
accuracy: 11
views: 339
interestingness: 10 out of 216

photo: 6433626981 be191fcc1d 7027
owner: 40755436@N04
title: Fingerpainters attack
originalsecret: 6c88cc541b
originalformat: jpg
o_height: 768
o_width: 1024
datetaken: 2011-11-30 17:31:49
dateupload: 1322699509
tags: vegas autodesk conference tribute rabbits collaboration ipad sketchbookpro benjaminrabe chrischeung salnavarro au2011 mattseydalconnors jacquespena takakotsur?utani joseantoniofundoandgabrielpalacios
license: 0
latitude: 36.122424
longitude: -115.168873
accuracy: 16
views: 216
interestingness: 11 out of 216

photo: 6434259843 3dd7ee6061 7034
owner: 44124372679@N01
title: Silent Night Christmas card
originalsecret: null
originalformat: null
o_height: null
o_width: null
datetaken: 2010-01-03 14:07:57
dateupload: 1322708865
tags: christmas decorations church architecture missionsangabriel
license: 0
latitude: 34.097927
longitude: -118.107451
accuracy: 14
views: 97
interestingness: 12 out of 216

photo: 6425622847 8be1967bcd 6214
owner: 22636309@N06
title: Kt@Awajishima Waterfall
originalsecret: null
originalformat: null
o_height: null
o_width: null
datetaken: 2011-08-11 10:33:11
dateupload: 1322711797
tags: park light portrait people woman white black flower sexy slr art water girl beautiful japan umbrella canon dark asian photography waterfall interesting women natural bokeh good feminine awesome flash explore more most portraiture mostinteresting ambient 5d format canon5d dslr softbox reflector tomomi ? ?? ? ?????? ? ?? aiya awajishima ilko asianbeauty ??? ?? chinen ???? strobist ???? 80x60 ?????? beautyshoots allexandroff ???
license: 0
latitude: 34.309923
longitude: 134.876695
accuracy: 12
views: 993
interestingness: 13 out of 216

photo: 6433676075 80e29bbf88 7011
owner: 51331020@N00
title: moscow #23 (b/w)
originalsecret: null
originalformat: null
o_height: null
o_width: null
datetaken: 2011-12-01 00:41:26
dateupload: 1322700238
tags: sky blackandwhite bw clouds river construction skyscrapers moscow wideangle futuristic moscowcity vents moscowriver
license: 0
latitude: 55.745877
longitude: 37.545003
accuracy: 16
views: 111
interestingness: 14 out of 216

photo: 6433545759 30e5283ef9 7155
owner: 57512585@N05
title: Ros?
originalsecret: d5e4e94b4b
originalformat: jpg
o_height: 1772
o_width: 2493
datetaken: 2011-08-19 11:34:18
dateupload: 1322698257
tags: naturaleza flower nature fleur rose nikon natureza natur flor rosa natura richard blume ?? ros? ?? ????? d5000 ?????? mygearandme richardmorais ???
license: 0
latitude: 47.340538
longitude: 0.513567
accuracy: 15
views: 122
interestingness: 15 out of 216

photo: 6428973499 7296893806 7009
owner: 38523566@N07
title: Girl With The Dragonfly Tattoo
originalsecret: null
originalformat: null
o_height: null
o_width: null
datetaken: 2011-11-25 19:48:56
dateupload: 1322706300
tags: texture tattoo desert dragonfly desertbotanicalgardens dbg bigbugs tatot kimklassen
license: 0
latitude: 33.42551
longitude: -111.937423
accuracy: 11
views: 105
interestingness: 16 out of 216

photo: 6434346865 8d776e3234 7144
owner: 55523577@N05
title: ......
originalsecret: null
originalformat: null
o_height: null
o_width: null
datetaken: 2011-11-30 15:59:23
dateupload: 1322710148
tags: slr 120 6x6 mediumformat square hasselblad500cm kodakektacolorpro160 invietnam carlzeissplanarcf2880t
license: 0
latitude: 16.047199
longitude: 108.251403
accuracy: 11
views: 222
interestingness: 17 out of 216

photo: 6434143827 2704172498 7013
owner: 32670058@N08
title: Flying Gaggle
originalsecret: null
originalformat: null
o_height: null
o_width: null
datetaken: 2011-11-27 00:52:32
dateupload: 1322707091
tags: usa white snow america wow flying geese nikon dof wildlife flight aves goose missouri d200 oiseaux refuge wildliferefuge snowgeese oie gaggle awing multitudinous girltwin saltcreeknationalwildliferefuge
license: 0
latitude: 40.071766
longitude: -95.248718
accuracy: 8
views: 71
interestingness: 18 out of 216

photo: 6433628763 4a6824a01d 7141
owner: 17159262@N00
title: [see it in]
originalsecret: null
originalformat: null
o_height: null
o_width: null
datetaken: 2011-11-25 18:45:33
dateupload: 1322699536
tags: reflection building tower film analog poster exposure olympus om10 double iso 400
license: 0
latitude: 35.223044
longitude: -80.838317
accuracy: 11
views: 112
interestingness: 19 out of 216

photo: 6433615571 ea995361ee 7025
owner: 56845130@N06
title: Heavenly Light at Cape Flattery (Remake)
originalsecret: null
originalformat: null
o_height: null
o_width: null
datetaken: 2011-11-30 17:28:58
dateupload: 1322699338
tags: seattle wood blue trees light jared sky sun color tree green fog pinetree clouds forest photography utah photo washington leaf big high day shadows dof view state image explosion july days trail dew rays washingtonstate epic hdr capeflattery treesilhouettes jaredjohnson1207 johnson1207 cannonpowershota495
license: 0
latitude: 48.384473
longitude: -124.724392
accuracy: 14
views: 95
interestingness: 20 out of 216

photo: 6433633857 79c978976a 7007
owner: 41488901@N00
title: someone somewhere somehow
originalsecret: null
originalformat: null
o_height: null
o_width: null
datetaken: 2011-10-12 13:02:19
dateupload: 1322699607
tags: israel christ palestine dome christianity viadolorosa holyland hdr golgotha jersualem yisrael photomatix yerushalaim tonemapping holysepulcher flickraward wayofgrief
license: 0
latitude: 31.780455
longitude: 35.231974
accuracy: 15
views: 70
interestingness: 21 out of 216

photo: 6433730553 538480652d 7026
owner: 33512344@N05
title: "Goodbye, Wednesday" taken for ODC - The End [30|365]
originalsecret: c57bb42ea0
originalformat: jpg
o_height: 4608
o_width: 3072
datetaken: 2011-11-30 17:49:30
dateupload: 1322701050
tags: november sunset sky color beautiful beauty oneaday clouds oregon portland nikon gorgeous sunsets photoaday pacificnorthwest pnw challenge pictureaday wintersun odc colorfulsky project365 project36530 threesixtyfive project365day30 nikkor35mmf18g ourdailychallenge challengegroups nikond3100 ourdailychallengegroup3 odcg3 project365113011
license: 3
latitude: 45.511791
longitude: -122.675628
accuracy: 11
views: 55
interestingness: 22 out of 216

photo: 6433628781 7758de7ff1 7172
owner: 28096552@N02
title: .
originalsecret: 4e695fb76b
originalformat: jpg
o_height: 683
o_width: 1024
datetaken: 2011-11-30 14:46:45
dateupload: 1322699536
tags: reflection water pool swimming reflections children eau child reflet enfants reflets piscine bassin thedefiningtouch reflexionautourdubassin reflectionaroundthepool
license: 0
latitude: 44.677198
longitude: -0.23951
accuracy: 13
views: 82
interestingness: 23 out of 216

photo: 6434048643 dc00847471 7144
owner: 49067289@N05
title: Water Movement in Red
originalsecret: 29df3068c9
originalformat: jpg
o_height: 2724
o_width: 3631
datetaken: 2011-12-22 06:57:04
dateupload: 1322705728
tags: redicm
license: 0
latitude: 25.728979
longitude: -80.237419
accuracy: 11
views: 44
interestingness: 24 out of 216

photo: 6434360561 9bb2ca0e84 7035
owner: 12471248@N08
title: Stranger 036/100
originalsecret: null
originalformat: null
o_height: null
o_width: null
datetaken: 2011-11-28 10:24:11
dateupload: 1322710348
tags: sanfrancisco portrait people unionsquare tailor brooksbrothers 100strangers
license: 0
latitude: 37.787911
longitude: -122.410663
accuracy: 13
views: 102
interestingness: 25 out of 216

photo: 6434631125 0a710ddec4 7172
owner: 24513622@N07
title: Reading Room
originalsecret: null
originalformat: null
o_height: null
o_width: null
datetaken: 2011-11-14 11:34:00
dateupload: 1322714303
tags: wood old windows light window boston architecture photoshop table reading lights library room massachusetts historic read hdr photomatix cs5 topazadjust
license: 0
latitude: 42.312561
longitude: -71.088676
accuracy: 11
views: 61
interestingness: 26 out of 216

photo: 6437385065 644cb78be0 7154
owner: 66150034@N07
title: Shoot Twice
originalsecret: 064e8b6648
originalformat: jpg
o_height: 1997
o_width: 4000
datetaken: 2011-07-24 19:19:08
dateupload: 1322699160
tags: street boy love girl night nikon kissing candid flash cologne k?ln dating strobist d3x sigma50mm14
license: 0
latitude: 50.929953
longitude: 6.939303
accuracy: 13
views: 119
interestingness: 27 out of 216

photo: 6434754823 66d66280c0 7173
owner: 49625194@N02
title: Red-Tailed Hawk in NYC [Explore]
originalsecret: null
originalformat: null
o_height: null
o_width: null
datetaken: 2011-11-30 10:29:32
dateupload: 1322716363
tags: nyc newyorkcity bird flying high wings feathers soaring redtailedhawk tamron75300mm mickcanon
license: 0
latitude: 40.731887
longitude: -73.810615
accuracy: 13
views: 75
interestingness: 28 out of 216

photo: 6434516253 cf8ed51a71 7013
owner: 24186584@N05
title: ~ heavenly autumn with a touch of winter ~
originalsecret: null
originalformat: null
o_height: null
o_width: null
datetaken: 2011-10-08 15:09:53
dateupload: 1322712609
tags: autumn nature weather season landscape earth motherearth fallsnow freshsnow 2011 colorfulcolorado fathersky heavensdarkangel sonydslra200 desbahallison heavensdarkangel2 wolfcreekopeningdayoctober8 dedicated2007photoguy
license: 0
latitude: 37.480852
longitude: -106.848392
accuracy: 11
views: 58
interestingness: 29 out of 216

photo: 6433540133 8be3144324 7031
owner: 27531711@N08
title: Grand Canyon of the Yellowstone
originalsecret: null
originalformat: null
o_height: null
o_width: null
datetaken: 2011-09-22 11:11:27
dateupload: 1322698163
tags: summer usa water rock creek river stream sunny yellowstonenationalpark wyoming yellowstoneriver grandcanyonoftheyellowstone johncothron cothronphotography
license: 0
latitude: 44.726163
longitude: -110.481506
accuracy: 16
views: 94
interestingness: 30 out of 216

photo: 6434171611 f7132fd345 7168
owner: 15129457@N02
title: Ever Seen A Fence Facet ?
originalsecret: null
originalformat: null
o_height: null
o_width: null
datetaken: 2011-11-29 22:25:12
dateupload: 1322707495
tags: 
license: 0
latitude: 41.413686
longitude: -102.987642
accuracy: 14
views: 36
interestingness: 31 out of 216

photo: 6434780017 555dcc4d75 7142
owner: 41439979@N05
title: Sunset - One More In Comments
originalsecret: 3d0a2698aa
originalformat: jpg
o_height: 3107
o_width: 4692
datetaken: 2011-11-24 17:08:41
dateupload: 1322716785
tags: trees sunset sky water clouds oregon solitude pacificnorthwest jackandreasen nikond5100
license: 0
latitude: 45.126915
longitude: -123.970161
accuracy: 16
views: 68
interestingness: 32 out of 216

photo: 6434002249 91286ddd50 7141
owner: 53069318@N03
title: Bat Dog
originalsecret: d2f48f62b2
originalformat: jpg
o_height: 1777
o_width: 2681
datetaken: 2011-11-30 21:04:29
dateupload: 1322705078
tags: dog black eyes chair ears inside dogchal
license: 0
latitude: 45.343978
longitude: -75.791671
accuracy: 16
views: 46
interestingness: 33 out of 216

photo: 6434585529 8c76e6dcc3 7151
owner: 28461395@N07
title: Amazing Missouri Sky
originalsecret: null
originalformat: null
o_height: null
o_width: null
datetaken: 2011-11-30 17:56:20
dateupload: 1322713636
tags: sky amazing missouri
license: 0
latitude: 38.808296
longitude: -91.51961
accuracy: 15
views: 72
interestingness: 34 out of 216

photo: 6434528861 c436458cda 7019
owner: 85868207@N00
title: A Cup of Blessing
originalsecret: null
originalformat: null
o_height: null
o_width: null
datetaken: 2011-11-25 18:37:14
dateupload: 1322712797
tags: california nikon longbeach aquariumofthepacific d90 18105mm jennovaunda ovaunda nikonnikkorafsdx18105mmf3556gedvr
license: 0
latitude: 33.766719
longitude: -118.192398
accuracy: 11
views: 43
interestingness: 35 out of 216

photo: 6434224397 803b92bc10 7015
owner: 32039444@N05
title: Manhattan Bridge #2
originalsecret: null
originalformat: null
o_height: null
o_width: null
datetaken: 2011-11-27 09:03:23
dateupload: 1322708327
tags: nyc bridge newyork brooklyn photoshop manhattanbridge
license: 0
latitude: 40.700137
longitude: -73.987727
accuracy: 15
views: 35
interestingness: 36 out of 216

photo: 6433958649 795b6bf915 7171
owner: 54530258@N02
title: Night traffic on the bridge -   Trafico de noche en el puente
originalsecret: b2f51c07c4
originalformat: jpg
o_height: 1867
o_width: 2800
datetaken: 2011-11-26 06:13:19
dateupload: 1322704441
tags: bridge puente pasadena suicidebridge coloradostreetbridge pas1 pasadebridge puentesuicida
license: 0
latitude: 34.14359
longitude: -118.168677
accuracy: 15
views: 32
interestingness: 37 out of 216

photo: 6434670437 3fdd24367c 7147
owner: 93254204@N00
title: I'm Too...
originalsecret: null
originalformat: null
o_height: null
o_width: null
datetaken: 2011-11-30 10:58:52
dateupload: 1322714908
tags: autumn holland fall netherlands amsterdam europe wicked nophotoshop lifeisgood android app carpediem htc 2011 mobilephonecam amstersam reflectah amstersm amsterdamthebestcityintheworld reflectionsofamsterdam checkoutmywebsitewwwamstersamcom wickedreflections thewickedreflectah amstersmthewickedreflectah htcdesire camera360 htcdesiremobilephonecam
license: 0
latitude: 52.372887
longitude: 4.892821
accuracy: 14
views: 182
interestingness: 38 out of 216

photo: 6434502241 ec43d06f10 7003
owner: 68008857@N00
title: Elephant taking a beauty bath! In Kenya
originalsecret: d54de9470e
originalformat: jpg
o_height: 1336
o_width: 1336
datetaken: 2011-08-21 11:30:21
dateupload: 1322712416
tags: africa bridge geotagged kenya ivory trunk kenia tusks tusk gamedrive djoser slurf elephantidae africanbushelephant ivoor slagtanden afrikaanseolifant oneofthebigfive friendoffriends ferdisworld nikkorafs7020028 nikond7000 shabanationaalpark keniaentanzaniareis2011 afrikaansesavanneolifant savannaelephants geo:lat=0564762 geo:lon=37629398
license: 0
latitude: 0.564762
longitude: 37.629398
accuracy: 16
views: 69
interestingness: 39 out of 216

photo: 6433736243 6c0308629e 7030
owner: 23170612@N05
title: A Firefighter's Rainbow
originalsecret: 71c049fb02
originalformat: jpg
o_height: 588
o_width: 990
datetaken: 2011-11-30 13:48:41
dateupload: 1322701141
tags: autumn sky mist training truck hotel rainbow nikon colorful downtown photographer waterfront bright unique northcarolina spray hose firetruck fireman firemen nikkor hdr highdynamicrange vr uprooted purging easternnc 70300 purge newbern d90 marinabridgepointe
license: 3
latitude: 35.097264
longitude: -77.039995
accuracy: 15
views: 74
interestingness: 40 out of 216

photo: 6434399123 317c173bde 7005
owner: 12185056@N02
title: Female Red-winged Blackbird
originalsecret: null
originalformat: null
o_height: null
o_width: null
datetaken: 2011-11-19 08:04:00
dateupload: 1322710917
tags: usa nature birds florida wildlife aves wellington northamerica blackbirds sanctuary songbirds palmbeachcounty redwingedblackbird agelaiusphoeniceus icteridae passeriformes 6076 peacefulwaters
license: 0
latitude: 26.632805
longitude: -80.235385
accuracy: 14
views: 39
interestingness: 41 out of 216

photo: 6433884837 8a621818c1 7168
owner: 33034505@N06
title: thirst quenching station
originalsecret: null
originalformat: null
o_height: null
o_width: null
datetaken: 2011-11-26 18:19:59
dateupload: 1322703330
tags: house david water glass coffee station virginia cool counter beverage bayou va bakery dcist iced thirst quenching guas
license: 0
latitude: 38.891433
longitude: -77.083923
accuracy: 16
views: 63
interestingness: 42 out of 216

photo: 6433706843 5f815d8bb0 7175
owner: 65146752@N04
title: Chacott V Pointe Shoes
originalsecret: 8466a8848e
originalformat: jpg
o_height: 2832
o_width: 1993
datetaken: 2011-11-30 17:28:04
dateupload: 1322700677
tags: camera ballet dead shoes toe with pointe duchess
license: 0
latitude: 41.884151
longitude: -87.632408
accuracy: 11
views: 102
interestingness: 43 out of 216

photo: 6433519621 e7eb8060db 7148
owner: 12570393@N08
title: Stranger #64: Emma
originalsecret: 94d75fa846
originalformat: jpg
o_height: 2692
o_width: 3972
datetaken: 2011-11-30 14:56:14
dateupload: 1322697831
tags: 100 100strangers strangersportrait
license: 3
latitude: 51.526855
longitude: -0.121031
accuracy: 16
views: 117
interestingness: 44 out of 216

photo: 6434117291 0fe4daae73 7171
owner: 47432611@N07
title: Somewhere Beyond The Clouds
originalsecret: a954020bde
originalformat: jpg
o_height: 600
o_width: 800
datetaken: 2011-11-30 11:35:52
dateupload: 1322706719
tags: weather clouds landscape outdoors silverlake pacificnorthwest vista 111in2011 scavchal scdec12
license: 0
latitude: 46.8882
longitude: -122.379632
accuracy: 16
views: 41
interestingness: 45 out of 216

photo: 6433571345 680fe923fa 7006
owner: 31358190@N05
title: Mistaya River Afternoon
originalsecret: a535cb269d
originalformat: jpg
o_height: 753
o_width: 1000
datetaken: 2011-08-11 12:33:57
dateupload: 1322698686
tags: river rockies canadian falls alberta mistaya keithgrajala
license: 0
latitude: 51.951512
longitude: -116.714286
accuracy: 16
views: 20
interestingness: 46 out of 216

photo: 6434752091 63b0951bc0 7001
owner: 41229342@N05
title: Night Photowalk - Clock Tower
originalsecret: null
originalformat: null
o_height: null
o_width: null
datetaken: 2011-11-30 20:52:27
dateupload: 1322716317
tags: christmas xmas uk blue decorations red england orange white color colour tree green yellow night lights photo gallery minolta time leicestershire britain walk sony leicester photographic peoples beercan 200 photowalk 1750 17 alpha 50 tamron 70 450 70200 a450
license: 0
latitude: 52.636198
longitude: -1.133222
accuracy: 16
views: 65
interestingness: 47 out of 216

photo: 6434210523 86640dbbde 7172
owner: 86877667@N00
title: 1 1/2 Waterfalls
originalsecret: null
originalformat: null
o_height: null
o_width: null
datetaken: 2011-11-28 02:15:00
dateupload: 1322708088
tags: waterfall letchworthsp fullflow lowerandupperwaterlinefalls
license: 0
latitude: 42.716624
longitude: -77.918357
accuracy: 11
views: 65
interestingness: 48 out of 216

photo: 6434669903 b49a3d0128 7168
owner: 93254204@N00
title: ...Sexy For...
originalsecret: null
originalformat: null
o_height: null
o_width: null
datetaken: 2011-10-06 12:13:44
dateupload: 1322714900
tags: autumn holland fall netherlands amsterdam europe wicked nophotoshop lifeisgood carpediem unedited htc 2011 mobilephonecam amstersam reflectah amstersm amsterdamthebestcityintheworld reflectionsofamsterdam checkoutmywebsitewwwamstersamcom wickedreflections thewickedreflectah amstersmthewickedreflectah htcdesire htcdesiremobilephonecam
license: 0
latitude: 52.372887
longitude: 4.892821
accuracy: 14
views: 119
interestingness: 49 out of 216

photo: 6433956925 0274b161d6 7158
owner: 54530258@N02
title: The moon and star over Pasadena  -- La luna y la estrella sobre Pasadena
originalsecret: 0f3e85eb4b
originalformat: jpg
o_height: 1997
o_width: 2930
datetaken: 2011-11-26 06:13:18
dateupload: 1322704417
tags: bridge puente pasadena suicidebridge coloradostreetbridge pas1 pasadebridge puentesuicida
license: 0
latitude: 34.143688
longitude: -118.168526
accuracy: 15
views: 14
interestingness: 50 out of 216

photo: 6434383543 63cab3b34a 7159
owner: 23434307@N02
title: DXB5166
originalsecret: null
originalformat: null
o_height: null
o_width: null
datetaken: 2011-10-16 23:23:59
dateupload: 1322710696
tags: 
license: 0
latitude: -41.268001
longitude: 174.783897
accuracy: 13
views: 57
interestingness: 51 out of 216

photo: 6433922941 fbe46501bf 7032
owner: 67146657@N00
title: Observer
originalsecret: a5768fe432
originalformat: jpg
o_height: 1080
o_width: 1620
datetaken: 2011-09-09 06:01:32
dateupload: 1322703916
tags: portrait concert mac outdoor candid telephoto viewer onlooker concertgoer northwestmuseumofartsandculture seekingtheelephant
license: 0
latitude: 47.656911
longitude: -117.44566
accuracy: 16
views: 47
interestingness: 52 out of 216

photo: 6434752213 d889600e3d 7035
owner: 41229342@N05
title: Night Photowalk - Christmas Lights Bokeh
originalsecret: null
originalformat: null
o_height: null
o_width: null
datetaken: 2011-11-30 21:03:51
dateupload: 1322716319
tags: christmas xmas uk blue decorations red england orange white color colour tree green yellow night lights photo gallery minolta time leicestershire britain walk sony leicester photographic peoples beercan 200 photowalk 1750 17 alpha 50 tamron 70 450 70200 a450
license: 0
latitude: 52.635823
longitude: -1.134917
accuracy: 16
views: 114
interestingness: 53 out of 216

photo: 6434206967 a90a12a45c 7172
owner: 22969438@N02
title: Luminescent cup "Produced in Dunhuang"...
originalsecret: 148dafe7c9
originalformat: jpg
o_height: 1980
o_width: 2640
datetaken: 2011-10-16 10:16:14
dateupload: 1322708030
tags: china g12 bbcatour
license: 0
latitude: 39.334297
longitude: 101.030273
accuracy: 4
views: 37
interestingness: 54 out of 216

photo: 6434780561 c704fe0e1b 7005
owner: 31602258@N07
title: BOOKOFME "Rosa magic perfume" ?
originalsecret: d599c71133
originalformat: jpg
o_height: 900
o_width: 902
datetaken: 2011-11-30 21:19:55
dateupload: 1322716795
tags: red flower art fleur rose illustration garden painting notebook book berry paint artist drawing diary journal jardin rosa bretagne sketchbook dessin peinture drawer draw artbook artjournal artiste croquis framboisine locqu?nol? ?inter framboisineberry carnetdartiste
license: 0
latitude: 48.625392
longitude: -3.861608
accuracy: 13
views: 83
interestingness: 55 out of 216

photo: 6241115311 ddc350caf8 6104
owner: 36989019@N08
title: Exposure  "Nature gone wild"
originalsecret: bd4fd984e4
originalformat: jpg
o_height: 1434
o_width: 1933
datetaken: 2011-07-22 14:24:46
dateupload: 1322699086
tags: california travel nature train colorado july amtrak zephyr mooning 2011 gorecanyon mooningthezephyr
license: 0
latitude: 40.01273
longitude: -106.481275
accuracy: 11
views: 66
interestingness: 56 out of 216

photo: 6434704485 2e3b9feea5 7154
owner: 7305851@N07
title: Thanksgiving in Troup
originalsecret: null
originalformat: null
o_height: null
o_width: null
datetaken: 2011-11-26 16:02:56
dateupload: 1322708263
tags: ranch fall landscape geotagged texas unitedstates tx thanksgivingweekend hdr lightroom troup 2011 3xp photomatix canonef50mmf18ii tonemapped 2ev tthdr greengrasses realistichdr detailsenhancer canoneos7d fisherranch ?ianaberle geo:lat=32155568 geo:lon=95194178
license: 0
latitude: 32.155568
longitude: -95.194178
accuracy: 14
views: 49
interestingness: 57 out of 216

photo: 6433552987 63c9d3830c 7014
owner: 13367398@N07
title: 20111130042811 (31)full rsz s notes
originalsecret: null
originalformat: null
o_height: null
o_width: null
datetaken: 2011-11-30 04:33:59
dateupload: 1322698379
tags: earth australia science aliens research infrared plasma nightsky universe cosmos quantum entities quarks dimensional anomalies quantumtheory dimensionalentities infraredlasers laserilluminated plasmaentities photonaccumilators
license: 0
latitude: -32.685899
longitude: 151.400565
accuracy: 16
views: 46
interestingness: 58 out of 216

photo: 6434750591 ff8c915e32 7035
owner: 41229342@N05
title: Night Photowalk - Fountain
originalsecret: null
originalformat: null
o_height: null
o_width: null
datetaken: 2011-11-30 19:56:42
dateupload: 1322716291
tags: christmas xmas uk blue decorations red england orange white color colour tree green yellow night lights photo gallery minolta time leicestershire britain walk sony leicester photographic peoples beercan 200 photowalk 1750 17 alpha 50 tamron 70 450 70200 a450
license: 0
latitude: 52.633714
longitude: -1.13231
accuracy: 16
views: 46
interestingness: 59 out of 216

photo: 6433553365 04e326e249 7156
owner: 13367398@N07
title: 20111130042811 (31)f (c1) (1) rsz tag
originalsecret: null
originalformat: null
o_height: null
o_width: null
datetaken: 2011-11-30 04:33:59
dateupload: 1322698385
tags: earth australia science aliens research infrared plasma nightsky universe cosmos quantum entities quarks dimensional anomalies quantumtheory dimensionalentities infraredlasers laserilluminated plasmaentities photonaccumilators
license: 0
latitude: -32.685832
longitude: 151.400608
accuracy: 16
views: 34
interestingness: 60 out of 216

photo: 6434654077 fa80ce368d 7151
owner: 57706322@N05
title: Mundane-2487
originalsecret: null
originalformat: null
o_height: null
o_width: null
datetaken: 2011-11-30 02:19:21
dateupload: 1322714659
tags: nightphotography blur colors night canon chirstmas bokhe
license: 0
latitude: 41.884151
longitude: -87.632408
accuracy: 11
views: 42
interestingness: 61 out of 216

photo: 6434470651 3b4edf1dd8 7014
owner: 22969438@N02
title: Street Market at night, Dunhuang, China.
originalsecret: 82f3611c63
originalformat: jpg
o_height: 1962
o_width: 2616
datetaken: 2011-10-16 09:57:25
dateupload: 1322711948
tags: china night market dunhuang g12 bbcatour
license: 0
latitude: 39.791654
longitude: 99.580078
accuracy: 4
views: 42
interestingness: 62 out of 216

photo: 6434411355 5eb12d49f6 7147
owner: 56011797@N03
title: 
originalsecret: af8463a6cf
originalformat: jpg
o_height: 1000
o_width: 707
datetaken: 2011-11-16 17:33:45
dateupload: 1322711081
tags: africa animal animals standing stand longneck antelope afrika somalia somaliland hargeisa standup afrique standingup somalie hargeysa animaleating
license: 0
latitude: 9.560529
longitude: 44.060169
accuracy: 11
views: 75
interestingness: 63 out of 216

photo: 6434399725 b373f2ea3e 7175
owner: 45127276@N05
title: Payaso
originalsecret: 0a9a54502e
originalformat: jpg
o_height: 681
o_width: 1024
datetaken: 2011-11-26 16:29:24
dateupload: 1322710925
tags: smile face geotagged colombia pentax clown kr 75300mm huila f456 75300mmf456 aipe sigmadlzoom75300mm1456 pentaxkr arlequinessaltarines alvaroandresvargassanchez geo:lat=322127149223963 geo:lon=7523709435847474
license: 3
latitude: 3.221271
longitude: -75.237094
accuracy: 16
views: 36
interestingness: 64 out of 216

photo: 6433999321 aff26e286c 7160
owner: 45150269@N04
title: Lately
originalsecret: null
originalformat: null
o_height: null
o_width: null
datetaken: 2011-11-20 09:52:09
dateupload: 1322705037
tags: church canon 50mm lights necklace worship guitar jeans strap flare acoustic leader 18 elevation beanie 60d
license: 0
latitude: 35.11798
longitude: -80.720489
accuracy: 11
views: 38
interestingness: 65 out of 216

photo: 6433540183 ef5b169d5e 7168
owner: 35715563@N04
title: B & O steam on Youghiogheny Bridge at Greene Jct
originalsecret: c5e7c4b557
originalformat: jpg
o_height: 459
o_width: 770
datetaken: 2011-11-30 20:39:24
dateupload: 1322698164
tags: county ohio pennsylvania south bottom el baltimore junction western wheeler bo greene fayette youghiogheny em1 connellsville jct bowest
license: 0
latitude: 39.993955
longitude: -79.594402
accuracy: 16
views: 57
interestingness: 66 out of 216

photo: 6434431933 f076a4046b 7152
owner: 31864297@N02
title: 334/365 - detour
originalsecret: null
originalformat: null
o_height: null
o_width: null
datetaken: 2011-11-30 16:15:54
dateupload: 1322711382
tags: bridge sunset river wednesday wa 365 wordy snohomish snohomishriver
license: 0
latitude: 47.90892
longitude: -122.09321
accuracy: 13
views: 11
interestingness: 67 out of 216

photo: 6433979325 d9f085e79a 7005
owner: 57639431@N00
title: Along Old Almonte Road #1
originalsecret: f78398c3e8
originalformat: jpg
o_height: 1600
o_width: 2400
datetaken: 2011-11-25 13:14:20
dateupload: 1322704739
tags: topazadjust oldalmonteroad
license: 3
latitude: 45.273195
longitude: -76.033716
accuracy: 16
views: 20
interestingness: 68 out of 216

photo: 6433529975 69a637caa9 7007
owner: 30747348@N00
title: St_Stephens_Church_Windsor_UK_1
originalsecret: null
originalformat: null
o_height: null
o_width: null
datetaken: 2011-12-01 00:04:44
dateupload: 1322697999
tags: uk church st interior pano 360 windsor stephens clewer
license: 0
latitude: 51.482705
longitude: -0.619214
accuracy: 16
views: 14
interestingness: 69 out of 216

photo: 6433543545 cabd0e2d06 7005
owner: 67968452@N00
title: PhotonQ-John Bohannon Dance Your Ph.D
originalsecret: ccf271a5c9
originalformat: jpg
o_height: 684
o_width: 912
datetaken: 2011-12-01 01:10:20
dateupload: 1322698400
tags: brussels ted black john fun creativity dance movement europe belgium belgique label bruxelles danse your conference vs phd powerpoint bohannon palaisdesbeauxarts bozar 2011 photonquantique tedx danceyourphd johnbohannon
license: 3
latitude: 50.843982
longitude: 4.358519
accuracy: 16
views: 99
interestingness: 70 out of 216

photo: 6434403331 1dd6aea984 7004
owner: 45127276@N05
title: 3
originalsecret: fe5340a51d
originalformat: jpg
o_height: 681
o_width: 1024
datetaken: 2011-11-26 16:23:25
dateupload: 1322710971
tags: sepia geotagged colombia pentax clown kr 75300mm huila f456 75300mmf456 aipe sigmadlzoom75300mm1456 pentaxkr arlequinessaltarines alvaroandresvargassanchez geo:lat=3221283 geo:lon=75237062
license: 3
latitude: 3.221283
longitude: -75.237062
accuracy: 16
views: 44
interestingness: 71 out of 216

photo: 6434401629 5449fb11fc 7150
owner: 45127276@N05
title: Payaso
originalsecret: 86883989a9
originalformat: jpg
o_height: 681
o_width: 1024
datetaken: 2011-11-26 17:15:06
dateupload: 1322710948
tags: face geotagged colombia pentax clown kr 75300mm huila f456 75300mmf456 aipe sigmadlzoom75300mm1456 pentaxkr arlequinessaltarines alvaroandresvargassanchez geo:lat=3221079474182366 geo:lon=7523588182803343
license: 3
latitude: 3.221079
longitude: -75.235881
accuracy: 16
views: 37
interestingness: 72 out of 216

photo: 6434752647 184e6f27df 7007
owner: 41229342@N05
title: Night Photowalk - The Leicester Seamstress
originalsecret: null
originalformat: null
o_height: null
o_width: null
datetaken: 2011-11-30 21:22:35
dateupload: 1322716326
tags: christmas xmas uk blue decorations red england orange white color colour tree green yellow night lights photo gallery minolta time leicestershire britain walk sony leicester photographic peoples beercan 200 photowalk 1750 17 alpha 50 tamron 70 450 70200 a450
license: 0
latitude: 52.633818
longitude: -1.134381
accuracy: 16
views: 31
interestingness: 73 out of 216

photo: 6434610209 e99d80569a 7021
owner: 22198509@N03
title: The Inexorable Flow of Time
originalsecret: null
originalformat: null
o_height: null
o_width: null
datetaken: 2011-11-29 13:42:34
dateupload: 1322713991
tags: 
license: 0
latitude: 37.808868
longitude: -122.366323
accuracy: 13
views: 77
interestingness: 74 out of 216

photo: 6433733689 d76c0d4bab 7148
owner: 10455329@N08
title: Ladyface Mountain
originalsecret: null
originalformat: null
o_height: null
o_width: null
datetaken: 2011-11-29 17:28:55
dateupload: 1322701102
tags: reflection landscape peak cornell southerncalifornia santamonicamountains sunsetlight chumash agourahills ladyface
license: 0
latitude: 34.12511
longitude: -118.749804
accuracy: 14
views: 16
interestingness: 75 out of 216

photo: 6433553571 57c6dbbaf7 7014
owner: 13367398@N07
title: 20111130042811 (31)f (c1) (2)rotated rsz tag
originalsecret: null
originalformat: null
o_height: null
o_width: null
datetaken: 2011-11-30 04:33:59
dateupload: 1322698389
tags: earth australia science aliens research infrared plasma nightsky universe cosmos quantum entities quarks dimensional anomalies quantumtheory dimensionalentities infraredlasers laserilluminated plasmaentities photonaccumilators
license: 0
latitude: -32.685935
longitude: 151.400554
accuracy: 16
views: 33
interestingness: 76 out of 216

photo: 6434226879 0dd607c53e 7147
owner: 66655990@N05
title: rainier+bridge_0721
originalsecret: null
originalformat: null
o_height: null
o_width: null
datetaken: 2011-11-30 16:55:55
dateupload: 1322708367
tags: bridge mountain nikon mountrainier tacoma d200
license: 0
latitude: 47.26006
longitude: -122.418782
accuracy: 16
views: 28
interestingness: 77 out of 216

photo: 6433530373 83d02486d4 7146
owner: 30747348@N00
title: St_Stephens_Church_Windsor_UK_2
originalsecret: null
originalformat: null
o_height: null
o_width: null
datetaken: 2011-12-01 00:04:49
dateupload: 1322698005
tags: uk church st interior pano 360 windsor stephens clewer
license: 0
latitude: 51.482705
longitude: -0.619214
accuracy: 16
views: 12
interestingness: 78 out of 216

photo: 6434504123 54d3210638 7033
owner: 7725274@N08
title: Iglesia en la Venta
originalsecret: null
originalformat: null
o_height: null
o_width: null
datetaken: 2011-11-27 10:55:24
dateupload: 1322712441
tags: canon venezuela hdr m?rida canon500d photomatix canont1i
license: 0
latitude: 8.466589
longitude: -71.154991
accuracy: 1
views: 67
interestingness: 79 out of 216

photo: 6434003949 a9420ea153 7162
owner: 7202153@N03
title: Emery's early iPod - an Edison phonograph - Kolb residence - Grand Canyon Village
originalsecret: 4df07a354a
originalformat: jpg
o_height: 3000
o_width: 4000
datetaken: 2011-11-17 15:28:30
dateupload: 1322705101
tags: park arizona building history home architecture movie studio nationalpark village district grandcanyon south grand photographic canyon historic national residence rim southrim kolb grandcanyonnationalpark nationalhistoricdistrict kolbstudio alhikesaz arizonamemoryproject gc2011 kolbresidence grandcanyonvillagehistoricdistrict
license: 2
latitude: 36.057538
longitude: -112.145744
accuracy: 16
views: 40
interestingness: 80 out of 216

photo: 6433977517 d1f4fc152c 7011
owner: 24084206@N08
title: CN who? Looks more like 2008!
originalsecret: 135d6d76bb
originalformat: jpg
o_height: 2049
o_width: 2727
datetaken: 2007-01-01 12:52:20
dateupload: 1322704714
tags: hill crest eje 673 sd382
license: 0
latitude: 41.56387
longitude: -88.102294
accuracy: 16
views: 43
interestingness: 81 out of 216

photo: 6433551459 229bed00cb 7032
owner: 13367398@N07
title: 20111130042811 (29)c2 rsz tag
originalsecret: null
originalformat: null
o_height: null
o_width: null
datetaken: 2011-11-30 04:33:45
dateupload: 1322698353
tags: earth australia science aliens research infrared plasma nightsky universe cosmos quantum entities quarks dimensional anomalies quantumtheory dimensionalentities infraredlasers laserilluminated plasmaentities photonaccumilators
license: 0
latitude: -32.685944
longitude: 151.400608
accuracy: 16
views: 36
interestingness: 82 out of 216

photo: 6434413877 65913e25af 7015
owner: 24145711@N02
title: Long Neck Karen Girl
originalsecret: null
originalformat: null
o_height: null
o_width: null
datetaken: 2011-11-30 22:45:16
dateupload: 1322711116
tags: longneck chiangmai hilltribe karentribe totallythailand
license: 0
latitude: 18.850898
longitude: 99.080543
accuracy: 11
views: 21
interestingness: 83 out of 216

photo: 6434400583 f49068bc2a 7016
owner: 45127276@N05
title: Payaso
originalsecret: cd696e123b
originalformat: jpg
o_height: 681
o_width: 1024
datetaken: 2011-11-26 17:13:59
dateupload: 1322710935
tags: smile face geotagged colombia pentax clown kr 75300mm huila f456 75300mmf456 aipe sigmadlzoom75300mm1456 pentaxkr arlequinessaltarines alvaroandresvargassanchez geo:lat=3220918321694106 geo:lon=75235882
license: 3
latitude: 3.220918
longitude: -75.235882
accuracy: 16
views: 36
interestingness: 84 out of 216

photo: 6433548509 34620e22e8 7154
owner: 59989559@N03
title: Kp_It_Tgthr-3kl
originalsecret: 4934d185eb
originalformat: jpg
o_height: 2488
o_width: 3662
datetaken: 2011-11-30 14:22:34
dateupload: 1322698304
tags: winter truck nikon streetscene vehicles chevy gmc hdr westyellowstone nikond40x
license: 0
latitude: 44.660354
longitude: -111.107552
accuracy: 16
views: 32
interestingness: 85 out of 216

photo: 6434757735 93370814a8 7167
owner: 68610529@N03
title: stef
originalsecret: null
originalformat: null
o_height: null
o_width: null
datetaken: 2011-12-01 13:13:33
dateupload: 1322716413
tags: 
license: 0
latitude: 52.1082
longitude: 5.32986
accuracy: 2
views: 10
interestingness: 86 out of 216

photo: 6434649093 79b5533bd4 7026
owner: 53024206@N08
title: The Dark side of the Moon
originalsecret: null
originalformat: null
o_height: null
o_width: null
datetaken: 2010-07-14 21:04:01
dateupload: 1322714582
tags: moon lune dark space croissant
license: 0
latitude: 34.002581
longitude: -118.369445
accuracy: 8
views: 22
interestingness: 87 out of 216

photo: 6433767733 86713d6d15 7162
owner: 64620762@N02
title: N706AS - Alaska Airlines - Boeing 737-490
originalsecret: null
originalformat: null
o_height: null
o_width: null
datetaken: 2011-11-28 14:00:00
dateupload: 1322701610
tags: canada alaska vancouver plane airplane britishcolumbia aviation boeing airlines yvr airliner 737 n706as
license: 0
latitude: 49.18577
longitude: -123.16914
accuracy: 13
views: 28
interestingness: 88 out of 216

photo: 6434669291 c00c23aedb 7020
owner: 93254204@N00
title: ...My Job
originalsecret: null
originalformat: null
o_height: null
o_width: null
datetaken: 2011-11-30 14:07:47
dateupload: 1322714892
tags: autumn holland fall netherlands amsterdam europe wicked nophotoshop lifeisgood android app carpediem htc 2011 mobilephonecam amstersam reflectah amstersm amsterdamthebestcityintheworld reflectionsofamsterdam checkoutmywebsitewwwamstersamcom wickedreflections thewickedreflectah amstersmthewickedreflectah htcdesire camera360 htcdesiremobilephonecam
license: 0
latitude: 52.372887
longitude: 4.892821
accuracy: 14
views: 100
interestingness: 89 out of 216

photo: 6434276405 3a2b82912e 7160
owner: 52995822@N05
title: juvenile eagle flyby
originalsecret: null
originalformat: null
o_height: null
o_width: null
datetaken: 2011-11-30 09:30:45
dateupload: 1322709112
tags: canada nikon eagle britishcolumbia wildlife baldeagle bald raptor immature juvenile baldy birdofprey d7000 sigma150500apodgos
license: 0
latitude: 49.261867
longitude: -121.950387
accuracy: 13
views: 19
interestingness: 90 out of 216

photo: 6434004439 140fc0c172 7173
owner: 7202153@N03
title: Historic Kolb Studio - Grand Canyon - South Rim
originalsecret: 8fbe2c29f8
originalformat: jpg
o_height: 2468
o_width: 3688
datetaken: 2011-11-17 14:22:48
dateupload: 1322705108
tags: park arizona building history home architecture movie studio nationalpark village district flag grandcanyon south americanflag grand photographic canyon historic national american residence rim southrim kolb grandcanyonnationalpark nationalhistoricdistrict kolbstudio alhikesaz arizonamemoryproject gc2011 kolbresidence grandcanyonvillagehistoricdistrict
license: 2
latitude: 36.057538
longitude: -112.145744
accuracy: 16
views: 63
interestingness: 91 out of 216

photo: 6433879443 c0db0c9ece 7004
owner: 37749578@N00
title: Scratchin' and Yawnin'
originalsecret: null
originalformat: null
o_height: null
o_width: null
datetaken: 2011-03-24 13:53:45
dateupload: 1322703253
tags: cute washington funny wildlife humor yawn tacoma raccoon scratch tame scratching yawning pointdefiance img0653 img0644 canont2i
license: 0
latitude: 47.317806
longitude: -122.542362
accuracy: 16
views: 19
interestingness: 92 out of 216

photo: 6433530753 72f249a9ea 7146
owner: 30747348@N00
title: St_Stephens_Church_Windsor_UK_3
originalsecret: null
originalformat: null
o_height: null
o_width: null
datetaken: 2011-12-01 00:04:53
dateupload: 1322698011
tags: uk church st interior pano 360 windsor stephens clewer
license: 0
latitude: 51.482705
longitude: -0.619214
accuracy: 16
views: 12
interestingness: 93 out of 216

photo: 6434601457 0ff8157581 7026
owner: 15969227@N04
title: Masonic Hall - 73 West 23rd Street, New York
originalsecret: ba125a5278
originalformat: jpg
o_height: 4147
o_width: 3110
datetaken: 2011-10-21 09:41:48
dateupload: 1322713863
tags: nyc newyorkcity ny newyork building architecture chelsea manhattan flatirondistrict ladiesmile fraternalorganization harrypknowles
license: 0
latitude: 40.743074
longitude: -73.992592
accuracy: 16
views: 37
interestingness: 94 out of 216

photo: 6434381185 887e7c7090 7158
owner: 44621966@N00
title: Taking off B&W
originalsecret: e67218cfd3
originalformat: jpg
o_height: 2592
o_width: 3872
datetaken: 2011-11-29 12:31:34
dateupload: 1322710660
tags: chicago bird water wings waves lakemichigan lakefront chicagoist featured yourmorningwakeupcall
license: 0
latitude: 41.962066
longitude: -87.63261
accuracy: 15
views: 58
interestingness: 95 out of 216

photo: 6434221409 5f859ce82c 7005
owner: 31154073@N05
title: American Avocet
originalsecret: null
originalformat: null
o_height: null
o_width: null
datetaken: 2011-10-19 10:00:26
dateupload: 1322708277
tags: bombayhook kh0831
license: 0
latitude: 39.257977
longitude: -75.46174
accuracy: 13
views: 27
interestingness: 96 out of 216

photo: 6434164453 a958960a66 7018
owner: 86544988@N00
title: light in  the woods
originalsecret: null
originalformat: null
o_height: null
o_width: null
datetaken: 2011-11-27 15:40:07
dateupload: 1322707392
tags: park city autumn trees light urban plants brown green fall nature lines walking landscape outside outdoors woods warm view place hiking walk bare hill gray maryland ivy spot baltimore oasis browns land trunks reds invasive grays treetrunks vire druidhill woodberry englishivy druidhillpark slops
license: 0
latitude: 39.32926
longitude: -76.647073
accuracy: 15
views: 26
interestingness: 97 out of 216

photo: 6434701937 bf8b2cbeb5 7160
owner: 58628677@N00
title: Mia Lopez 02
originalsecret: null
originalformat: null
o_height: null
o_width: null
datetaken: 2011-11-30 15:30:56
dateupload: 1322715421
tags: model mia gma7 germanmoreno mastershowman mialopez canoneoskissx4 walangtulugan
license: 0
latitude: 14.500229
longitude: 120.992912
accuracy: 11
views: 120
interestingness: 98 out of 216

photo: 6434094621 e3a9fe225d 7009
owner: 47784495@N06
title: Edmonton Sunset - 1
originalsecret: 4c828fdc2d
originalformat: jpg
o_height: 1520
o_width: 2593
datetaken: 2011-11-28 16:53:52
dateupload: 1322706399
tags: 
license: 0
latitude: 53.530003
longitude: -113.486795
accuracy: 16
views: 46
interestingness: 99 out of 216

photo: 6433740591 9b47d9fc65 7161
owner: 61084879@N04
title: I see you...
originalsecret: null
originalformat: null
o_height: null
o_width: null
datetaken: 2011-11-30 17:17:16
dateupload: 1322701203
tags: 
license: 0
latitude: 53.479612
longitude: -2.239279
accuracy: 15
views: 7
interestingness: 100 out of 216

photo: 6434399205 1d116cfb35 7005
owner: 10260632@N08
title: deadleaf-0215
originalsecret: null
originalformat: null
o_height: null
o_width: null
datetaken: 2011-11-26 15:16:02
dateupload: 1322710918
tags: detail germantown nature spider woods nikon bokeh maryland nikkor 50mmf18d deadleaf d5000
license: 0
latitude: 39.188227
longitude: -77.295684
accuracy: 11
views: 15
interestingness: 101 out of 216

photo: 6434498891 103e82f649 7164
owner: 42125404@N02
title: A Clear Sky Tonight
originalsecret: ddf1bc3e33
originalformat: jpg
o_height: 790
o_width: 1024
datetaken: 2011-11-30 18:41:29
dateupload: 1322712370
tags: 
license: 0
latitude: 45.500391
longitude: -122.502708
accuracy: 13
views: 16
interestingness: 102 out of 216

photo: 6434438795 0983386266 7167
owner: 8736322@N08
title: Little Peace Tower
originalsecret: null
originalformat: null
o_height: null
o_width: null
datetaken: 2011-11-30 12:52:59
dateupload: 1322711482
tags: ca riverside riversidecalifornia mountrubidoux
license: 0
latitude: 33.984741
longitude: -117.391564
accuracy: 16
views: 68
interestingness: 103 out of 216

photo: 6434294297 89363d7f06 7016
owner: 21374845@N08
title: Canyon Squirrel
originalsecret: c30b564ab9
originalformat: jpg
o_height: 900
o_width: 600
datetaken: 2011-09-17 17:12:42
dateupload: 1322709370
tags: squirrel grandcanyon maricopapoint
license: 0
latitude: 36.07175
longitude: -112.16608
accuracy: 16
views: 12
interestingness: 104 out of 216

photo: 6433688575 90c2469b84 7016
owner: 25218275@N07
title: 334: Quiz Night
originalsecret: null
originalformat: null
o_height: null
o_width: null
datetaken: 2011-11-30 22:39:19
dateupload: 1322700414
tags: beer glass pint quiz tuborg wetherspoons 3652011
license: 0
latitude: 53.419808
longitude: -3.047192
accuracy: 16
views: 14
interestingness: 105 out of 216

photo: 6434306749 f28bff3172 7004
owner: 8820084@N02
title: Austin Downtown Farmer's Market in October
originalsecret: null
originalformat: null
o_height: null
o_width: null
datetaken: 2011-10-29 09:40:55
dateupload: 1322709561
tags: austin geotagged downtown austintexas republicsquare austinfarmersmarket geo:lat=30268152624142072 geo:lon=9774727774932097
license: 0
latitude: 30.268152
longitude: -97.747277
accuracy: 16
views: 16
interestingness: 106 out of 216

photo: 6433749683 a5415cf907 7024
owner: 72098626@N00
title: Central Park Dance Skaters, Oct 2011 - 17
originalsecret: 6ca27a978d
originalformat: jpg
o_height: 3957
o_width: 2639
datetaken: 2011-10-23 15:28:04
dateupload: 1322701338
tags: newyork bottle dancers centralpark manhattan skate centralparkdanceskaters danceskaters
license: 1
latitude: 40.773277
longitude: -73.971356
accuracy: 16
views: 27
interestingness: 107 out of 216

photo: 6479372821 410871b1e1 7008
owner: 21855730@N05
title: ~ China - Tall Palms ~
originalsecret: 5ff3539087
originalformat: jpg
o_height: 750
o_width: 1000
datetaken: 2011-10-31 00:25:21
dateupload: 1322698924
tags: trees sky clouds canon palms eos bluesky palmtrees stevepage talltrees itail staphenpage sx40hs
license: 0
latitude: 18.411541
longitude: 109.395675
accuracy: 11
views: 2
interestingness: 108 out of 216

photo: 6433934235 e98a439130 7006
owner: 62855149@N00
title: Don't just stand there
originalsecret: 4b29414ce6
originalformat: jpg
o_height: 2303
o_width: 2125
datetaken: 2011-11-26 15:16:16
dateupload: 1322704092
tags: london canon poster funny humorous camden candid streetphotography shopwindow camdenhighstreet 40d 1755mmf28is
license: 0
latitude: 51.539228
longitude: -0.142822
accuracy: 16
views: 20
interestingness: 109 out of 216

photo: 6433550011 8fa9f58665 7035
owner: 53595130@N06
title: 1980 Porsche 924
originalsecret: e3824d20c4
originalformat: jpg
o_height: 3000
o_width: 4000
datetaken: 2011-11-26 15:09:25
dateupload: 1322698329
tags: geotagged manchester piccadilly porsche924 2011 greatermanchester nikoncoolpixs570
license: 4
latitude: 53.479088
longitude: -2.234998
accuracy: 16
views: 22
interestingness: 110 out of 216

photo: 6434400525 40bb5475cc 7021
owner: 50655227@N05
title: Nasese Buses HINO - FW 700
originalsecret: null
originalformat: null
o_height: null
o_width: null
datetaken: 2037-07-20 10:24:24
dateupload: 1322710934
tags: bus fiji hino nabua nasese
license: 0
latitude: -18.122039
longitude: 178.45627
accuracy: 16
views: 23
interestingness: 111 out of 216

photo: 6434307385 7707338be6 7001
owner: 8820084@N02
title: Austin Farmer's Market -- Costumed Dog #2
originalsecret: null
originalformat: null
o_height: null
o_width: null
datetaken: 2011-10-29 09:56:56
dateupload: 1322709570
tags: dog austin geotagged downtown austintexas republicsquare austinfarmersmarket costumeddog geo:lat=30267771 geo:lon=97747399
license: 0
latitude: 30.267771
longitude: -97.747399
accuracy: 16
views: 22
interestingness: 112 out of 216

photo: 6434170929 a99b72e477 7014
owner: 77945684@N00
title: Into the World
originalsecret: b3b8fb25fd
originalformat: jpg
o_height: 2325
o_width: 2905
datetaken: 2011-11-27 17:23:04
dateupload: 1322707485
tags: 
license: 2
latitude: 38.920786
longitude: -77.035736
accuracy: 16
views: 10
interestingness: 113 out of 216

photo: 6433887855 a59dd565cd 7007
owner: 59926455@N07
title: Mighty Himalaya.....(view from Tiger Hill)
originalsecret: null
originalformat: null
o_height: null
o_width: null
datetaken: 2011-10-27 02:11:55
dateupload: 1322703372
tags: 
license: 0
latitude: 27.007443
longitude: 88.261756
accuracy: 11
views: 4
interestingness: 114 out of 216

photo: 6434752421 0479a03522 7035
owner: 41229342@N05
title: Night Photowalk - No Entry
originalsecret: null
originalformat: null
o_height: null
o_width: null
datetaken: 2011-11-30 21:16:01
dateupload: 1322716322
tags: christmas xmas uk blue decorations red england orange white color colour tree green yellow night lights photo gallery minolta time leicestershire britain walk sony leicester photographic peoples beercan 200 photowalk 1750 17 alpha 50 tamron 70 450 70200 a450
license: 0
latitude: 52.635205
longitude: -1.136119
accuracy: 16
views: 21
interestingness: 115 out of 216

photo: 6434752317 693ec18fdf 7175
owner: 41229342@N05
title: Night Photowalk - Bokeh
originalsecret: null
originalformat: null
o_height: null
o_width: null
datetaken: 2011-11-30 21:13:20
dateupload: 1322716320
tags: christmas xmas uk blue decorations red england orange white color colour tree green yellow night lights photo gallery minolta time leicestershire britain walk sony leicester photographic peoples beercan 200 photowalk 1750 17 alpha 50 tamron 70 450 70200 a450
license: 0
latitude: 52.635205
longitude: -1.136119
accuracy: 16
views: 26
interestingness: 116 out of 216

photo: 6434751853 8493a38985 7144
owner: 41229342@N05
title: Night Photowalk - Statue
originalsecret: null
originalformat: null
o_height: null
o_width: null
datetaken: 2011-11-30 20:42:26
dateupload: 1322716313
tags: christmas xmas uk blue decorations red england orange white color colour tree green yellow night lights photo gallery minolta time leicestershire britain walk sony leicester photographic peoples beercan 200 photowalk 1750 17 alpha 50 tamron 70 450 70200 a450
license: 0
latitude: 52.635973
longitude: -1.132847
accuracy: 16
views: 37
interestingness: 117 out of 216

photo: 6434751611 6772c5b020 7019
owner: 41229342@N05
title: Night Photowalk - Statue
originalsecret: null
originalformat: null
o_height: null
o_width: null
datetaken: 2011-11-30 20:40:51
dateupload: 1322716309
tags: christmas xmas uk blue decorations red england orange white color colour tree green yellow night lights photo gallery minolta time leicestershire britain walk sony leicester photographic peoples beercan 200 photowalk 1750 17 alpha 50 tamron 70 450 70200 a450
license: 0
latitude: 52.635973
longitude: -1.132847
accuracy: 16
views: 27
interestingness: 118 out of 216

photo: 6434751449 0e81273b1c 7145
owner: 41229342@N05
title: Night Photowalk
originalsecret: null
originalformat: null
o_height: null
o_width: null
datetaken: 2011-11-30 20:35:53
dateupload: 1322716306
tags: christmas xmas uk blue decorations red england orange white color colour tree green yellow night lights photo gallery minolta time leicestershire britain walk sony leicester photographic peoples beercan 200 photowalk 1750 17 alpha 50 tamron 70 450 70200 a450
license: 0
latitude: 52.63498
longitude: -1.132042
accuracy: 16
views: 42
interestingness: 119 out of 216

photo: 6434751285 9a8d9215e1 7170
owner: 41229342@N05
title: Night Photowalk
originalsecret: null
originalformat: null
o_height: null
o_width: null
datetaken: 2011-11-30 20:30:13
dateupload: 1322716303
tags: christmas xmas uk blue decorations red england orange white color colour tree green yellow night lights photo gallery minolta time leicestershire britain walk sony leicester photographic peoples beercan 200 photowalk 1750 17 alpha 50 tamron 70 450 70200 a450
license: 0
latitude: 52.634886
longitude: -1.129306
accuracy: 16
views: 54
interestingness: 120 out of 216

photo: 6434751131 d5d03e64bb 7149
owner: 41229342@N05
title: Night Photowalk - Christmas Tree
originalsecret: null
originalformat: null
o_height: null
o_width: null
datetaken: 2011-11-30 20:19:07
dateupload: 1322716300
tags: christmas xmas uk blue decorations red england orange white color colour tree green yellow night lights photo gallery minolta time leicestershire britain walk sony leicester photographic peoples beercan 200 photowalk 1750 17 alpha 50 tamron 70 450 70200 a450
license: 0
latitude: 52.635211
longitude: -1.127225
accuracy: 16
views: 34
interestingness: 121 out of 216

photo: 6434750873 d338d5a5e0 7002
owner: 41229342@N05
title: Night Photowalk - Christmas Display
originalsecret: null
originalformat: null
o_height: null
o_width: null
datetaken: 2011-11-30 20:07:54
dateupload: 1322716296
tags: christmas xmas uk blue decorations red england orange white color colour tree green yellow night lights photo gallery minolta time leicestershire britain walk sony leicester photographic peoples beercan 200 photowalk 1750 17 alpha 50 tamron 70 450 70200 a450
license: 0
latitude: 52.633714
longitude: -1.13231
accuracy: 16
views: 35
interestingness: 122 out of 216

photo: 6434750355 fbe3da3ac5 7018
owner: 41229342@N05
title: Night Photowalk - Angel
originalsecret: null
originalformat: null
o_height: null
o_width: null
datetaken: 2011-11-30 19:52:09
dateupload: 1322716287
tags: christmas xmas uk blue decorations red england orange white color colour tree green yellow night lights photo gallery minolta time leicestershire britain walk sony leicester photographic peoples beercan 200 photowalk 1750 17 alpha 50 tamron 70 450 70200 a450
license: 0
latitude: 52.633782
longitude: -1.133233
accuracy: 16
views: 20
interestingness: 123 out of 216

photo: 6434750193 012317c8a4 7013
owner: 41229342@N05
title: Night Photowalk
originalsecret: null
originalformat: null
o_height: null
o_width: null
datetaken: 2011-11-30 19:38:12
dateupload: 1322716284
tags: christmas xmas uk blue decorations red england orange white color colour tree green yellow night lights photo gallery minolta time leicestershire britain walk sony leicester photographic peoples beercan 200 photowalk 1750 17 alpha 50 tamron 70 450 70200 a450
license: 0
latitude: 52.633088
longitude: -1.133791
accuracy: 16
views: 20
interestingness: 124 out of 216

photo: 6434402889 ffd5622840 7169
owner: 45127276@N05
title: Payaso
originalsecret: 415f7d9f1e
originalformat: jpg
o_height: 681
o_width: 1024
datetaken: 2011-11-26 16:39:10
dateupload: 1322710964
tags: smile umbrella geotagged colombia pentax clown kr 75300mm huila f456 75300mmf456 aipe sigmadlzoom75300mm1456 pentaxkr arlequinessaltarines alvaroandresvargassanchez geo:lat=3221283 geo:lon=75237062
license: 3
latitude: 3.221283
longitude: -75.237062
accuracy: 16
views: 27
interestingness: 125 out of 216

photo: 6434398663 2f10ffc33a 7014
owner: 45127276@N05
title: Payaso
originalsecret: e22a862545
originalformat: jpg
o_height: 681
o_width: 1024
datetaken: 2011-11-26 16:19:44
dateupload: 1322710911
tags: smile face geotagged colombia pentax clown kitlens kr 1855mm huila f3556 aipe dal1855mmf3556al smcpentaxda1855mmf3556alii pentaxkr arlequinessaltarines alvaroandresvargassanchez geo:lat=32211853049228374 geo:lon=7523655755819703
license: 3
latitude: 3.221185
longitude: -75.236557
accuracy: 16
views: 23
interestingness: 126 out of 216

photo: 6434309659 96955053f5 7005
owner: 8820084@N02
title: Bernese Mountain Dog
originalsecret: null
originalformat: null
o_height: null
o_width: null
datetaken: 2011-10-29 10:27:13
dateupload: 1322709604
tags: dog austin geotagged downtown austintexas bernesemountaindog bernersennenhund republicsquare austinfarmersmarket geo:lat=3026767819490401 geo:lon=9774750361838528
license: 0
latitude: 30.267678
longitude: -97.747503
accuracy: 16
views: 20
interestingness: 127 out of 216

photo: 6434309357 3976671da5 7163
owner: 8820084@N02
title: .
originalsecret: null
originalformat: null
o_height: null
o_width: null
datetaken: 2011-10-29 10:20:59
dateupload: 1322709600
tags: dog austin geotagged downtown austintexas republicsquare austinfarmersmarket costumeddog geo:lat=302678745673167 geo:lon=9774762738161468
license: 0
latitude: 30.267874
longitude: -97.747627
accuracy: 16
views: 41
interestingness: 128 out of 216

photo: 6434309109 a35fb9857b 7141
owner: 8820084@N02
title: Eating Dog Treats
originalsecret: null
originalformat: null
o_height: null
o_width: null
datetaken: 2011-10-29 10:18:49
dateupload: 1322709596
tags: dog austin geotagged downtown austintexas republicsquare austinfarmersmarket costumeddog geo:lat=30267875 geo:lon=97747627
license: 0
latitude: 30.267875
longitude: -97.747627
accuracy: 16
views: 22
interestingness: 129 out of 216

photo: 6434308793 61be0f8de4 7161
owner: 8820084@N02
title: Costumed Dog Parade
originalsecret: null
originalformat: null
o_height: null
o_width: null
datetaken: 2011-10-29 10:13:12
dateupload: 1322709591
tags: dog austin geotagged downtown austintexas republicsquare austinfarmersmarket costumeddog geo:lat=3026779309699954 geo:lon=9774735073247143
license: 0
latitude: 30.267793
longitude: -97.74735
accuracy: 16
views: 22
interestingness: 130 out of 216

photo: 6434308081 25680c2e6a 7163
owner: 8820084@N02
title: Austin Farmer's Market -- Costumed Dog #3
originalsecret: null
originalformat: null
o_height: null
o_width: null
datetaken: 2011-10-29 10:04:38
dateupload: 1322709581
tags: dog austin geotagged downtown austintexas republicsquare austinfarmersmarket costumeddog geo:lat=30267770514905198 geo:lon=9774739927116394
license: 0
latitude: 30.26777
longitude: -97.747399
accuracy: 16
views: 32
interestingness: 131 out of 216

photo: 6434307743 7a39e8eb41 7033
owner: 8820084@N02
title: Austin Farmer's Market -- Costumed Dogs
originalsecret: null
originalformat: null
o_height: null
o_width: null
datetaken: 2011-10-29 10:01:33
dateupload: 1322709576
tags: dog austin geotagged downtown austintexas republicsquare austinfarmersmarket costumeddog geo:lat=30267771 geo:lon=97747399
license: 0
latitude: 30.267771
longitude: -97.747399
accuracy: 16
views: 25
interestingness: 132 out of 216

photo: 6434168227 d54f402698 7158
owner: 8348059@N02
title: P1260782a
originalsecret: null
originalformat: null
o_height: null
o_width: null
datetaken: 2011-10-03 09:05:16
dateupload: 1322707446
tags: mountains germany landscape bayern deutschland bavaria berchtesgaden eaglesnest kehlsteinhaus picnik
license: 0
latitude: 47.610806
longitude: 13.050127
accuracy: 14
views: 4
interestingness: 133 out of 216

photo: 6433804631 95eb4201e5 7142
owner: 51711390@N08
title: Custom Metal Design | Specialty Materials | Metal Decor Design | iMetal | I-5 Design & Manufacture
originalsecret: 86844baa6d
originalformat: jpg
o_height: 3302
o_width: 2552
datetaken: 2011-11-30 16:18:08
dateupload: 1322702155
tags: custommetal imetal i5design specialtyfinishes specialtymaterials i5designmanufacture custommetaldesign metald?cordesign specialtyd?cor specialtyd?cordesign specialtymetald?cor specialtyd?cormaterial custommetald?cor custommetald?cordesign custommetalmaterial custommetalpatterns custommetalelement
license: 3
latitude: 47.04467
longitude: -122.823158
accuracy: 11
views: 8
interestingness: 134 out of 216

photo: 6433742125 492e454179 7173
owner: 72098626@N00
title: Central Park Dance Skaters, Oct 2011 - 15
originalsecret: 41a3582004
originalformat: jpg
o_height: 2801
o_width: 4201
datetaken: 2011-10-23 15:26:58
dateupload: 1322701227
tags: newyork dancers mayor centralpark manhattan skate beret centralparkdanceskaters themayor danceskaters
license: 1
latitude: 40.773277
longitude: -73.971356
accuracy: 16
views: 19
interestingness: 135 out of 216

photo: 6433734899 d16df83274 7007
owner: 72098626@N00
title: Central Park Dance Skaters, Oct 2011 - 13
originalsecret: e658419ddd
originalformat: jpg
o_height: 2810
o_width: 4215
datetaken: 2011-10-23 15:24:11
dateupload: 1322701120
tags: newyork sunglasses scarf couple dancers dancing centralpark manhattan skate centralparkdanceskaters danceskaters
license: 1
latitude: 40.773277
longitude: -73.971356
accuracy: 16
views: 43
interestingness: 136 out of 216

photo: 6433724843 40eabba012 7019
owner: 72098626@N00
title: Central Park Dance Skaters, Oct 2011 - 11
originalsecret: 14416ee88c
originalformat: jpg
o_height: 4928
o_width: 3264
datetaken: 2011-10-23 15:19:53
dateupload: 1322700963
tags: newyork sunglasses dancers centralpark manhattan skate yellowshirt centralparkdanceskaters yellowclothes danceskaters
license: 1
latitude: 40.773277
longitude: -73.971356
accuracy: 16
views: 19
interestingness: 137 out of 216

photo: 6433640531 f302b64498 7020
owner: 24880758@N02
title: Ward of Scousburgh Type 700 Monitor Station
originalsecret: null
originalformat: null
o_height: null
o_width: null
datetaken: 2004-06-06 10:09:18
dateupload: 1322699701
tags: station monitor type ward 700 canmore scousburgh rcahms canmore:usr=677 canmore:id=273249
license: 0
latitude: 59.952433
longitude: -1.308543
accuracy: 16
views: 9
interestingness: 138 out of 216

photo: 6433636435 211b6a3899 7166
owner: 24880758@N02
title: Ward of Scousburgh Type 700 Monitor Station
originalsecret: null
originalformat: null
o_height: null
o_width: null
datetaken: 2004-06-06 10:09:00
dateupload: 1322699642
tags: station monitor type ward 700 canmore scousburgh rcahms canmore:usr=677 canmore:id=273249
license: 0
latitude: 59.952433
longitude: -1.308543
accuracy: 16
views: 4
interestingness: 139 out of 216

photo: 6433629969 8e1dd86a98 7152
owner: 24880758@N02
title: Ward of Scousburgh Type 700 Monitor Station
originalsecret: null
originalformat: null
o_height: null
o_width: null
datetaken: 2004-06-06 10:08:37
dateupload: 1322699553
tags: station monitor type ward 700 canmore scousburgh rcahms canmore:usr=677 canmore:id=273249
license: 0
latitude: 59.952433
longitude: -1.308543
accuracy: 16
views: 3
interestingness: 140 out of 216

photo: 6433629845 ae5a6f2f9f 7156
owner: 26982917@N02
title: Boeing, 747-481, N322SG, Atlas Air (Sonair)
originalsecret: null
originalformat: null
o_height: null
o_width: null
datetaken: 2010-02-18 11:11:24
dateupload: 1322699551
tags: china window canon hongkong ana view tail wing engine sigma 7d sar 1250 allnipponairways 1770mm 30322 ja405a oasishongkong n322sg 303221250 0blfd
license: 0
latitude: 22.301008
longitude: 113.900241
accuracy: 16
views: 159
interestingness: 141 out of 216

photo: 6433623659 b17822c97f 7158
owner: 24880758@N02
title: Ward of Scousburgh Type 700 Monitor Station
originalsecret: null
originalformat: null
o_height: null
o_width: null
datetaken: 2004-06-06 10:08:34
dateupload: 1322699460
tags: station monitor type ward 700 canmore scousburgh rcahms canmore:usr=677 canmore:id=273249
license: 0
latitude: 59.952433
longitude: -1.308543
accuracy: 16
views: 2
interestingness: 142 out of 216

photo: 6433616201 065e4d36b6 7156
owner: 24880758@N02
title: Ward of Scousburgh Type 700 Monitor Station
originalsecret: null
originalformat: null
o_height: null
o_width: null
datetaken: 2004-06-06 10:08:13
dateupload: 1322699349
tags: station monitor type ward 700 canmore scousburgh rcahms canmore:usr=677 canmore:id=273249
license: 0
latitude: 59.952433
longitude: -1.308543
accuracy: 16
views: 1
interestingness: 143 out of 216

photo: 6433609041 8ee80ebe3e 7169
owner: 24880758@N02
title: Ward of Scousburgh Type 700 Monitor Station
originalsecret: null
originalformat: null
o_height: null
o_width: null
datetaken: 2004-06-06 10:07:20
dateupload: 1322699245
tags: station monitor type ward 700 canmore scousburgh rcahms canmore:usr=677 canmore:id=273249
license: 0
latitude: 59.952433
longitude: -1.308543
accuracy: 16
views: 0
interestingness: 144 out of 216

photo: 6433603341 5812a7ae7b 7030
owner: 24880758@N02
title: Ward of Scousburgh Type 700 Monitor Station
originalsecret: null
originalformat: null
o_height: null
o_width: null
datetaken: 2004-06-06 10:07:01
dateupload: 1322699157
tags: station monitor type ward 700 canmore scousburgh rcahms canmore:usr=677 canmore:id=273249
license: 0
latitude: 59.952433
longitude: -1.308543
accuracy: 16
views: 0
interestingness: 145 out of 216

photo: 6433596813 467418e4fb 7156
owner: 24880758@N02
title: Ward of Scousburgh Type 700 Monitor Station
originalsecret: null
originalformat: null
o_height: null
o_width: null
datetaken: 2004-06-06 10:05:36
dateupload: 1322699061
tags: station monitor type ward 700 canmore scousburgh rcahms canmore:usr=677 canmore:id=273249
license: 0
latitude: 59.952433
longitude: -1.308543
accuracy: 16
views: 1
interestingness: 146 out of 216

photo: 6433593117 6b67735d52 7154
owner: 38308378@N05
title: The cry of the marmot
originalsecret: e02095c964
originalformat: jpg
o_height: 2476
o_width: 3728
datetaken: 2009-07-07 19:07:34
dateupload: 1322699008
tags: blue trees lake tree nature animal walking colorado hiking walk indian boulder hike trail area co marmot mitchell wilderness ward peaks brainard recreational
license: 2
latitude: 40.089169
longitude: -105.602474
accuracy: 14
views: 11
interestingness: 147 out of 216

photo: 6433592741 687c541ac0 7159
owner: 24880758@N02
title: Ward of Scousburgh Type 700 Monitor Station
originalsecret: null
originalformat: null
o_height: null
o_width: null
datetaken: 2004-06-06 10:05:20
dateupload: 1322699003
tags: station monitor type ward 700 canmore scousburgh rcahms canmore:usr=677 canmore:id=273249
license: 0
latitude: 59.952433
longitude: -1.308543
accuracy: 16
views: 0
interestingness: 148 out of 216

photo: 6433586539 53a7b2f7ce 7024
owner: 24880758@N02
title: Ward of Scousburgh Type 700 Monitor Station
originalsecret: null
originalformat: null
o_height: null
o_width: null
datetaken: 2004-06-06 10:04:18
dateupload: 1322698918
tags: station monitor type ward 700 canmore scousburgh rcahms canmore:usr=677 canmore:id=273249
license: 0
latitude: 59.952433
longitude: -1.308543
accuracy: 16
views: 1
interestingness: 149 out of 216

photo: 6433580979 d7b579ba4c 7159
owner: 24880758@N02
title: Ward of Scousburgh Type 700 Monitor Station
originalsecret: null
originalformat: null
o_height: null
o_width: null
datetaken: 2004-06-06 10:03:17
dateupload: 1322698832
tags: station monitor type ward 700 canmore scousburgh rcahms canmore:usr=677 canmore:id=273249
license: 0
latitude: 59.952433
longitude: -1.308543
accuracy: 16
views: 0
interestingness: 150 out of 216

photo: 6433577309 5ae78756c8 7016
owner: 24880758@N02
title: Ward of Scousburgh Type 700 Monitor Station
originalsecret: null
originalformat: null
o_height: null
o_width: null
datetaken: 2004-06-06 10:02:24
dateupload: 1322698776
tags: station monitor type ward 700 canmore scousburgh rcahms canmore:usr=677 canmore:id=273249
license: 0
latitude: 59.952433
longitude: -1.308543
accuracy: 16
views: 0
interestingness: 151 out of 216

photo: 6433571361 b41d1cd345 7018
owner: 24880758@N02
title: Ward of Scousburgh Type 700 Monitor Station
originalsecret: null
originalformat: null
o_height: null
o_width: null
datetaken: 2004-06-06 10:02:02
dateupload: 1322698686
tags: station monitor type ward 700 canmore scousburgh rcahms canmore:usr=677 canmore:id=273249
license: 0
latitude: 59.952433
longitude: -1.308543
accuracy: 16
views: 0
interestingness: 152 out of 216

photo: 6433566695 f33f7e38b2 7141
owner: 24880758@N02
title: Ward of Scousburgh Type 700 Monitor Station
originalsecret: null
originalformat: null
o_height: null
o_width: null
datetaken: 2004-06-06 10:01:33
dateupload: 1322698609
tags: station monitor type ward 700 canmore scousburgh rcahms canmore:usr=677 canmore:id=273249
license: 0
latitude: 59.952433
longitude: -1.308543
accuracy: 16
views: 1
interestingness: 153 out of 216

photo: 6433559441 4b5277b41a 7032
owner: 24880758@N02
title: Ward of Scousburgh Type 700 Monitor Station
originalsecret: null
originalformat: null
o_height: null
o_width: null
datetaken: 2004-06-06 10:01:22
dateupload: 1322698489
tags: station monitor type ward 700 canmore scousburgh rcahms canmore:usr=677 canmore:id=273249
license: 0
latitude: 59.952433
longitude: -1.308543
accuracy: 16
views: 1
interestingness: 154 out of 216

photo: 6433553847 12987cdfa3 7169
owner: 13367398@N07
title: 20111130042811 (31)f (c1) rsz tag
originalsecret: null
originalformat: null
o_height: null
o_width: null
datetaken: 2011-11-30 04:33:59
dateupload: 1322698393
tags: earth australia science aliens research infrared plasma nightsky universe cosmos quantum entities quarks dimensional anomalies quantumtheory dimensionalentities infraredlasers laserilluminated plasmaentities photonaccumilators
license: 0
latitude: -32.68594
longitude: 151.400586
accuracy: 16
views: 16
interestingness: 155 out of 216

photo: 6433552801 05ce30a868 7009
owner: 13367398@N07
title: 20111130042811 (33)c1 rsz tag
originalsecret: null
originalformat: null
o_height: null
o_width: null
datetaken: 2011-11-30 04:34:22
dateupload: 1322698376
tags: earth australia science aliens research infrared plasma nightsky universe cosmos quantum entities quarks dimensional anomalies quantumtheory dimensionalentities infraredlasers laserilluminated plasmaentities photonaccumilators
license: 0
latitude: -32.685904
longitude: 151.40049
accuracy: 16
views: 7
interestingness: 156 out of 216

photo: 6433552695 62420c7cfa 7030
owner: 24880758@N02
title: Ward of Scousburgh Type 700 Monitor Station
originalsecret: null
originalformat: null
o_height: null
o_width: null
datetaken: 2004-06-06 10:01:09
dateupload: 1322698374
tags: station monitor type ward 700 canmore scousburgh rcahms canmore:usr=677 canmore:id=273249
license: 0
latitude: 59.952433
longitude: -1.308543
accuracy: 16
views: 2
interestingness: 157 out of 216

photo: 6433552539 c0828fcddb 7152
owner: 13367398@N07
title: 20111130042811 (34)c1 rsz tag
originalsecret: null
originalformat: null
o_height: null
o_width: null
datetaken: 2011-11-30 04:34:22
dateupload: 1322698372
tags: earth australia science aliens research infrared plasma nightsky universe cosmos quantum entities quarks dimensional anomalies quantumtheory dimensionalentities infraredlasers laserilluminated plasmaentities photonaccumilators
license: 0
latitude: -32.685863
longitude: 151.400404
accuracy: 16
views: 5
interestingness: 158 out of 216

photo: 6433552163 86ba61e6dc 7141
owner: 13367398@N07
title: 20111130042811 (30)c1 rsz tag
originalsecret: null
originalformat: null
o_height: null
o_width: null
datetaken: 2011-11-30 04:33:58
dateupload: 1322698365
tags: earth australia science aliens research infrared plasma nightsky universe cosmos quantum entities quarks dimensional anomalies quantumtheory dimensionalentities infraredlasers laserilluminated plasmaentities photonaccumilators
license: 0
latitude: -32.685931
longitude: 151.400576
accuracy: 16
views: 5
interestingness: 159 out of 216

photo: 6433551941 f5a3b82929 7148
owner: 13367398@N07
title: 20111130042811 (16)c1 rsz tag
originalsecret: null
originalformat: null
o_height: null
o_width: null
datetaken: 2011-11-30 04:32:39
dateupload: 1322698361
tags: earth australia science aliens research infrared plasma nightsky universe cosmos quantum entities quarks dimensional anomalies quantumtheory dimensionalentities infraredlasers laserilluminated plasmaentities photonaccumilators
license: 0
latitude: -32.685917
longitude: 151.400576
accuracy: 16
views: 5
interestingness: 160 out of 216

photo: 6433551785 1791ba221a 7163
owner: 13367398@N07
title: 20111130042811 (28)c1 rsz tag
originalsecret: null
originalformat: null
o_height: null
o_width: null
datetaken: 2011-11-30 04:33:38
dateupload: 1322698358
tags: earth australia science aliens research infrared plasma nightsky universe cosmos quantum entities quarks dimensional anomalies quantumtheory dimensionalentities infraredlasers laserilluminated plasmaentities photonaccumilators
license: 0
latitude: -32.685868
longitude: 151.40049
accuracy: 16
views: 6
interestingness: 161 out of 216

photo: 6433551287 7c8612e7dd 7148
owner: 13367398@N07
title: 20111130042811 (29)c1 rsz tag
originalsecret: null
originalformat: null
o_height: null
o_width: null
datetaken: 2011-11-30 04:33:45
dateupload: 1322698350
tags: earth australia science aliens research infrared plasma nightsky universe cosmos quantum entities quarks dimensional anomalies quantumtheory dimensionalentities infraredlasers laserilluminated plasmaentities photonaccumilators
license: 0
latitude: -32.685777
longitude: 151.400533
accuracy: 16
views: 5
interestingness: 162 out of 216

photo: 6433549425 5cc8df327e 7164
owner: 24880758@N02
title: Ward of Scousburgh Type 700 Monitor Station
originalsecret: null
originalformat: null
o_height: null
o_width: null
datetaken: 2004-06-06 10:00:41
dateupload: 1322698319
tags: station monitor type ward 700 canmore scousburgh rcahms canmore:usr=677 canmore:id=273249
license: 0
latitude: 59.952433
longitude: -1.308543
accuracy: 16
views: 0
interestingness: 163 out of 216

photo: 6433545745 490082e1a8 7028
owner: 68686051@N00
title: Wetlands Seen From Ubirr
originalsecret: ce49b2a329
originalformat: jpg
o_height: 800
o_width: 1200
datetaken: 2009-06-19 17:59:39
dateupload: 1322698257
tags: outcrop nature rock nationalpark view australia lookout outback kakadu wetland northernterritory escarpment ubirr
license: 0
latitude: -12.408767
longitude: 132.953997
accuracy: 16
views: 10
interestingness: 164 out of 216

photo: 6433542635 229e4d761e 7008
owner: 24880758@N02
title: Ward of Scousburgh Type 700 Monitor Station
originalsecret: null
originalformat: null
o_height: null
o_width: null
datetaken: 2004-06-06 10:00:17
dateupload: 1322698206
tags: station monitor type ward 700 canmore scousburgh rcahms canmore:usr=677 canmore:id=273249
license: 0
latitude: 59.952433
longitude: -1.308543
accuracy: 16
views: 0
interestingness: 165 out of 216

photo: 6433540147 9050df4f80 7020
owner: 68686051@N00
title: Wetlands Seen From Ubirr
originalsecret: 93877e5a3e
originalformat: jpg
o_height: 800
o_width: 1200
datetaken: 2009-06-19 17:43:26
dateupload: 1322698163
tags: nature nationalpark view australia lookout outback kakadu wetland northernterritory escarpment ubirr
license: 0
latitude: -12.408767
longitude: 132.953997
accuracy: 16
views: 13
interestingness: 166 out of 216

photo: 6433538207 fbc667078f 7162
owner: 68686051@N00
title: Wetlands Seen From Ubirr
originalsecret: 8ecd6785ae
originalformat: jpg
o_height: 800
o_width: 1200
datetaken: 2009-06-19 17:42:05
dateupload: 1322698131
tags: nature nationalpark view australia lookout outback kakadu wetland northernterritory escarpment ubirr
license: 0
latitude: -12.408767
longitude: 132.953997
accuracy: 16
views: 4
interestingness: 167 out of 216

photo: 6433533377 06bafc7b5c 7004
owner: 24880758@N02
title: Ward of Scousburgh Type 700 Monitor Station
originalsecret: null
originalformat: null
o_height: null
o_width: null
datetaken: 2004-06-06 10:00:00
dateupload: 1322698054
tags: station monitor type ward 700 canmore scousburgh rcahms canmore:usr=677 canmore:id=273249
license: 0
latitude: 59.952433
longitude: -1.308543
accuracy: 16
views: 2
interestingness: 168 out of 216

photo: 6433525509 861052da72 7011
owner: 24880758@N02
title: Ward of Scousburgh Type 700 Monitor Station
originalsecret: null
originalformat: null
o_height: null
o_width: null
datetaken: 2011-12-01 00:05:26
dateupload: 1322697926
tags: station monitor type ward 700 canmore scousburgh rcahms canmore:usr=677 canmore:id=273249
license: 0
latitude: 59.952433
longitude: -1.308543
accuracy: 16
views: 1
interestingness: 169 out of 216

photo: 6433518609 f0779ba1c1 7023
owner: 17662852@N00
title: IMG_4835_6_7_tonemapped
originalsecret: 56052c3586
originalformat: jpg
o_height: 3464
o_width: 5201
datetaken: 2011-11-29 21:13:57
dateupload: 1322697815
tags: park new york city nyc autumn trees fall leaves rain night clouds long exposure central hdr ramble photomatix
license: 0
latitude: 40.76692
longitude: -73.97364
accuracy: 16
views: 11
interestingness: 170 out of 216

photo: 6433518451 f74b1d5c04 7017
owner: 24880758@N02
title: Ward of Scousburgh Type 700 Monitor Station
originalsecret: null
originalformat: null
o_height: null
o_width: null
datetaken: 2004-06-06 09:59:13
dateupload: 1322697812
tags: station monitor type ward 700 canmore scousburgh rcahms canmore:usr=677 canmore:id=273249
license: 0
latitude: 59.952433
longitude: -1.308543
accuracy: 16
views: 0
interestingness: 171 out of 216

photo: 6433513211 eb6fa61a96 7020
owner: 24880758@N02
title: Ward of Scousburgh Type 700 Monitor Station
originalsecret: null
originalformat: null
o_height: null
o_width: null
datetaken: 2004-06-06 09:57:45
dateupload: 1322697727
tags: station monitor type ward 700 canmore scousburgh rcahms canmore:usr=677 canmore:id=273249
license: 0
latitude: 59.952433
longitude: -1.308543
accuracy: 16
views: 1
interestingness: 172 out of 216

photo: 6433510863 8406aafe33 7006
owner: 17662852@N00
title: IMG_4789_90_91_tonemapped
originalsecret: 0880ab3c97
originalformat: jpg
o_height: 3461
o_width: 5198
datetaken: 2011-11-29 20:35:03
dateupload: 1322697687
tags: park new york city nyc autumn trees fall leaves rain night clouds long exposure central hdr ramble photomatix
license: 0
latitude: 40.775504
longitude: -73.971827
accuracy: 16
views: 10
interestingness: 173 out of 216

photo: 6433505435 da6e79d063 7148
owner: 24880758@N02
title: Ward of Scousburgh Type 700 Monitor Station
originalsecret: null
originalformat: null
o_height: null
o_width: null
datetaken: 2004-06-06 09:57:38
dateupload: 1322697602
tags: station monitor type ward 700 canmore scousburgh rcahms canmore:usr=677 canmore:id=273249
license: 0
latitude: 59.952433
longitude: -1.308543
accuracy: 16
views: 0
interestingness: 174 out of 216

photo: 6434797859 6e8ae60797 7020
owner: 75698896@N00
title: Bad bike racks
originalsecret: f70f485b28
originalformat: jpg
o_height: 2175
o_width: 2900
datetaken: 2011-10-25 13:31:29
dateupload: 1322717126
tags: trainstation schaumburg metra bikerack bikeparking bikebank
license: 1
latitude: 41.98949
longitude: -88.11903
accuracy: 16
views: 38
interestingness: 175 out of 216

photo: 6434750045 636ef4b9d3 7027
owner: 9914689@N02
title: Best treats for my mind, especially after seeing doctor
originalsecret: null
originalformat: null
o_height: null
o_width: null
datetaken: 2011-11-30 21:11:21
dateupload: 1322716281
tags: coffee square cafe kubrick bookstore cappuccino coffeebean amaro iphoneography
license: 0
latitude: 22.310736
longitude: 114.168956
accuracy: 16
views: 2
interestingness: 176 out of 216

photo: 6434639865 41d97eaf77 7155
owner: 22416663@N05
title: Travelling Trunks
originalsecret: null
originalformat: null
o_height: null
o_width: null
datetaken: 2011-10-06 14:37:33
dateupload: 1322714437
tags: travelling metal misc trains luggage staff trunks railways
license: 0
latitude: 16.467694
longitude: 77.695312
accuracy: 2
views: 36
interestingness: 177 out of 216

photo: 6434637929 74fbed11a1 7150
owner: 22416663@N05
title: Cattle Egret
originalsecret: null
originalformat: null
o_height: null
o_width: null
datetaken: 2011-10-27 17:07:14
dateupload: 1322714407
tags: winter india birds cattle goa fields egret panaji
license: 0
latitude: 15.468649
longitude: 73.808471
accuracy: 13
views: 42
interestingness: 178 out of 216

photo: 6434309929 25e6085349 7171
owner: 8820084@N02
title: Dog Greetings
originalsecret: null
originalformat: null
o_height: null
o_width: null
datetaken: 2011-10-29 10:30:00
dateupload: 1322709608
tags: dog austin geotagged downtown austintexas republicsquare austinfarmersmarket geo:lat=30267402768086814 geo:lon=9774762668717193
license: 0
latitude: 30.267402
longitude: -97.747626
accuracy: 16
views: 32
interestingness: 179 out of 216

photo: 6433917907 aa94f605c1 7030
owner: 22316914@N06
title: Emerald Chair
originalsecret: null
originalformat: null
o_height: null
o_width: null
datetaken: 2011-11-30 11:08:18
dateupload: 1322703834
tags: winter snow green skiing snowboard chairlift emeraldchair whistlerblakcomb egobowl
license: 0
latitude: 50.07
longitude: -122.945166
accuracy: 16
views: 18
interestingness: 180 out of 216

photo: 6433529691 72dc0ec357 7146
owner: 30747348@N00
title: St_Stephens_Church_Windsor_UK_4
originalsecret: null
originalformat: null
o_height: null
o_width: null
datetaken: 2011-12-01 00:04:58
dateupload: 1322697994
tags: uk church st interior pano 360 windsor stephens clewer
license: 0
latitude: 51.482705
longitude: -0.619214
accuracy: 16
views: 8
interestingness: 181 out of 216

photo: 6434797675 e43afdc71f 7024
owner: 51669785@N07
title: Dust as a solar filter
originalsecret: 2c4d82b74e
originalformat: jpg
o_height: 1130
o_width: 1200
datetaken: 2011-11-26 18:27:18
dateupload: 1322717121
tags: sunset abandoned wind duststorm sunspots
license: 0
latitude: 33.276359
longitude: -102.050253
accuracy: 16
views: 5
interestingness: 182 out of 216

photo: 6434600527 65b9a0e418 7015
owner: 15969227@N04
title: Masonic Hall - 73 West 23rd Street, New York
originalsecret: 9132f7d6d5
originalformat: jpg
o_height: 4512
o_width: 3252
datetaken: 2011-10-21 09:41:53
dateupload: 1322713850
tags: nyc newyorkcity ny newyork building architecture chelsea manhattan
license: 0
latitude: 40.743074
longitude: -73.992592
accuracy: 16
views: 17
interestingness: 183 out of 216

photo: 6433739041 5a775e9e9c 7005
owner: 72098626@N00
title: Central Park Dance Skaters, Oct 2011 - 14
originalsecret: 540197190c
originalformat: jpg
o_height: 4431
o_width: 2795
datetaken: 2011-10-23 15:25:40
dateupload: 1322701181
tags: newyork sunglasses dancers centralpark manhattan skate centralparkdanceskaters danceskaters
license: 1
latitude: 40.773277
longitude: -73.971356
accuracy: 16
views: 18
interestingness: 184 out of 216

photo: 6433730873 42f97a7698 7006
owner: 72098626@N00
title: Central Park Dance Skaters, Oct 2011 - 12
originalsecret: 3951b8671f
originalformat: jpg
o_height: 4928
o_width: 3264
datetaken: 2011-10-23 15:22:43
dateupload: 1322701055
tags: newyork dancers centralpark manhattan helmet skate centralparkdanceskaters danceskaters
license: 1
latitude: 40.773277
longitude: -73.971356
accuracy: 16
views: 26
interestingness: 185 out of 216

photo: 6433746267 f70c548c7a 7026
owner: 72098626@N00
title: Central Park Dance Skaters, Oct 2011 - 16
originalsecret: 0f6f3df13d
originalformat: jpg
o_height: 2711
o_width: 4067
datetaken: 2011-10-23 15:27:50
dateupload: 1322701287
tags: newyork dancers centralpark manhattan skate centralparkdanceskaters danceskaters
license: 1
latitude: 40.773277
longitude: -73.971356
accuracy: 16
views: 27
interestingness: 186 out of 216

photo: 6434459289 795fff1de5 7001
owner: 50924506@N08
title: Wot, no Rudolphs?
originalsecret: 1ee1345238
originalformat: jpg
o_height: 720
o_width: 574
datetaken: 2011-11-30 22:26:39
dateupload: 1322711775
tags: 
license: 0
latitude: 13.303372
longitude: 100.900046
accuracy: 14
views: 3
interestingness: 187 out of 216

photo: 6434258685 95a6a76aa1 7010
owner: 21374845@N08
title: Alligator Rock
originalsecret: af87bfc391
originalformat: jpg
o_height: 900
o_width: 600
datetaken: 2011-09-17 16:55:52
dateupload: 1322708847
tags: grandcanyon alligator maricopapoint
license: 0
latitude: 36.07175
longitude: -112.16608
accuracy: 16
views: 7
interestingness: 188 out of 216

photo: 6434107395 a37ca4881d 7030
owner: 90715281@N00
title: See the light
originalsecret: a0d557524d
originalformat: jpg
o_height: 3815
o_width: 2543
datetaken: 2011-11-23 18:48:53
dateupload: 1322706577
tags: barcelona travel autumn fall spain catalonia
license: 3
latitude: 41.391233
longitude: 2.167053
accuracy: 10
views: 4
interestingness: 189 out of 216

photo: 6433998107 9442c19fc8 7155
owner: 39194430@N08
title: Harbor Park Station
originalsecret: 970df62c96
originalformat: jpg
o_height: 2848
o_width: 4288
datetaken: 2011-11-25 10:22:42
dateupload: 1322705019
tags: tide norfolk amtrak lightrail harborpark ridethetide
license: 5
latitude: 36.843447
longitude: -76.276016
accuracy: 15
views: 10
interestingness: 190 out of 216

photo: 6433716281 eb2165fde9 7171
owner: 91489976@N00
title: Lucky Divers
originalsecret: 0430507efc
originalformat: jpg
o_height: 1952
o_width: 3264
datetaken: 2011-11-27 11:19:34
dateupload: 1322700825
tags: 
license: 0
latitude: 29.837574
longitude: -82.663267
accuracy: 16
views: 16
interestingness: 191 out of 216

photo: 6433627857 a7e073b54a 7145
owner: 55450967@N05
title: London Fire Brigade - Reserve DPL
originalsecret: e7813ba9be
originalformat: jpg
o_height: 3240
o_width: 4320
datetaken: 2011-11-30 12:32:48
dateupload: 1322699522
tags: london fire reserve brigade dpl
license: 0
latitude: 51.527375
longitude: -0.130848
accuracy: 16
views: 3
interestingness: 192 out of 216

photo: 6433618493 fb4fbae0e1 7172
owner: 55450967@N05
title: London Fire Brigade - Reserve DPL
originalsecret: 5c5a957ef2
originalformat: jpg
o_height: 3240
o_width: 4320
datetaken: 2011-11-30 12:32:43
dateupload: 1322699383
tags: london fire reserve brigade dpl
license: 0
latitude: 51.527375
longitude: -0.130848
accuracy: 16
views: 3
interestingness: 193 out of 216

photo: 6433608665 cd2ec146ea 7034
owner: 55450967@N05
title: London Fire Brigade - Reserve DPL
originalsecret: 5bfd411305
originalformat: jpg
o_height: 3240
o_width: 4320
datetaken: 2011-11-30 12:32:22
dateupload: 1322699240
tags: london fire reserve brigade dpl
license: 0
latitude: 51.527375
longitude: -0.130848
accuracy: 16
views: 2
interestingness: 194 out of 216

photo: 6433600399 a1362a7f1e 7144
owner: 55450967@N05
title: London Fire Brigade - Reserve DPL
originalsecret: 90566558b0
originalformat: jpg
o_height: 3240
o_width: 4320
datetaken: 2011-11-30 12:32:17
dateupload: 1322699113
tags: london fire reserve brigade dpl
license: 0
latitude: 51.527375
longitude: -0.130848
accuracy: 16
views: 1
interestingness: 195 out of 216

photo: 6433583159 d09b6acc73 7013
owner: 37072228@N04
title: Haltern am See, Aula des Schulzentrums
originalsecret: null
originalformat: null
o_height: null
o_width: null
datetaken: 2011-11-30 20:56:06
dateupload: 1322698864
tags: germany blog tour beatles cavern
license: 0
latitude: 51.739632
longitude: 7.182826
accuracy: 15
views: 35
interestingness: 196 out of 216

photo: 6433581865 0401f4eab0 7150
owner: 37072228@N04
title: Haltern am See, Aula des Schulzentrums
originalsecret: null
originalformat: null
o_height: null
o_width: null
datetaken: 2011-11-30 20:33:45
dateupload: 1322698845
tags: germany blog tour beatles cavern
license: 0
latitude: 51.739632
longitude: 7.182826
accuracy: 15
views: 68
interestingness: 197 out of 216

photo: 6433579939 cb2d2d532b 7016
owner: 37072228@N04
title: Haltern am See, Aula des Schulzentrums
originalsecret: null
originalformat: null
o_height: null
o_width: null
datetaken: 2011-11-30 20:30:59
dateupload: 1322698816
tags: germany blog tour beatles cavern
license: 0
latitude: 51.739632
longitude: 7.182826
accuracy: 15
views: 32
interestingness: 198 out of 216

photo: 6433578183 2d37feb621 7012
owner: 37072228@N04
title: Haltern am See, Aula des Schulzentrums
originalsecret: null
originalformat: null
o_height: null
o_width: null
datetaken: 2011-11-30 20:30:31
dateupload: 1322698789
tags: germany blog tour beatles cavern
license: 0
latitude: 51.739632
longitude: 7.182826
accuracy: 15
views: 32
interestingness: 199 out of 216

photo: 6433576885 1a930495bc 7167
owner: 37072228@N04
title: Haltern am See, Aula des Schulzentrums
originalsecret: null
originalformat: null
o_height: null
o_width: null
datetaken: 2011-11-30 20:23:08
dateupload: 1322698769
tags: germany blog tour beatles cavern
license: 0
latitude: 51.739632
longitude: 7.182826
accuracy: 15
views: 29
interestingness: 200 out of 216

photo: 6433575453 dd432e1e6e 7014
owner: 37072228@N04
title: Haltern am See, Aula des Schulzentrums
originalsecret: null
originalformat: null
o_height: null
o_width: null
datetaken: 2011-11-30 20:16:01
dateupload: 1322698747
tags: germany blog tour beatles cavern
license: 0
latitude: 51.739632
longitude: 7.182826
accuracy: 15
views: 37
interestingness: 201 out of 216

photo: 6433572581 dc4e26678e 7164
owner: 37072228@N04
title: Haltern am See, Aula des Schulzentrums
originalsecret: null
originalformat: null
o_height: null
o_width: null
datetaken: 2011-11-30 19:44:50
dateupload: 1322698706
tags: germany blog tour beatles cavern
license: 0
latitude: 51.739632
longitude: 7.182826
accuracy: 15
views: 22
interestingness: 202 out of 216

photo: 6433571297 0541afbd25 7159
owner: 37072228@N04
title: Haltern am See, Aula des Schulzentrums
originalsecret: null
originalformat: null
o_height: null
o_width: null
datetaken: 2011-11-30 19:13:24
dateupload: 1322698686
tags: germany blog tour beatles cavern
license: 0
latitude: 51.739632
longitude: 7.182826
accuracy: 15
views: 29
interestingness: 203 out of 216

photo: 6433570059 4160f17db5 7150
owner: 37072228@N04
title: Haltern am See, Aula des Schulzentrums
originalsecret: null
originalformat: null
o_height: null
o_width: null
datetaken: 2011-11-30 19:11:11
dateupload: 1322698664
tags: germany blog tour beatles cavern
license: 0
latitude: 51.739632
longitude: 7.182826
accuracy: 15
views: 21
interestingness: 204 out of 216

photo: 6433568677 ca2bb81f90 7025
owner: 37072228@N04
title: Haltern am See, Aula des Schulzentrums
originalsecret: null
originalformat: null
o_height: null
o_width: null
datetaken: 2011-11-30 19:08:49
dateupload: 1322698641
tags: germany blog tour beatles cavern
license: 0
latitude: 51.739632
longitude: 7.182826
accuracy: 15
views: 24
interestingness: 205 out of 216

photo: 6433567311 1757e8a10f 7160
owner: 37072228@N04
title: Haltern am See, Aula des Schulzentrums
originalsecret: null
originalformat: null
o_height: null
o_width: null
datetaken: 2011-11-30 18:56:40
dateupload: 1322698620
tags: germany blog tour beatles cavern
license: 0
latitude: 51.739632
longitude: 7.182826
accuracy: 15
views: 21
interestingness: 206 out of 216

photo: 6433564311 14c44df119 7003
owner: 37072228@N04
title: Haltern am See, Aula des Schulzentrums
originalsecret: null
originalformat: null
o_height: null
o_width: null
datetaken: 2011-11-30 18:07:07
dateupload: 1322698575
tags: germany blog tour beatles cavern
license: 0
latitude: 51.739632
longitude: 7.182826
accuracy: 15
views: 20
interestingness: 207 out of 216

photo: 6433562399 bc5c132866 7152
owner: 37072228@N04
title: Haltern am See, Aula des Schulzentrums
originalsecret: null
originalformat: null
o_height: null
o_width: null
datetaken: 2011-11-30 16:08:35
dateupload: 1322698544
tags: germany blog tour beatles cavern
license: 0
latitude: 51.739632
longitude: 7.182826
accuracy: 15
views: 18
interestingness: 208 out of 216

photo: 6433559307 bcfdf722d9 7146
owner: 37072228@N04
title: Haltern am See, Aula des Schulzentrums
originalsecret: null
originalformat: null
o_height: null
o_width: null
datetaken: 2011-11-30 16:06:50
dateupload: 1322698487
tags: germany blog tour beatles cavern
license: 0
latitude: 51.739632
longitude: 7.182826
accuracy: 15
views: 23
interestingness: 209 out of 216

photo: 6433556249 9a0451ee98 7153
owner: 37072228@N04
title: Haltern am See, Aula des Schulzentrums
originalsecret: null
originalformat: null
o_height: null
o_width: null
datetaken: 2011-11-30 16:04:56
dateupload: 1322698435
tags: germany blog tour beatles cavern
license: 0
latitude: 51.739632
longitude: 7.182826
accuracy: 15
views: 17
interestingness: 210 out of 216

photo: 6433551577 72dee48023 7015
owner: 37072228@N04
title: Haltern am See
originalsecret: null
originalformat: null
o_height: null
o_width: null
datetaken: 2011-11-30 13:40:26
dateupload: 1322698355
tags: germany blog tour beatles cavern
license: 0
latitude: 51.742894
longitude: 7.187311
accuracy: 16
views: 31
interestingness: 211 out of 216

photo: 6433543809 2e1962ebb4 7021
owner: 37072228@N04
title: Haltern am See
originalsecret: null
originalformat: null
o_height: null
o_width: null
datetaken: 2011-11-30 13:12:37
dateupload: 1322698224
tags: germany blog tour beatles cavern
license: 0
latitude: 51.742894
longitude: 7.187311
accuracy: 16
views: 26
interestingness: 212 out of 216

photo: 6433535255 5b2001b7f9 7012
owner: 37072228@N04
title: Haltern am See
originalsecret: null
originalformat: null
o_height: null
o_width: null
datetaken: 2011-11-30 13:06:47
dateupload: 1322698084
tags: germany blog tour beatles cavern
license: 0
latitude: 51.742894
longitude: 7.187311
accuracy: 16
views: 22
interestingness: 213 out of 216

photo: 6433533683 40f6ebd427 7012
owner: 37072228@N04
title: Haltern am See
originalsecret: null
originalformat: null
o_height: null
o_width: null
datetaken: 2011-11-30 13:05:06
dateupload: 1322698059
tags: germany blog tour beatles cavern
license: 0
latitude: 51.742894
longitude: 7.187311
accuracy: 16
views: 23
interestingness: 214 out of 216

photo: 6434621045 0aee92d796 7012
owner: 95071949@N00
title: Umbrella
originalsecret: bd914f1c85
originalformat: jpg
o_height: 600
o_width: 800
datetaken: 2011-11-20 22:14:34
dateupload: 1322714157
tags: peru rain cusco plazadearmas
license: 1
latitude: -13.517754
longitude: -71.990318
accuracy: 12
views: 0
interestingness: 215 out of 216

photo: 6434281953 3784ee3021 7174
owner: 24414018@N05
title: Pop's house from the road
originalsecret: 8014468e92
originalformat: jpg
o_height: 2304
o_width: 3072
datetaken: 2011-07-17 20:37:20
dateupload: 1322709197
tags: belize homestays stanncreekdistrict mayacentre
license: 0
latitude: 16.868619
longitude: -88.378143
accuracy: 10
views: 3
interestingness: 216 out of 216

photo: 6434280025 4a103ebaf9 7172
owner: 21374845@N08
title: Raft Ride
originalsecret: e4a1f54520
originalformat: jpg
o_height: 640
o_width: 960
datetaken: 2011-09-17 17:05:00
dateupload: 1322709168
tags: grandcanyon coloradoriver maricopapoint hermitrapids
license: 0
latitude: 36.07175
longitude: -112.16608
accuracy: 16
views: 4
interestingness: 217 out of 216

photo: 6434188081 b2fc87e074 7156
owner: 55132698@N04
title: Hanging out at The Mall
originalsecret: 7f318723bc
originalformat: jpg
o_height: 1050
o_width: 1576
datetaken: 2011-11-27 07:41:58
dateupload: 1322707733
tags: washingtondc dc themall ww2memorial
license: 0
latitude: 38.889446
longitude: -77.03972
accuracy: 14
views: 59
interestingness: 218 out of 216

photo: 6434241113 3b1c9ff336 7145
owner: 21374845@N08
title: The Alligator
originalsecret: 9fab28346d
originalformat: jpg
o_height: 900
o_width: 600
datetaken: 2011-09-17 16:32:56
dateupload: 1322708587
tags: grandcanyon alligator powellpoint
license: 0
latitude: 36.074665
longitude: -112.15515
accuracy: 16
views: 5
interestingness: 219 out of 216

photo: 6433885279 629584042c 7170
owner: 59926455@N07
title: View from Hotel Broadway..
originalsecret: null
originalformat: null
o_height: null
o_width: null
datetaken: 2011-10-27 02:09:25
dateupload: 1322703337
tags: 
license: 0
latitude: 27.043378
