
mintime: 1322697600 maxtime: 1322776779.61
numimgs: 261
total pages: 2
visiting only 2 pages ( up to 500 images)
photo: 6434095831 ab155cbaf5 7155
owner: 36799084@N07
title: "Point Peele in Full Moon" Explored 11/30/11 # 270 Thank you!
originalsecret: null
originalformat: null
o_height: null
o_width: null
datetaken: 2010-09-20 03:29:54
dateupload: 1322706416
tags: canada geotagged dreamworks texturen nikongroup artmix ninianlifstextureaddicts flickrtextures heartandsoulphotography thefarpavilions magicartoftextures artofimages distressedtextures workingwithtextures thetexturedlandscape createtolive perfectioninpictures artuniinternational breathtakingcapture irenesteeves textureinfinitebook temarisgalacticstudio galleryofwonders adriennesuntouchabledream excellentgallery texturegenius matsgallery elegantphotoart amazingtexturedphotos photoartisttextures texturingtheworld artclassandvalue theromanticstorybook witnesstheemergingspiritinvite treasuresofkeepyoureyesopenadminvite magicuniverseadminvite theawardtreeadminvite tatotinvite avpamaingrp texturemonamourinvite galleryofdreamsadminvite keepyoureyesopennopeople treasuresofthisworldnopeople theworldwelovenopeople womanscreativity naturebyseasonnomanmade texturemyworldadminvite bookofinspirationstextured aworldmadeoftexturesadminvite lovelymotherearthfinearts heartsofoakadminvite photoshopforever ictadminvite netartisticvirtualspaceadminvite natureoftheuniversenomanmade digitalartsceneproadminvite tbcptextures irresistablybeautifultexturesadminvite theworldofeleganttextures magicunicornverybestinvite enchantingatmospheresandevocativesensationsadminvite
license: 0
latitude: 41.909443
longitude: -82.508804
accuracy: 15
views: 505
interestingness: 1 out of 261

photo: 5958964940 33ef5a3afd 6012
owner: 7340910@N02
title: Landmannalaugar, Southern Iceland's highlands
originalsecret: null
originalformat: null
o_height: null
o_width: null
datetaken: 2011-07-14 12:10:12
dateupload: 1322766727
tags: travel sky mountains public clouds trekking geotagged island iceland islandia highlands nikon europa europe nuvole hiking ? cielo nuages viaggio ?sland allrightsreserved hekla 18105 islanda landmannalaugar 2011 tancredi ?allrightsreserved 18105mm dsc1902 carlotancredi july2011 d7000 georeferenziata 18105vr saariysqualitypictures nikkor18105 nikond7000 fleursetpaysages mygearandme mygearandmepremium 14july2011 icelandshighlands
license: 0
latitude: 63.983
longitude: -19.067
accuracy: 14
views: 365
interestingness: 2 out of 261

photo: 6437518607 c81f290a20 7002
owner: 45437497@N00
title: Autumn Narrows
originalsecret: null
originalformat: null
o_height: null
o_width: null
datetaken: 2011-11-16 12:44:40
dateupload: 1322765498
tags: autumn water fallcolor cliffs zionnationalpark redrock virginriver thenarrows navajosandstone
license: 0
latitude: 37.300702
longitude: -112.944613
accuracy: 15
views: 329
interestingness: 3 out of 261

photo: 6436174625 eea96c9f7d 7174
owner: 37995657@N00
title: Pinhole: The Only True Products of War -- The Survivors, The Missing, The Dead
originalsecret: null
originalformat: null
o_height: null
o_width: null
datetaken: 2011-11-30 22:06:42
dateupload: 1322746683
tags: travel people color film analog washingtondc dc washington xpro memorial war fuji kodak vet crossprocess honor pinhole vietnam velvia korean hero series 6x9 analogue fujichrome portra vietnamveteransmemorial zeroimage veteransday zero69 epsonperfectionv500 squarepegpinhole
license: 0
latitude: 38.889291
longitude: -77.048395
accuracy: 16
views: 137
interestingness: 4 out of 261

photo: 6435022157 5333a2616f 7029
owner: 29858426@N03
title: IMG_7512bw
originalsecret: null
originalformat: null
o_height: null
o_width: null
datetaken: 2011-06-19 05:53:11
dateupload: 1322721598
tags: mygearandme blinkagain
license: 0
latitude: 30.46787
longitude: 79.594726
accuracy: 11
views: 190
interestingness: 5 out of 261

photo: 6437152993 1536b336ac 7145
owner: 68807981@N07
title: Haydarpa?a Train Station / Turkey
originalsecret: null
originalformat: null
o_height: null
o_width: null
datetaken: 2011-12-01 19:29:09
dateupload: 1322760549
tags: 
license: 0
latitude: 40.976211
longitude: 29.045299
accuracy: 13
views: 98
interestingness: 6 out of 261

photo: 6437532335 05f0f1b43e 7155
owner: 41987105@N06
title: 31529 CRG 325C Broad St
originalsecret: 10364a93e7
originalformat: jpg
o_height: 1691
o_width: 1936
datetaken: 2011-12-01 18:42:44
dateupload: 1322765690
tags: alexander daimler broadstreet cvg6 crg325c 31529 firstaberdeen aberdeencorporationtransport shopperhopper
license: 0
latitude: 57.148588
longitude: -2.096714
accuracy: 16
views: 253
interestingness: 7 out of 261

photo: 6436247573 df3f9b3c24 7016
owner: 34236397@N05
title: Pavillon Dufour
originalsecret: null
originalformat: null
o_height: null
o_width: null
datetaken: 2011-11-29 18:40:30
dateupload: 1322747949
tags: versailles iledefrance palaceofversailles yvelines ch?teaudeversailles 78000 mygearandme
license: 0
latitude: 48.804009
longitude: 2.121788
accuracy: 16
views: 54
interestingness: 8 out of 261

photo: 6436823809 e01e702419 7157
owner: 48877431@N05
title: The Duchess of Gloucester meets a resident of Alexandra Place
originalsecret: fa447c3651
originalformat: jpg
o_height: 340
o_width: 388
datetaken: 2011-11-29 00:00:00
dateupload: 1322756180
tags: support open apartment flat service resident olderpeople duchessofgloucester bessiesale
license: 0
latitude: 51.451972
longitude: -0.915753
accuracy: 15
views: 963
interestingness: 9 out of 261

photo: 6437774991 e8113878d7 7153
owner: 39450805@N05
title: PSNI / Land Rover / Riot Control Unit
originalsecret: null
originalformat: null
o_height: null
o_width: null
datetaken: 2011-12-01 15:12:39
dateupload: 1322769039
tags: new blue ireland lights design riot call control police rover belfast spotlight land vehicle service emergency northern unit pangolin 999 sirens officers psni
license: 0
latitude: 54.599392
longitude: -5.928722
accuracy: 16
views: 106
interestingness: 10 out of 261

photo: 6435686929 f3725fbd44 7144
owner: 34249683@N06
title: BR 183 003 Arriva
originalsecret: null
originalformat: null
o_height: null
o_width: null
datetaken: 2010-12-29 12:34:09
dateupload: 1322737237
tags: germania arriva br183 br183003 br183arriva
license: 0
latitude: 48.546969
longitude: 12.13441
accuracy: 16
views: 112
interestingness: 11 out of 261

photo: 6434340113 e9b3108cc6 7031
owner: 45923298@N00
title: Tucson, AZ old Phillips 66 double pier station
originalsecret: null
originalformat: null
o_height: null
o_width: null
datetaken: 2011-11-30 19:08:20
dateupload: 1322710056
tags: arizona station pier tucson style az gas service gullwing phillips66 batwing
license: 0
latitude: 32.178005
longitude: -110.95317
accuracy: 16
views: 60
interestingness: 12 out of 261

photo: 6438084131 b2820a1ed9 7151
owner: 26650236@N07
title: LAS 7760
originalsecret: f0eff6d66e
originalformat: jpg
o_height: 2736
o_width: 3648
datetaken: 2011-12-01 15:36:44
dateupload: 1322773041
tags: uk london dusk handheld emergency raining welling 7760 centralavenue londonambulanceservice kenjonbro fujihs10 lj10nke
license: 1
latitude: 51.464101
longitude: 0.100132
accuracy: 16
views: 45
interestingness: 13 out of 261

photo: 6435739441 700b09b1fd 7156
owner: 50582649@N08
title: Station [hors] Service
originalsecret: null
originalformat: null
o_height: null
o_width: null
datetaken: 2011-11-23 14:15:45
dateupload: 1322752500
tags: france station jaune canon eos tim d ardennes 400 service 08 krab hors manteau abandonn? oner traitement
license: 0
latitude: 49.723092
longitude: 4.762229
accuracy: 12
views: 42
interestingness: 14 out of 261

photo: 6435915509 a731ee10c5 7021
owner: 32675129@N00
title: Red Boats
originalsecret: 76309c3e90
originalformat: jpg
o_height: 2736
o_width: 3648
datetaken: 2009-12-03 17:24:22
dateupload: 1322741946
tags: uruguay konrad csr puntadeleste flickraward flickrestrellas
license: 0
latitude: -34.975298
longitude: -54.952754
accuracy: 11
views: 51
interestingness: 15 out of 261

photo: 6434244079 1ee0d83542 7174
owner: 64411949@N06
title: State Park Road
originalsecret: 09606fc0c0
originalformat: jpg
o_height: 4837
o_width: 3348
datetaken: 2011-08-24 12:43:26
dateupload: 1322708631
tags: lighting trees windows light mountains gabriel nature water colors animals clouds skyscape landscape lights photo nikon midwest flickr dynamic outdoor wildlife scenic blues sunsets adventure shade greens kansas editing 5100 yellows reds grassland hdr creeks lightroom layering bracketing ?black white? garett ?united art? photos? ?photo darks ?digital states? photography? ?high processing? range? ?nature ?wildlife ?landscape photographer? ?license ?outdoor ?adventure ?photography ?stock ?garett
license: 6
latitude: 41.567843
longitude: -75.71419
accuracy: 15
views: 106
interestingness: 16 out of 261

photo: 6438342435 5b5f2cb037 7018
owner: 66898694@N04
title: Your Best Shot 2011
originalsecret: 84c6136f74
originalformat: jpg
o_height: 853
o_width: 1280
datetaken: 2011-04-29 02:54:06
dateupload: 1322776292
tags: selfportrait finland selfservice 2011 sigma30mmf14 aloneinthedark uurainen itsepalvelu canon40d traditionalgasstation
license: 0
latitude: 62.500648
longitude: 25.435903
accuracy: 15
views: 26
interestingness: 17 out of 261

photo: 6435702181 230cd381a5 7156
owner: 58066769@N05
title: Across from the church in McKenzie
originalsecret: 9c1b2a50e0
originalformat: jpg
o_height: 2848
o_width: 4272
datetaken: 2011-11-25 16:51:29
dateupload: 1322737530
tags: 
license: 0
latitude: 31.558658
longitude: -86.731553
accuracy: 16
views: 73
interestingness: 18 out of 261

photo: 6436737111 264b0bcb12 7019
owner: 68709577@N06
title: One for Mr. Green.
originalsecret: 2f770aa92a
originalformat: jpg
o_height: 771
o_width: 1157
datetaken: 2000-06-26 15:57:10
dateupload: 1322755030
tags: spring dunfermline rennie evesham southdown plaxton leylandleopard 413dcd jnj24v gwv927v
license: 0
latitude: 52.092374
longitude: -1.946296
accuracy: 11
views: 58
interestingness: 19 out of 261

photo: 6436687869 a7644ba95e 7144
owner: 48921129@N02
title: The door on the tower of Woolton Reservoir.
originalsecret: null
originalformat: null
o_height: null
o_width: null
datetaken: 2011-11-23 12:46:34
dateupload: 1322754382
tags: england wales liverpool watertower snowdonia liverbird greendoor flooded merseyside woolton watersupply llanwddyn sandstonetower wooltonreservoir wooltonconservationarea
license: 0
latitude: 53.37977
longitude: -2.8758
accuracy: 13
views: 19
interestingness: 20 out of 261

photo: 6433611283 d2a82bea58 7161
owner: 28121598@N03
title: 67013
originalsecret: fd291c275f
originalformat: jpg
o_height: 2234
o_width: 3050
datetaken: 2008-07-14 11:27:58
dateupload: 1322699278
tags: uk greatbritain england train unitedkingdom buckinghamshire railway locomotive bucks 67 gerrardscross dbregio wrexhamshropshire
license: 3
latitude: 51.588136
longitude: -0.554509
accuracy: 14
views: 37
interestingness: 21 out of 261

photo: 6437300415 afbdb6cb01 7018
owner: 43351968@N02
title: Nelson
originalsecret: f2fd44530d
originalformat: jpg
o_height: 592
o_width: 905
datetaken: 1971-06-19 00:26:16
dateupload: 1322762473
tags: emu fratton southernrailway 4cor railuk
license: 0
latitude: 50.796007
longitude: -1.076316
accuracy: 13
views: 10
interestingness: 22 out of 261

photo: 6437248847 b1354d3d26 7141
owner: 70127529@N00
title: EMS10 FDNY EMS Battalion 10 Station House, Metropolitan Hospital Center, Yorkville, New York City
originalsecret: null
originalformat: null
o_height: null
o_width: null
datetaken: 2011-11-30 12:32:30
dateupload: 1322761775
tags: city nyc house ny newyork cars car station 10 harlem manhattan center ambulance east medical company vehicles vehicle service vans technician paramedics elbarrio emergency suv ems fdny emt department yorkville personnel bravest battalion medics metropolitanhospital ems10 battalion10 haztac
license: 0
latitude: 40.784676
longitude: -73.941743
accuracy: 16
views: 74
interestingness: 23 out of 261

photo: 6434377877 eba7078545 7145
owner: 23434307@N02
title: A new coat of colours
originalsecret: null
originalformat: null
o_height: null
o_width: null
datetaken: 2011-10-16 23:21:24
dateupload: 1322710613
tags: 
license: 0
latitude: -41.26771
longitude: 174.784069
accuracy: 13
views: 24
interestingness: 24 out of 261

photo: 6435805877 2aab59f71a 7024
owner: 60069951@N07
title: Nottinghamshire Fire & Rescue Service / Dennis RS237 JDC / F999 HVO
originalsecret: null
originalformat: null
o_height: null
o_width: null
datetaken: 2010-06-20 10:42:49
dateupload: 1322739685
tags: show uk england rescue fire engine olympus fireman service dennis dslr firefighter 112 feuerwehr bomberos derby nottinghamshire brandweer 115 2010 999 jdc evolt pompiers bombero e500 nfrs nottinghamshirefirerescueservice f999hvo rs237 derbyfirerescueshow2010
license: 0
latitude: 52.931573
longitude: -1.505041
accuracy: 16
views: 44
interestingness: 25 out of 261

photo: 6435797073 75512d95e0 7002
owner: 60069951@N07
title: Falkland Islands Fire & Rescue Service / Land Rover Range Rover Carmichael Rescue Tender / F1320
originalsecret: null
originalformat: null
o_height: null
o_width: null
datetaken: 2010-06-20 10:41:51
dateupload: 1322739516
tags: show uk england rescue fire islands rover olympus land service dslr range derby tender carmichael 2010 evolt falkland e500 f1320 derbyfirerescueshow2010
license: 0
latitude: 52.931573
longitude: -1.505041
accuracy: 16
views: 30
interestingness: 26 out of 261

photo: 6437427429 ff1487c87f 7005
owner: 29648523@N05
title: Sikorsky VH-3A Sea King "Marine One"
originalsecret: 3a5100b1c9
originalformat: jpg
o_height: 1992
o_width: 3000
datetaken: 2011-10-02 16:59:14
dateupload: 1322764208
tags: usa usmc museum nikon unitedstates florida aircraft military navy helicopter usnavy marinecorps hdr pensacola seaking sikorsky marineone d40 nationalmuseumofnavalaviation naspensacola escambiacounty hmx1 150613 vh3a fisherbray
license: 0
latitude: 30.350851
longitude: -87.303006
accuracy: 16
views: 33
interestingness: 27 out of 261

photo: 6438008149 8dfdd91fd8 7001
owner: 48073612@N04
title: Airlink 747 - RV592 December 1999
originalsecret: null
originalformat: null
o_height: null
o_width: null
datetaken: 1999-12-01 00:00:00
dateupload: 1322772116
tags: christmas ireland dublin bus volvo airport slide scan 747 dublinairport nikoncoolscanved airlink eidw busathacliath aerrianta olympisn rv592 99d592
license: 0
latitude: 53.427345
longitude: -6.242337
accuracy: 14
views: 52
interestingness: 28 out of 261

photo: 6433540183 ef5b169d5e 7168
owner: 35715563@N04
title: B & O steam on Youghiogheny Bridge at Greene Jct
originalsecret: c5e7c4b557
originalformat: jpg
o_height: 459
o_width: 770
datetaken: 2011-11-30 20:39:24
dateupload: 1322698164
tags: county ohio pennsylvania south bottom el baltimore junction western wheeler bo greene fayette youghiogheny em1 connellsville jct bowest
license: 0
latitude: 39.993955
longitude: -79.594402
accuracy: 16
views: 57
interestingness: 29 out of 261

photo: 6437059637 e2aaceabed 7174
owner: 25857074@N03
title: UNHCR News Story: World AIDS Day: Refugees in Brazil use drama to catch the conscience
originalsecret: null
originalformat: null
o_height: null
o_width: null
datetaken: 2011-09-06 16:13:39
dateupload: 1322759315
tags: brazil latinamerica riodejaneiro youth children actors comedy play theatre refugees health cast awareness drama caritas slum unhcr hivaids religiouscommunity genderbasedviolence sgbv unrefugeeagency highcommissionerforrefugees webstory1december2011 thearchdioceseofriodejaneiro mar?complex plublichealth
license: 0
latitude: -22.97673
longitude: -43.195079
accuracy: 11
views: 65
interestingness: 30 out of 261

photo: 6435696471 56672c2b45 7166
owner: 60069951@N07
title: Norfolk Fire & Rescue Service / Commer MKIV Jennings Water Tender / 2998 VF
originalsecret: null
originalformat: null
o_height: null
o_width: null
datetaken: 2010-06-20 10:44:56
dateupload: 1322737415
tags: show uk england rescue water fire norfolk engine olympus fireman service dslr firefighter 112 feuerwehr bomberos derby tender brandweer jennings 115 2010 commer 999 mkiv evolt pompiers bombero e500 nfrs 2998vf norfolkfirerescueservice derbyfirerescueshow2010
license: 0
latitude: 52.931573
longitude: -1.505041
accuracy: 16
views: 16
interestingness: 31 out of 261

photo: 6435722477 b833a5794e 7171
owner: 61783509@N07
title: 3926-R285LGH_Eldon Square_X3
originalsecret: 1db9b3eafe
originalformat: jpg
o_height: 2258
o_width: 3017
datetaken: 2011-11-30 17:51:34
dateupload: 1322737946
tags: gonortheast volvoolympian northerncountiespalatine
license: 0
latitude: 54.975852
longitude: -1.61499
accuracy: 15
views: 73
interestingness: 32 out of 261

photo: 6435286095 52c2fa9876 7020
owner: 37458121@N05
title: Lash up NZ style!
originalsecret: null
originalformat: null
o_height: null
o_width: null
datetaken: 2011-11-29 05:47:58
dateupload: 1322727553
tags: christchurch dc nz otago dunedin dxb middleton dft 4726 7049 5143 kiwirail
license: 0
latitude: -45.753151
longitude: 170.613212
accuracy: 11
views: 61
interestingness: 33 out of 261

photo: 6435042547 cf60596cd7 7168
owner: 96142515@N00
title: The Crowd Arrives
originalsecret: 5be6ebdc1a
originalformat: jpg
o_height: 3009
o_width: 4514
datetaken: 2011-04-10 10:46:48
dateupload: 1322722048
tags: africa children crowd group gathering uganda adults praise africans adamcohn wwwadamcohncom
license: 3
latitude: -1.278095
longitude: 29.744525
accuracy: 16
views: 13
interestingness: 34 out of 261

photo: 6433842371 f8b86c55e6 7168
owner: 38902313@N04
title: Poached With Avo and Salmon
originalsecret: null
originalformat: null
o_height: null
o_width: null
datetaken: 2011-11-05 09:43:22
dateupload: 1322702713
tags: travel newzealand food avocado salmon wanaka kaz aroundtheworld poachedegg gavinfirkser shwartzinator
license: 0
latitude: -44.688156
longitude: 169.172439
accuracy: 15
views: 32
interestingness: 35 out of 261

photo: 6438291927 8c5d284308 7019
owner: 24609616@N05
title: RM22 & B60
originalsecret: null
originalformat: null
o_height: null
o_width: null
datetaken: 1978-12-10 19:05:00
dateupload: 1322775664
tags: australia victoria walker aus vr frankston bclass victorianrailways b60 rm22 raimotor winkieg
license: 0
latitude: -38.142959
longitude: 145.12605
accuracy: 16
views: 64
interestingness: 36 out of 261

photo: 6435801963 39a50e6513 7175
owner: 60069951@N07
title: Nottinghamshire Fire & Rescue Service / Dennis RS237 JDC / F999 HVO
originalsecret: null
originalformat: null
o_height: null
o_width: null
datetaken: 2010-06-20 10:42:35
dateupload: 1322739608
tags: nottinghamshire fire rescue service dennis rs237 jdc f999hvo derby show 2010 derbyfirerescueshow2010 england uk olympus evolt e500 dslr nfrs nottinghamshirefirerescueservice fireman engine 999 112 115 bombero bomberos firefighter brandweer feuerwehr pompiers
license: 0
latitude: 52.931573
longitude: -1.505041
accuracy: 16
views: 36
interestingness: 37 out of 261

photo: 6435798273 efb7fdf64f 7032
owner: 60069951@N07
title: Falkland Islands Fire & Rescue Service / Land Rover Range Rover Carmichael Rescue Tender / F1320
originalsecret: null
originalformat: null
o_height: null
o_width: null
datetaken: 2010-06-20 10:42:06
dateupload: 1322739541
tags: show uk england rescue fire islands rover olympus land service dslr range derby tender carmichael 2010 evolt falkland e500 f1320 derbyfirerescueshow2010
license: 0
latitude: 52.931573
longitude: -1.505041
accuracy: 16
views: 37
interestingness: 38 out of 261

photo: 6438266423 ec21ce5684 7034
owner: 13566646@N00
title: First Great Western 'Turbo' Class 165/1 no. 165106 arrives at Redhill Station with a service to Reading via Guildford
originalsecret: null
originalformat: null
o_height: null
o_width: null
datetaken: 2010-07-29 11:09:54
dateupload: 1322775339
tags: station train lumix diesel great first rail railway surrey panasonic western redhill multiple unit dmu fgw class1651 p1000287 165106 dmczx1
license: 0
latitude: 51.239834
longitude: -0.166018
accuracy: 14
views: 7
interestingness: 39 out of 261

photo: 6435804215 c8ebc22caa 7015
owner: 60069951@N07
title: Fire Service College / Bedford HCB Angus Wheeled Pump Escape / ALT 468H
originalsecret: null
originalformat: null
o_height: null
o_width: null
datetaken: 2010-06-20 10:42:43
dateupload: 1322739652
tags: show uk england rescue college bedford fire escape angus olympus pump wheeled service dslr derby 2010 evolt e500 hcb alt468h derbyfirerescueshow2010
license: 0
latitude: 52.931573
longitude: -1.505041
accuracy: 16
views: 31
interestingness: 40 out of 261

photo: 6435686559 96af1b27d1 7156
owner: 60069951@N07
title: Warwickshire Police / Volvo V70 T5 Traffic Car / T274 RWK
originalsecret: null
originalformat: null
o_height: null
o_width: null
datetaken: 2010-06-20 10:44:12
dateupload: 1322737229
tags: show uk england rescue car fire volvo order traffic 911 police olympus t5 service law dslr wiltshire 112 derby warwickshire policeman 2010 999 evolt v70 e500 constabulary policing t274rwk wiltshireconstabulary derbyfirerescueshow2010
license: 0
latitude: 52.931573
longitude: -1.505041
accuracy: 16
views: 36
interestingness: 41 out of 261

photo: 6435694729 8c8809f726 7151
owner: 60069951@N07
title: Staffordshire Fire & Rescue Service / Dennis RS137 Pump / F820 SFA
originalsecret: null
originalformat: null
o_height: null
o_width: null
datetaken: 2010-06-20 10:44:50
dateupload: 1322737383
tags: show uk england rescue fire engine olympus pump fireman service dennis dslr firefighter 112 staffordshire feuerwehr bomberos derby brandweer 115 2010 999 evolt pompiers bombero e500 rs137 dfrs f820sfa staffordshirefirerescueservice derbyfirerescueshow2010
license: 0
latitude: 52.931573
longitude: -1.505041
accuracy: 16
views: 17
interestingness: 42 out of 261

photo: 6435568625 a0efc4c8d9 7031
owner: 60069951@N07
title: Derbyshire Constabulary / Ford Transit 150 TD LWB Protected Carrier / M212 RAL
originalsecret: null
originalformat: null
o_height: null
o_width: null
datetaken: 2010-06-20 10:47:44
dateupload: 1322734515
tags: show uk england ford fire order derbyshire 911 police olympus 150 transit service law dslr 112 derby carrier policeman 2010 protected td 999 evolt e500 lwb constabulary policing derbyshireconstabulary m212ral derbyfirerescueshow2010
license: 0
latitude: 52.931573
longitude: -1.505041
accuracy: 16
views: 36
interestingness: 43 out of 261

photo: 6434752649 7b79e343cd 7016
owner: 33075566@N08
title: Hazell(Carmel)-JFJ875-Moretonhampstead-174-040896
originalsecret: 4d85e4d474
originalformat: jpg
o_height: 1152
o_width: 1840
datetaken: 1996-08-04 00:00:01
dateupload: 1322716326
tags: carmel moretonhampstead daimlercvd6 carmelcoaches daimlercvd6sd jfj875
license: 0
latitude: 50.660585
longitude: -3.768192
accuracy: 16
views: 10
interestingness: 44 out of 261

photo: 6433689621 00242df6ea 7159
owner: 28121598@N03
title: 150135
originalsecret: 2e01a66ed0
originalformat: jpg
o_height: 2736
o_width: 3648
datetaken: 2011-10-28 11:29:16
dateupload: 1322700429
tags: uk greatbritain england train unitedkingdom railway lancashire 150 preston northern lancs dmu multipleunit
license: 3
latitude: 53.755688
longitude: -2.707185
accuracy: 13
views: 26
interestingness: 45 out of 261

photo: 6438295303 894139b621 7009
owner: 49959666@N04
title: VOLVO FH - A.GOYANES Lugo Spain
originalsecret: f2985be35f
originalformat: jpg
o_height: 1129
o_width: 1766
datetaken: 2011-11-22 10:30:47
dateupload: 1322775709
tags: european trucks foreign lorries
license: 0
latitude: 56.387801
longitude: -3.480219
accuracy: 14
views: 36
interestingness: 46 out of 261

photo: 6435690259 42afdd0726 7146
owner: 60069951@N07
title: Norfolk Fire Service / Commer MKIV Jennings Water Tender / 2998 VF
originalsecret: null
originalformat: null
o_height: null
o_width: null
datetaken: 2010-06-20 10:44:36
dateupload: 1322737300
tags: show uk england rescue water fire norfolk engine olympus fireman service dslr firefighter 112 feuerwehr bomberos derby tender brandweer jennings 115 2010 commer 999 mkiv evolt pompiers bombero e500 nfrs 2998vf norfolkfirerescueservice derbyfirerescueshow2010
license: 0
latitude: 52.931573
longitude: -1.505041
accuracy: 16
views: 18
interestingness: 47 out of 261

photo: 6435560969 705346a2d5 7154
owner: 60069951@N07
title: Essex County Fire & Rescue Service / Dennis RS135 Rescue Pump / E876 ANO
originalsecret: null
originalformat: null
o_height: null
o_width: null
datetaken: 2010-06-20 10:46:26
dateupload: 1322734329
tags: show county uk england rescue fire engine olympus pump fireman service dennis dslr firefighter 112 essex feuerwehr bomberos derby brandweer 115 2010 999 evolt pompiers bombero e500 rs135 ecfrs essexcountyfirerescueservice e876ano derbyfirerescueshow2010
license: 0
latitude: 52.931573
longitude: -1.505041
accuracy: 16
views: 20
interestingness: 48 out of 261

photo: 6435558239 63fef4c252 7032
owner: 60069951@N07
title: Essex County Fire & Rescue Service / Dennis RS135 Rescue Pump / E876 ANO
originalsecret: null
originalformat: null
o_height: null
o_width: null
datetaken: 2010-06-20 10:46:04
dateupload: 1322734259
tags: show county uk england rescue fire engine olympus pump fireman service dennis dslr firefighter 112 essex feuerwehr bomberos derby brandweer 115 2010 999 evolt pompiers bombero e500 rs135 ecfrs essexcountyfirerescueservice e876ano derbyfirerescueshow2010
license: 0
latitude: 52.931573
longitude: -1.505041
accuracy: 16
views: 21
interestingness: 49 out of 261

photo: 6434753787 afb728fae6 7153
owner: 33075566@N08
title: Hazell(Carmel)-LOD495-CastleDrogo-174-200800
originalsecret: 23bb1e4943
originalformat: jpg
o_height: 1232
o_width: 1818
datetaken: 2000-08-20 00:00:00
dateupload: 1322716345
tags: carmel castledrogo carmelcoaches albionvictor lod495
license: 0
latitude: 50.699502
longitude: -3.809455
accuracy: 16
views: 11
interestingness: 50 out of 261

photo: 6434472169 3620dfdb21 7141
owner: 27346223@N00
title: one hour service
originalsecret: 8436673c17
originalformat: jpg
o_height: 1896
o_width: 2528
datetaken: 2011-11-30 10:29:12
dateupload: 1322711971
tags: sf sanfrancisco city sign signage soma wording
license: 3
latitude: 37.782667
longitude: -122.397077
accuracy: 16
views: 24
interestingness: 51 out of 261

photo: 6435292377 82e32e616f 7010
owner: 17391080@N00
title: sapporo184
originalsecret: 2dca47c3ec
originalformat: jpg
o_height: 2848
o_width: 4288
datetaken: 2011-10-20 12:32:12
dateupload: 1322727688
tags: road street urban japan town sapporo alley nikon hokkaido cityscape ??? ?? ?? d5000
license: 0
latitude: 43.062538
longitude: 141.347801
accuracy: 15
views: 13
interestingness: 52 out of 261

photo: 6434117671 c8bf8a1af3 7163
owner: 51318068@N00
title: seaboard waycar
originalsecret: null
originalformat: null
o_height: null
o_width: null
datetaken: 2011-11-29 14:58:50
dateupload: 1322706724
tags: georgia trains caboose depot chatsworth ln railroading louisvillenashville waycar seaboardsystemrailroad
license: 0
latitude: 34.768187
longitude: -84.768056
accuracy: 16
views: 8
interestingness: 53 out of 261

photo: 6435729811 aaf181e404 7162
owner: 61783509@N07
title: 3863-W863PNL_Eldon Square_X3
originalsecret: 84f42f7f4a
originalformat: jpg
o_height: 2210
o_width: 2968
datetaken: 2011-11-30 17:31:10
dateupload: 1322738096
tags: gonortheast dennistrident eastlancslolyne
license: 0
latitude: 54.975858
longitude: -1.615033
accuracy: 15
views: 86
interestingness: 54 out of 261

photo: 6437844487 3c4ea4d879 7002
owner: 47439051@N08
title: IMG_0439ca
originalsecret: b4bede5052
originalformat: jpg
o_height: 2743
o_width: 4065
datetaken: 2011-12-01 12:57:31
dateupload: 1322769945
tags: uk england west yorkshire protest leeds streetphotography litter dayofaction g10 candidandstreet canonpowershotg10
license: 0
latitude: 53.797832
longitude: -1.547074
accuracy: 15
views: 8
interestingness: 55 out of 261

photo: 6435013085 58dde7c475 7170
owner: 24364736@N00
title: Fire Station 22 - Napa County
originalsecret: null
originalformat: null
o_height: null
o_width: null
datetaken: 2011-11-30 17:15:51
dateupload: 1322721404
tags: us country 911 napacounty volunteerfiredepartment emergencyservices napacalifornia napafiredepartment stevenmorenospix
license: 0
latitude: 38.336837
longitude: -122.121047
accuracy: 16
views: 5
interestingness: 56 out of 261

photo: 6434344045 6f036cfdc6 7158
owner: 51427721@N06
title: Geeks on Call
originalsecret: null
originalformat: null
o_height: null
o_width: null
datetaken: 2009-12-18 12:04:11
dateupload: 1322710109
tags: tech computers geeks geeksoncall
license: 4
latitude: -34.926471
longitude: 138.599914
accuracy: 11
views: 87
interestingness: 57 out of 261

photo: 6434707435 dba3a00b21 7171
owner: 13741627@N03
title: Victoria Harbour night candid - Hong Kong
originalsecret: 5d15897f52
originalformat: jpg
o_height: 2649
o_width: 3394
datetaken: 2011-11-10 20:56:25
dateupload: 1322715512
tags: 
license: 0
latitude: 22.268764
longitude: 114.257812
accuracy: 2
views: 12
interestingness: 58 out of 261

photo: 6435688405 1a427c2243 7162
owner: 60069951@N07
title: Airfield Volunteer Fire Service / Bedfordshire & Luton Fire & Rescue Service / Land Rover 110 Pilcher Greene / B21 VTM
originalsecret: null
originalformat: null
o_height: null
o_width: null
datetaken: 2010-06-20 10:44:28
dateupload: 1322737265
tags: show uk england rescue fire 110 engine bedfordshire rover olympus land fireman service dslr volunteer firefighter greene 112 feuerwehr bomberos derby luton brandweer 115 airfield 2010 999 evolt pompiers bombero e500 pilcher b21vtm blfrs bedfordshirelutonfirerescueservice derbyfirerescueshow2010
license: 0
latitude: 52.931573
longitude: -1.505041
accuracy: 16
views: 43
interestingness: 59 out of 261

photo: 6436988007 d8228f286a 7145
owner: 7455860@N02
title: Laverie service
originalsecret: null
originalformat: null
o_height: null
o_width: null
datetaken: 2011-12-01 17:52:16
dateupload: 1322758336
tags: 
license: 0
latitude: 42.612167
longitude: 3.012333
accuracy: 16
views: 9
interestingness: 60 out of 261

photo: 6436729061 f19ebbe023 7007
owner: 28650594@N03
title: Day of Commitment Ceremony [Image 11 of 19]
originalsecret: 884c315d80
originalformat: jpg
o_height: 2848
o_width: 4288
datetaken: 2010-04-24 05:10:34
dateupload: 1322754923
tags: austin general military president iraq palace medal baghdad iq primeminister commitment vicepresident alfaw ond joebiden jalaltalabani usfi nourialmaliki operationnewdawn unitedstatesforcesiraq barrieau
license: 4
latitude: 33.328151
longitude: 44.386028
accuracy: 11
views: 47
interestingness: 61 out of 261

photo: 6435692465 bc37c160c0 7005
owner: 60069951@N07
title: Airfield Volunteer Fire Service / Bedfordshire & Luton Fire & Rescue Service / Land Rover 110 Pilcher Greene / B21 VTM
originalsecret: null
originalformat: null
o_height: null
o_width: null
datetaken: 2010-06-20 10:44:45
dateupload: 1322737343
tags: show uk england rescue fire 110 bedfordshire rover olympus land service dslr volunteer greene derby luton airfield 2010 evolt e500 pilcher b21vtm derbyfirerescueshow2010
license: 0
latitude: 52.931573
longitude: -1.505041
accuracy: 16
views: 30
interestingness: 62 out of 261

photo: 6436095231 784790bea3 7023
owner: 23525093@N07
title: Prayers of Abandonment
originalsecret: 4d45c4fb0c
originalformat: jpg
o_height: 683
o_width: 1024
datetaken: 2011-12-01 04:24:56
dateupload: 1322745282
tags: ocean longexposure blue beach bluehour reverebeach twighlight thebluehour
license: 0
latitude: 42.420225
longitude: -70.985927
accuracy: 13
views: 17
interestingness: 63 out of 261

photo: 6436823687 8d85c88675 7167
owner: 26650236@N07
title: 319217 to Bedford
originalsecret: eff63d4b7f
originalformat: jpg
o_height: 2736
o_width: 3648
datetaken: 2011-12-01 12:48:04
dateupload: 1322756178
tags: york uk london electric train southern railwaystation emu londonbridgestation brel platform6 class319 dualpower class3192 kenjonbro fujihs10 319217
license: 1
latitude: 51.504782
longitude: -0.08656
accuracy: 16
views: 25
interestingness: 64 out of 261

photo: 6435684357 16ac43cdc0 7019
owner: 60069951@N07
title: Kent Fire Brigade / Dennis Rapier Pump Ladder / M874 OKE
originalsecret: null
originalformat: null
o_height: null
o_width: null
datetaken: 2010-06-20 10:43:16
dateupload: 1322737182
tags: show uk england rescue fire kent riverside engine olympus pump fireman service ladder dennis dslr firefighter 112 feuerwehr bomberos derby rapier brandweer 115 2010 999 evolt pompiers bombero e500 kentfirerescueservice kfrs m874oke derbyfirerescueshow2010
license: 0
latitude: 52.931573
longitude: -1.505041
accuracy: 16
views: 23
interestingness: 65 out of 261

photo: 6436222749 fe82eb2dbe 7035
owner: 58263865@N05
title: 37405
originalsecret: 3521a7f856
originalformat: jpg
o_height: 732
o_width: 1024
datetaken: 2011-12-01 13:48:25
dateupload: 1322747516
tags: 
license: 0
latitude: 53.777161
longitude: -1.235747
accuracy: 14
views: 8
interestingness: 66 out of 261

photo: 6435044945 c593d09285 7169
owner: 96142515@N00
title: Arrival
originalsecret: 38f35859d2
originalformat: jpg
o_height: 3460
o_width: 2307
datetaken: 2011-04-10 10:46:51
dateupload: 1322722104
tags: africa sky inspiration man grass walking children walk uganda stride adamcohn wwwadamcohncom
license: 3
latitude: -1.278095
longitude: 29.744525
accuracy: 16
views: 12
interestingness: 67 out of 261

photo: 6435038399 f20876918d 7175
owner: 96142515@N00
title: Crowd Arriving
originalsecret: c85070d978
originalformat: jpg
o_height: 3456
o_width: 5184
datetaken: 2011-04-10 10:46:30
dateupload: 1322721960
tags: africa girls boys children crowd group gathering uganda africans adamcohn wwwadamcohncom
license: 3
latitude: -1.278095
longitude: 29.744525
accuracy: 16
views: 10
interestingness: 68 out of 261

photo: 6438182127 76a60bdb09 7175
owner: 33894481@N04
title: Private William Martin Robbins
originalsecret: 2d0c4312f9
originalformat: jpg
o_height: 3182
o_width: 2383
datetaken: 2011-09-28 13:15:02
dateupload: 1322774250
tags: uk england grave headstone wwi hampshire 1915 aldershot wargrave wardead aldershotmilitarycemetery williammartinrobbins
license: 0
latitude: 51.255475
longitude: -0.747081
accuracy: 16
views: 7
interestingness: 69 out of 261

photo: 6437844277 cd08362e53 7147
owner: 47439051@N08
title: IMG_0439 c
originalsecret: dac4dcc6f3
originalformat: jpg
o_height: 556
o_width: 800
datetaken: 2011-12-01 12:57:31
dateupload: 1322769942
tags: uk england white black west mono yorkshire leeds streetphotography litter dayofaction g10 candidandstreet canonpowershotg10
license: 0
latitude: 53.797908
longitude: -1.547042
accuracy: 15
views: 15
interestingness: 70 out of 261

photo: 6437798799 1b77ef0033 7174
owner: 33894481@N04
title: Private Henry French
originalsecret: 32518b8649
originalformat: jpg
o_height: 3000
o_width: 2237
datetaken: 2011-09-28 13:14:52
dateupload: 1322769351
tags: uk england grave headstone wwi hampshire 1915 aldershot wargrave wardead aldershotmilitarycemetery henryfrench
license: 0
latitude: 51.255475
longitude: -0.747081
accuracy: 16
views: 0
interestingness: 71 out of 261

photo: 6437554223 73e67b5b6c 7160
owner: 37374328@N06
title: Strikers: "We're Not Monsters"...
originalsecret: b664c3c6cf
originalformat: jpg
o_height: 3000
o_width: 4000
datetaken: 2011-11-30 13:47:42
dateupload: 1322765991
tags: public march protest sector banners winchester services protestors unison pensions striek
license: 0
latitude: 51.062469
longitude: -1.314185
accuracy: 15
views: 24
interestingness: 72 out of 261

photo: 6437549833 33342b5c41 7153
owner: 37374328@N06
title: Unison: Standing Up For Pubic Services!
originalsecret: bfc7f9b0b7
originalformat: jpg
o_height: 3000
o_width: 4000
datetaken: 2011-11-30 13:51:23
dateupload: 1322765931
tags: public march protest sector banners winchester services protestors unison pensions striek
license: 0
latitude: 51.062469
longitude: -1.314185
accuracy: 15
views: 17
interestingness: 73 out of 261

photo: 6437545829 baae850d05 7147
owner: 37374328@N06
title: Pensions Protest - Winchester
originalsecret: 117f27410b
originalformat: jpg
o_height: 3000
o_width: 4000
datetaken: 2011-11-30 13:47:18
dateupload: 1322765873
tags: public march protest sector banners winchester services protestors unison pensions striek
license: 0
latitude: 51.062469
longitude: -1.314185
accuracy: 15
views: 13
interestingness: 74 out of 261

photo: 6437541809 09f65196e4 7157
owner: 37374328@N06
title: Pensions Protest - Winchester
originalsecret: ef5071bec2
originalformat: jpg
o_height: 3000
o_width: 4000
datetaken: 2011-11-30 13:43:19
dateupload: 1322765818
tags: public march protest sector banners winchester services protestors unison pensions striek
license: 0
latitude: 51.062469
longitude: -1.314185
accuracy: 15
views: 9
interestingness: 75 out of 261

photo: 6437537541 c52005fc14 7171
owner: 37374328@N06
title: Pensions Protest - Winchester
originalsecret: 10fbdc350b
originalformat: jpg
o_height: 2649
o_width: 4000
datetaken: 2011-11-30 13:42:34
dateupload: 1322765760
tags: public march protest sector banners winchester services protestors unison pensions striek
license: 0
latitude: 51.062469
longitude: -1.314185
accuracy: 15
views: 9
interestingness: 76 out of 261

photo: 6437534303 0c4d1ea5c0 7153
owner: 37374328@N06
title: Pensions Protest - Winchester
originalsecret: d6644f45ee
originalformat: jpg
o_height: 3000
o_width: 4000
datetaken: 2011-11-30 13:46:35
dateupload: 1322765716
tags: public march protest sector banners winchester services protestors unison pensions striek
license: 0
latitude: 51.062469
longitude: -1.314185
accuracy: 15
views: 9
interestingness: 77 out of 261

photo: 6437445763 bdaf4ae96d 7158
owner: 47634910@N02
title: Mt Joy Observation Tower
originalsecret: c832af756a
originalformat: jpg
o_height: 435
o_width: 573
datetaken: 2011-12-01 13:34:25
dateupload: 1322764465
tags: tower washington nationalparkservice valleyforge
license: 0
latitude: 40.091607
longitude: -75.454337
accuracy: 13
views: 233
interestingness: 78 out of 261

photo: 6437410199 7dee169d8c 7147
owner: 28349080@N07
title: Over There - And Over Here-37.jpg
originalsecret: 83e4de2735
originalformat: jpg
o_height: 1856
o_width: 2784
datetaken: 2011-11-30 15:19:50
dateupload: 1322763979
tags: county school college john washington education university spokane maurice library rita over here jfk f there cheney eastern kennedy services sendak berman frishcer
license: 0
latitude: 47.490911
longitude: -117.584138
accuracy: 16
views: 34
interestingness: 79 out of 261

photo: 6437409577 52e6e57481 7170
owner: 28349080@N07
title: Over There - And Over Here-34.jpg
originalsecret: 9d830a852c
originalformat: jpg
o_height: 1856
o_width: 2784
datetaken: 2011-11-30 15:14:04
dateupload: 1322763970
tags: berman frishcer here jfk john library maurice over rita sendak services there cheney college county eastern education f kennedy school spokane university washington
license: 0
latitude: 47.490911
longitude: -117.584138
accuracy: 16
views: 34
interestingness: 80 out of 261

photo: 6437408949 429f334234 7032
owner: 28349080@N07
title: Over There - And Over Here-33.jpg
originalsecret: 80b7230fa0
originalformat: jpg
o_height: 1856
o_width: 2784
datetaken: 2011-11-30 15:13:39
dateupload: 1322763961
tags: county school college john washington education university spokane maurice library rita over here jfk f there cheney eastern kennedy services sendak berman frishcer
license: 0
latitude: 47.490911
longitude: -117.584138
accuracy: 16
views: 90
interestingness: 81 out of 261

photo: 6437408285 622609c387 7149
owner: 28349080@N07
title: Over There - And Over Here-31.jpg
originalsecret: 162a62925b
originalformat: jpg
o_height: 1856
o_width: 2784
datetaken: 2011-11-30 15:13:02
dateupload: 1322763952
tags: county school college john washington education university spokane maurice library rita over here jfk f there cheney eastern kennedy services sendak berman frishcer
license: 0
latitude: 47.490911
longitude: -117.584138
accuracy: 16
views: 51
interestingness: 82 out of 261

photo: 6437407759 af3a92f6c7 7157
owner: 28349080@N07
title: Over There - And Over Here-30.jpg
originalsecret: a3cb6aebe2
originalformat: jpg
o_height: 1856
o_width: 2784
datetaken: 2011-11-30 15:12:49
dateupload: 1322763945
tags: county school college john washington education university spokane maurice library rita over here jfk f there cheney eastern kennedy services sendak berman frishcer
license: 0
latitude: 47.490911
longitude: -117.584138
accuracy: 16
views: 44
interestingness: 83 out of 261

photo: 6437407131 d4c6c64cbb 7013
owner: 28349080@N07
title: Over There - And Over Here-28.jpg
originalsecret: 775c4561bf
originalformat: jpg
o_height: 1856
o_width: 2784
datetaken: 2011-11-30 15:11:59
dateupload: 1322763936
tags: county school college john washington education university spokane maurice library rita over here jfk f there cheney eastern kennedy services sendak berman frishcer
license: 0
latitude: 47.490911
longitude: -117.584138
accuracy: 16
views: 47
interestingness: 84 out of 261

photo: 6437406613 f0b925848f 7023
owner: 28349080@N07
title: Over There - And Over Here-27.jpg
originalsecret: 704fb35c99
originalformat: jpg
o_height: 1856
o_width: 2784
datetaken: 2011-11-30 15:11:42
dateupload: 1322763929
tags: county school college john washington education university spokane maurice library rita over here jfk f there cheney eastern kennedy services sendak berman frishcer
license: 0
latitude: 47.490911
longitude: -117.584138
accuracy: 16
views: 48
interestingness: 85 out of 261

photo: 6437406115 34ff39428d 7153
owner: 28349080@N07
title: Over There - And Over Here-26.jpg
originalsecret: 3eff6265bc
originalformat: jpg
o_height: 1856
o_width: 2784
datetaken: 2011-11-30 15:10:02
dateupload: 1322763923
tags: county school college john washington education university spokane maurice library rita over here jfk f there cheney eastern kennedy services sendak berman frishcer
license: 0
latitude: 47.490911
longitude: -117.584138
accuracy: 16
views: 50
interestingness: 86 out of 261

photo: 6437405541 548345e671 7001
owner: 28349080@N07
title: Over There - And Over Here-22.jpg
originalsecret: 89af42e809
originalformat: jpg
o_height: 1856
o_width: 2784
datetaken: 2011-11-30 15:07:12
dateupload: 1322763914
tags: county school college john washington education university spokane maurice library rita over here jfk f there cheney eastern kennedy services sendak berman frishcer
license: 0
latitude: 47.490911
longitude: -117.584138
accuracy: 16
views: 36
interestingness: 87 out of 261

photo: 6437404903 9b0c757b36 7149
owner: 28349080@N07
title: Over There - And Over Here-19.jpg
originalsecret: e054f9ffcc
originalformat: jpg
o_height: 1856
o_width: 2784
datetaken: 2011-11-30 15:06:56
dateupload: 1322763906
tags: county school college john washington education university spokane maurice library rita over here jfk f there cheney eastern kennedy services sendak berman frishcer
license: 0
latitude: 47.490911
longitude: -117.584138
accuracy: 16
views: 54
interestingness: 88 out of 261

photo: 6437404317 d452cc6291 7167
owner: 28349080@N07
title: Over There - And Over Here-18.jpg
originalsecret: 4d9cef716c
originalformat: jpg
o_height: 1856
o_width: 2784
datetaken: 2011-11-30 15:05:47
dateupload: 1322763897
tags: county school college john washington education university spokane maurice library rita over here jfk f there cheney eastern kennedy services sendak berman frishcer
license: 0
latitude: 47.490911
longitude: -117.584138
accuracy: 16
views: 34
interestingness: 89 out of 261

photo: 6437403681 646de2739b 7008
owner: 28349080@N07
title: Over There - And Over Here-13.jpg
originalsecret: acd57d6db1
originalformat: jpg
o_height: 2784
o_width: 1856
datetaken: 2011-11-30 15:05:23
dateupload: 1322763889
tags: county school college john washington education university spokane maurice library rita over here jfk f there cheney eastern kennedy services sendak berman frishcer
license: 0
latitude: 47.490911
longitude: -117.584138
accuracy: 16
views: 36
interestingness: 90 out of 261

photo: 6437403121 9ab4493b51 7156
owner: 28349080@N07
title: Over There - And Over Here-10.jpg
originalsecret: af444e8afb
originalformat: jpg
o_height: 1856
o_width: 2784
datetaken: 2011-11-30 15:05:16
dateupload: 1322763882
tags: county school college john washington education university spokane maurice library rita over here jfk f there cheney eastern kennedy services sendak berman frishcer
license: 0
latitude: 47.490911
longitude: -117.584138
accuracy: 16
views: 34
interestingness: 91 out of 261

photo: 6437402565 f78646beb2 7011
owner: 28349080@N07
title: Over There - And Over Here-8.jpg
originalsecret: 26c45a8ec7
originalformat: jpg
o_height: 2784
o_width: 1856
datetaken: 2011-11-30 15:03:40
dateupload: 1322763874
tags: county school college john washington education university spokane maurice library rita over here jfk f there cheney eastern kennedy services sendak berman frishcer
license: 0
latitude: 47.490911
longitude: -117.584138
accuracy: 16
views: 31
interestingness: 92 out of 261

photo: 6437401947 20e26efa59 7141
owner: 28349080@N07
title: Over There - And Over Here-6.jpg
originalsecret: 61fcd6e530
originalformat: jpg
o_height: 1856
o_width: 2784
datetaken: 2011-11-30 15:03:29
dateupload: 1322763866
tags: county school college john washington education university spokane maurice library rita over here jfk f there cheney eastern kennedy services sendak berman frishcer
license: 0
latitude: 47.490911
longitude: -117.584138
accuracy: 16
views: 35
interestingness: 93 out of 261

photo: 6437401363 43edfece5a 7018
owner: 28349080@N07
title: Over There - And Over Here-4.jpg
originalsecret: 9e7503bba7
originalformat: jpg
o_height: 1856
o_width: 2784
datetaken: 2011-11-30 15:03:01
dateupload: 1322763858
tags: county school college john washington education university spokane maurice library rita over here jfk f there cheney eastern kennedy services sendak berman frishcer
license: 0
latitude: 47.490911
longitude: -117.584138
accuracy: 16
views: 37
interestingness: 94 out of 261

photo: 6437400709 a38b66caab 7035
owner: 28349080@N07
title: Over There - And Over Here.jpg
originalsecret: 0d9eaa2c7a
originalformat: jpg
o_height: 2784
o_width: 1856
datetaken: 2011-11-30 15:02:49
dateupload: 1322763849
tags: county school college john washington education university spokane maurice library rita over here jfk f there cheney eastern kennedy services sendak berman frishcer
license: 0
latitude: 47.490911
longitude: -117.584138
accuracy: 16
views: 55
interestingness: 95 out of 261

photo: 6437368747 200e027eb3 7017
owner: 70127529@N00
title: Shell Gasoline Service Station, East Harlem, New York City
originalsecret: null
originalformat: null
o_height: null
o_width: null
datetaken: 2011-11-30 13:04:40
dateupload: 1322763410
tags: city nyc ny newyork station yellow harlem manhattan cab taxi shell gas east spanish toyota service gasoline eastharlem elbarrio spanishharlem firstavenue 96street
license: 0
latitude: 40.783222
longitude: -73.944725
accuracy: 16
views: 27
interestingness: 96 out of 261

photo: 6437049737 c0616c95d8 7143
owner: 70127529@N00
title: Shell Gasoline Service Station, East Harlem, New York City
originalsecret: null
originalformat: null
o_height: null
o_width: null
datetaken: 2011-11-30 14:55:03
dateupload: 1322759184
tags: city nyc ny newyork station yellow harlem manhattan cab taxi shell gas east spanish toyota service gasoline eastharlem elbarrio spanishharlem lexingtonavenue 102street
license: 0
latitude: 40.789513
longitude: -73.948105
accuracy: 16
views: 23
interestingness: 97 out of 261

photo: 6436810663 2e2f519453 7018
owner: 15518367@N03
title: CM735CL  Actv , Venice 471
originalsecret: b875b16f6e
originalformat: jpg
o_height: 1920
o_width: 2560
datetaken: 2011-11-17 09:31:00
dateupload: 1322755998
tags: venice italy bus mercedes benz airport service articulated psv pcv bendybus citaro
license: 0
latitude: 45.487643
longitude: 12.299376
accuracy: 16
views: 8
interestingness: 98 out of 261

photo: 6436729971 59480b78bf 7145
owner: 28650594@N03
title: Day of Commitment Ceremony [Image 15 of 19]
originalsecret: 5dc551642b
originalformat: jpg
o_height: 2848
o_width: 4288
datetaken: 2011-12-01 13:24:04
dateupload: 1322754935
tags: austin soldier army general military president iraq palace medal baghdad iq primeminister commitment vicepresident alfaw ond joebiden jalaltalabani usfi nourialmaliki vicepresidentbiden operationnewdawn unitedstatesforcesiraq barrieau
license: 4
latitude: 33.328151
longitude: 44.386028
accuracy: 11
views: 61
interestingness: 99 out of 261

photo: 6436729777 d85a62c6ed 7024
owner: 28650594@N03
title: Day of Commitment Ceremony [Image 4 of 19]
originalsecret: 8e7e6a0d3a
originalformat: jpg
o_height: 2848
o_width: 4288
datetaken: 2010-04-24 06:13:11
dateupload: 1322754932
tags: austin general military president iraq palace medal baghdad iq primeminister commitment vicepresident alfaw ond joebiden jalaltalabani usfi nourialmaliki vicepresidentbiden operationnewdawn unitedstatesforcesiraq barrieau
license: 4
latitude: 33.328151
longitude: 44.386028
accuracy: 11
views: 46
interestingness: 100 out of 261

photo: 6436729527 4d1882a689 7175
owner: 28650594@N03
title: Day of Commitment Ceremony [Image 14 of 19]
originalsecret: 4bf7885a06
originalformat: jpg
o_height: 2848
o_width: 4288
datetaken: 2011-12-01 13:53:26
dateupload: 1322754929
tags: austin soldier army general military president iraq palace medal baghdad iq primeminister commitment vicepresident alfaw ond joebiden jalaltalabani usfi nourialmaliki vicepresidentbiden operationnewdawn unitedstatesforcesiraq barrieau
license: 4
latitude: 33.328151
longitude: 44.386028
accuracy: 11
views: 61
interestingness: 101 out of 261

photo: 6435623631 0413c5879f 7032
owner: 23987565@N05
title: c.09/1996 - North Stafford Junction, Willington.
originalsecret: 9f72d6b019
originalformat: jpg
o_height: 683
o_width: 1024
datetaken: 1996-09-01 00:00:00
dateupload: 1322735866
tags: train diesel derbyshire railway willington passengertrain class47 intercityswallow stensonjunction northstaffordjunction
license: 0
latitude: 52.863171
longitude: -1.538858
accuracy: 13
views: 25
interestingness: 102 out of 261

photo: 6435567419 e960a7c8a5 7005
owner: 60069951@N07
title: Cambridgeshire Fire & Rescue Service / AEC Mercury Merryweather Turntable Ladder / BFL 785C
originalsecret: null
originalformat: null
o_height: null
o_width: null
datetaken: 2010-06-20 10:46:44
dateupload: 1322734484
tags: show uk england rescue fire mercury engine olympus turntable fireman service ladder dslr firefighter 112 feuerwehr bomberos derby cambridgeshire brandweer 115 2010 999 evolt pompiers bombero aec e500 merryweather cfrs bfl785c cambridgeshirefirerescueservice derbyfirerescueshow2010
license: 0
latitude: 52.931573
longitude: -1.505041
accuracy: 16
views: 13
interestingness: 103 out of 261

photo: 6435562729 0d2717e165 7148
owner: 60069951@N07
title: Nottinghamshire Fire Service / Leyland Titan PD2/10 Water Tender / PRR 1
originalsecret: null
originalformat: null
o_height: null
o_width: null
datetaken: 2010-06-20 10:46:36
dateupload: 1322734370
tags: show uk england rescue water fire engine olympus fireman service dslr titan firefighter 112 feuerwehr bomberos derby tender nottinghamshire brandweer 115 leyland 2010 999 evolt pompiers bombero e500 prr1 nfrs pd210 nottinghamshirefirerescueservice derbyfirerescueshow2010
license: 0
latitude: 52.931573
longitude: -1.505041
accuracy: 16
views: 16
interestingness: 104 out of 261

photo: 6435559711 19dcceed5d 7154
owner: 60069951@N07
title: Nottinghamshire Fire Service / Leyland Titan PD2/10 Water Tender / PRR 1
originalsecret: null
originalformat: null
o_height: null
o_width: null
datetaken: 2010-06-20 10:46:12
dateupload: 1322734297
tags: show uk england rescue water fire engine olympus fireman service dslr titan firefighter 112 feuerwehr bomberos derby tender nottinghamshire brandweer 115 leyland 2010 999 evolt pompiers bombero e500 prr1 nfrs pd210 nottinghamshirefirerescueservice derbyfirerescueshow2010
license: 0
latitude: 52.931573
longitude: -1.505041
accuracy: 16
views: 21
interestingness: 105 out of 261

photo: 6435556951 55b53c3f1b 7013
owner: 60069951@N07
title: Warwickshire Fire & Rescue Service / Dennis SS Pump Rescue Ladder / J461 SAC
originalsecret: null
originalformat: null
o_height: null
o_width: null
datetaken: 2010-06-20 10:45:55
dateupload: 1322734225
tags: show uk england rescue fire ss engine olympus pump fireman service ladder dennis dslr firefighter 112 feuerwehr bomberos derby warwickshire brandweer 115 2010 999 evolt pompiers bombero e500 wfrs j461sac warwickshirefirerescueservice derbyfirerescueshow2010
license: 0
latitude: 52.931573
longitude: -1.505041
accuracy: 16
views: 16
interestingness: 106 out of 261

photo: 6435552541 cd1f0dfe69 7029
owner: 60069951@N07
title: Warwickshire Fire & Rescue Service / Dennis SS Pump Rescue Ladder / J461 SAC
originalsecret: null
originalformat: null
o_height: null
o_width: null
datetaken: 2010-06-20 10:45:19
dateupload: 1322734111
tags: show uk england rescue fire ss engine olympus pump fireman service ladder dennis dslr firefighter 112 feuerwehr bomberos derby warwickshire brandweer 115 2010 999 evolt pompiers bombero e500 wfrs j461sac warwickshirefirerescueservice derbyfirerescueshow2010
license: 0
latitude: 52.931573
longitude: -1.505041
accuracy: 16
views: 13
interestingness: 107 out of 261

photo: 6435059899 2642520e98 7017
owner: 96142515@N00
title: Ugandan Women
originalsecret: bb9a416af4
originalformat: jpg
o_height: 3456
o_width: 5184
datetaken: 2011-04-10 10:51:43
dateupload: 1322722444
tags: africa field grass walking women cows uganda kisoro nyakabande adamcohn wwwadamcohncom
license: 3
latitude: -1.278095
longitude: 29.744525
accuracy: 16
views: 13
interestingness: 108 out of 261

photo: 6434751911 a478def6c0 7010
owner: 33075566@N08
title: Hazell(Carmel)-Shears(P)-LTA958-Moretonhampstead-174-190694ii
originalsecret: 3cf1717999
originalformat: jpg
o_height: 1139
o_width: 1840
datetaken: 1994-06-19 00:00:01
dateupload: 1322716314
tags: carmel moretonhampstead snoc southernnational bristoll lta958 carmelcoaches bristolll6b southernnationalomnibuscompany southernnationaloc
license: 0
latitude: 50.660585
longitude: -3.768192
accuracy: 16
views: 10
interestingness: 109 out of 261

photo: 6434751613 0eee9e5d3d 7149
owner: 33075566@N08
title: Hazell(Carmel)-Shears(P)-LTA958-Moretonhampstead-174-190694i
originalsecret: d9cbce43de
originalformat: jpg
o_height: 1211
o_width: 1840
datetaken: 1994-06-19 00:00:00
dateupload: 1322716309
tags: carmel moretonhampstead snoc southernnational bristoll lta958 carmelcoaches bristolll6b southernnationalomnibuscompany southernnationaloc
license: 0
latitude: 50.660585
longitude: -3.768192
accuracy: 16
views: 11
interestingness: 110 out of 261

photo: 6434111957 191073df1d 7144
owner: 51318068@N00
title: waycar data
originalsecret: null
originalformat: null
o_height: null
o_width: null
datetaken: 2011-11-29 15:00:51
dateupload: 1322706640
tags: georgia stencil trains caboose data chatsworth ln railroading louisvillenashville waycar seaboardsystemrailroad datebuilt dateserviced
license: 0
latitude: 34.768187
longitude: -84.768056
accuracy: 16
views: 4
interestingness: 111 out of 261

photo: 6433720457 4b15b97bf7 7161
owner: 16669082@N05
title: Pace, Freshwater Isle of Wight.
originalsecret: 36ac2284e2
originalformat: jpg
o_height: 2848
o_width: 4272
datetaken: 2011-06-30 18:07:32
dateupload: 1322700892
tags: garage broadway gas service pace petrol gasoline isle filling wight freshwater staton eybusman
license: 0
latitude: 50.684454
longitude: -1.53727
accuracy: 15
views: 47
interestingness: 112 out of 261

photo: 6433706671 e7232dc2dc 7166
owner: 16669082@N05
title: Key Fuels, Stibbington Cambridgeshire.
originalsecret: ba141378b5
originalformat: jpg
o_height: 1537
o_width: 2277
datetaken: 2010-04-18 16:05:45
dateupload: 1322700674
tags: station key closed gas service a1 petrol gasoline cambridgeshire filling fuels stibbington eybusman
license: 0
latitude: 52.573096
longitude: -0.399842
accuracy: 16
views: 58
interestingness: 113 out of 261

photo: 6433702587 bb3650a688 7170
owner: 16669082@N05
title: Ex Regent, Bishop Stortford Hertfordshire.
originalsecret: 671fee3c8b
originalformat: jpg
o_height: 646
o_width: 1024
datetaken: 2009-10-30 15:43:28
dateupload: 1322700615
tags: abandoned station closed gas service petrol gasoline stortford regent bishop hertfordshire filling eybusman
license: 0
latitude: 51.861552
longitude: 0.164022
accuracy: 15
views: 47
interestingness: 114 out of 261

photo: 6433695175 1184e11a07 7143
owner: 28121598@N03
title: 456021
originalsecret: 1c0ddee922
originalformat: jpg
o_height: 2736
o_width: 3648
datetaken: 2011-11-24 18:10:03
dateupload: 1322700504
tags: uk greatbritain england london train londonbridge unitedkingdom railway southern emu multipleunit govia
license: 3
latitude: 51.505149
longitude: -0.086184
accuracy: 16
views: 30
interestingness: 115 out of 261

photo: 6438185801 7d37eba629 7142
owner: 49959666@N04
title: SCANIA G380 - EDDIE STOBART Carlisle
originalsecret: 580d7476ee
originalformat: jpg
o_height: 1479
o_width: 2205
datetaken: 2011-11-25 14:16:33
dateupload: 1322774292
tags: trucks lorries stobart
license: 0
latitude: 56.387837
longitude: -3.480134
accuracy: 14
views: 39
interestingness: 116 out of 261

photo: 6438059009 b67118d12f 7015
owner: 40263244@N04
title: 75058 on a down service at Brockenhurst 04-06-66
originalsecret: 2893e7ac5a
originalformat: jpg
o_height: 698
o_width: 1024
datetaken: 2011-12-01 20:48:55
dateupload: 1322772748
tags: 
license: 0
latitude: 50.820035
longitude: -1.568641
accuracy: 11
views: 11
interestingness: 117 out of 261

photo: 6438008247 e7e0f2b404 7013
owner: 50168063@N03
title: Lothian 201 Interior
originalsecret: null
originalformat: null
o_height: null
o_width: null
datetaken: 2011-12-01 13:24:17
dateupload: 1322772118
tags: 
license: 0
latitude: 55.973197
longitude: -3.175864
accuracy: 16
views: 17
interestingness: 118 out of 261

photo: 6436800491 13ea3318d8 7152
owner: 15518367@N03
title: BH429FL Actv , Venice 146
originalsecret: 97c3068992
originalformat: jpg
o_height: 1920
o_width: 2560
datetaken: 2011-11-17 09:25:40
dateupload: 1322755854
tags: venice italy bus airport service iveco psv pcv actv
license: 0
latitude: 45.487463
longitude: 12.298947
accuracy: 16
views: 5
interestingness: 119 out of 261

photo: 6436707091 28f3cb6eab 7008
owner: 10108416@N00
title: NCDOT 1893
originalsecret: null
originalformat: null
o_height: null
o_width: null
datetaken: 2011-11-30 16:17:36
dateupload: 1322754636
tags: railroad northcarolina trains amtrak passenger railfan emd ncdot f59h
license: 0
latitude: 37.036337
longitude: -77.395119
accuracy: 14
views: 18
interestingness: 120 out of 261

photo: 6435870375 b71414b845 7022
owner: 36113961@N06
title: Wedding breakfast
originalsecret: null
originalformat: null
o_height: null
o_width: null
datetaken: 2011-06-09 20:11:09
dateupload: 1322741021
tags: china plate somerset crest porcelain frome dinnerservice orchardleighhouse nfweddingorchardleighhouseweddingfamilyukenglandjune20112011junejuneweddings
license: 0
latitude: 51.251279
longitude: -2.346868
accuracy: 13
views: 8
interestingness: 121 out of 261

photo: 6435714813 caf883f1d9 7165
owner: 61783509@N07
title: 3829-S829OFT_Eldon Square_X3
originalsecret: 4dd917574a
originalformat: jpg
o_height: 2304
o_width: 3072
datetaken: 2011-11-30 18:35:39
dateupload: 1322737788
tags: gonortheast volvoolympian northerncountiespalatine2
license: 0
latitude: 54.97584
longitude: -1.615054
accuracy: 15
views: 53
interestingness: 122 out of 261

photo: 6435432361 8021a51a07 7028
owner: 48597791@N04
title: Rijswijkseweg
originalsecret: null
originalformat: null
o_height: null
o_width: null
datetaken: 2011-09-17 14:16:02
dateupload: 1322731125
tags: trolley tram lightrail streetcar strassenbahn tranvia el?ctrico htm tramvia
license: 0
latitude: 52.062666
longitude: 4.332166
accuracy: 16
views: 9
interestingness: 123 out of 261

photo: 6434833019 010297b0ed 7168
owner: 24364736@N00
title: Cordelia Fire District
originalsecret: null
originalformat: null
o_height: null
o_width: null
datetaken: 2011-11-30 15:28:37
dateupload: 1322717811
tags: us 911 emergencyservices fairfieldcalifornia station29 stevenmorenospix cordeliacalifornia rockvillecalifornia cordeliafiredistrict
license: 0
latitude: 38.252386
longitude: -122.169846
accuracy: 15
views: 5
interestingness: 124 out of 261

photo: 6437004525 efc6aee333 7166
owner: 41133601@N03
title: Maytree Travel AD Enviro 200 40331.MX09HHN - Bolton
originalsecret: null
originalformat: null
o_height: null
o_width: null
datetaken: 2011-12-01 11:46:50
dateupload: 1322758555
tags: bolton alexander dennis enviro maytree metroshuttle 40331 mx09hhn
license: 0
latitude: 53.577655
longitude: -2.432774
accuracy: 16
views: 14
interestingness: 125 out of 261

photo: 6436828579 6c92e95743 7146
owner: 15518367@N03
title: DU 379 81 Dubrovnik , Croatia
originalsecret: a3c9336b63
originalformat: jpg
o_height: 1200
o_width: 1600
datetaken: 2011-11-22 14:51:32
dateupload: 1322756245
tags: man bus croatia service dubrovnik psv pcv libertas
license: 0
latitude: 42.652512
longitude: 18.089783
accuracy: 15
views: 2
interestingness: 126 out of 261

photo: 6435696451 1786bf330c 7146
owner: 48597791@N04
title: Rijswijkseweg
originalsecret: null
originalformat: null
o_height: null
o_width: null
datetaken: 2011-09-17 14:23:13
dateupload: 1322737415
tags: trolley tram streetcar strassenbahn tranvia el?ctrico htm tramvia
license: 0
latitude: 52.062666
longitude: 4.332166
accuracy: 16
views: 5
interestingness: 127 out of 261

photo: 6435695751 5c20a73f1d 7150
owner: 48597791@N04
title: Rijswijkseweg
originalsecret: null
originalformat: null
o_height: null
o_width: null
datetaken: 2011-09-17 14:23:07
dateupload: 1322737402
tags: trolley tram streetcar strassenbahn tranvia el?ctrico htm tramvia
license: 0
latitude: 52.062666
longitude: 4.332166
accuracy: 16
views: 11
interestingness: 128 out of 261

photo: 6435326125 d3ed85329b 7158
owner: 21532636@N05
title: p-CHE0273
originalsecret: 2f66535572
originalformat: jpg
o_height: 1517
o_width: 2000
datetaken: 2011-11-26 20:05:46
dateupload: 1322728510
tags: award redcross redcrescent ifrc henrydunant internationalconference statutorymeetings henridunant
license: 0
latitude: 46.218861
longitude: 6.141786
accuracy: 16
views: 61
interestingness: 129 out of 261

photo: 6435079175 96e04db4b9 7148
owner: 11904975@N00
title: Riddle of the day
originalsecret: 2506a80320
originalformat: jpg
o_height: 1936
o_width: 2592
datetaken: 2011-11-25 14:28:33
dateupload: 1322722866
tags: november coffee starbucks latte iphone disappointing 2011 iphone4
license: 0
latitude: 52.358167
longitude: -1.8275
accuracy: 16
views: 19
interestingness: 130 out of 261

photo: 6437741651 a8bb44467d 7141
owner: 55388780@N02
title: December Avecinia Specials 2011
originalsecret: null
originalformat: null
o_height: null
o_width: null
datetaken: 2011-12-01 11:43:02
dateupload: 1322768582
tags: christmas sale fresno botox specials obagi avecinia
license: 0
latitude: 36.839772
longitude: -119.762896
accuracy: 16
views: 14
interestingness: 131 out of 261

photo: 6436259623 9a8e804ae4 7145
owner: 31861951@N07
title: Grand lustre
originalsecret: null
originalformat: null
o_height: null
o_width: null
datetaken: 2008-06-12 10:41:43
dateupload: 1322748145
tags: art lorraine moselle lustre verrerie cristallerie saintlouislesbitche
license: 0
latitude: 48.7154
longitude: 6.264309
accuracy: 1
views: 1
interestingness: 132 out of 261

photo: 6434139477 c5ed17445f 7161
owner: 51065677@N05
title: 27NOV11: engraved wheat
originalsecret: c0e1cd9f04
originalformat: jpg
o_height: 1549
o_width: 1936
datetaken: 2011-11-27 10:01:59
dateupload: 1322707029
tags: church silver wheat engraving breadbox ciborium wheatstalks
license: 2
latitude: 34.186427
longitude: -82.15957
accuracy: 16
views: 0
interestingness: 133 out of 261

photo: 6433723979 07513bc6c3 7035
owner: 15364898@N08
title: Jalapeno Holiday by Target Services
originalsecret: 7d0bd4ecc3
originalformat: jpg
o_height: 1800
o_width: 1800
datetaken: 2011-12-01 00:00:49
dateupload: 1322700949
tags: westminster festival wreaths 2011 carrollartscenter carrollcountyartscouncil
license: 0
latitude: 39.577487
longitude: -76.998678
accuracy: 16
views: 17
interestingness: 134 out of 261

photo: 6437299699 98540fdcf0 7150
owner: 43351968@N02
title: HALcyon days
originalsecret: 395061ca7e
originalformat: jpg
o_height: 608
o_width: 912
datetaken: 1971-10-02 00:27:12
dateupload: 1322762464
tags: emu fratton southernrailway 4cor 2hal railuk
license: 0
latitude: 50.796034
longitude: -1.075973
accuracy: 13
views: 7
interestingness: 135 out of 261

photo: 6436922709 efb05d8c24 7151
owner: 40457697@N05
title: Temeke District, Tanzania Harm reduction programme
originalsecret: 5dbcc01a38
originalformat: jpg
o_height: 2912
o_width: 4368
datetaken: 2011-11-08 10:34:38
dateupload: 1322757482
tags: africa tanzania aids hiv temekedistrict agnesvarraineleca
license: 0
latitude: -6.82042
longitude: 39.275779
accuracy: 12
views: 4
interestingness: 136 out of 261

photo: 6436910399 c1c257c88c 7161
owner: 40457697@N05
title: Temeke District, Tanzania Harm reduction programme
originalsecret: 6163f3b432
originalformat: jpg
o_height: 2912
o_width: 4368
datetaken: 2011-11-08 11:07:22
dateupload: 1322757315
tags: africa tanzania aids hiv temekedistrict agnesvarraineleca
license: 0
latitude: -6.82042
longitude: 39.275779
accuracy: 12
views: 3
interestingness: 137 out of 261

photo: 6436893111 9933392aee 7156
owner: 40457697@N05
title: Temeke District, Tanzania Harm reduction programme
originalsecret: 02ab189203
originalformat: jpg
o_height: 2912
o_width: 4368
datetaken: 2011-11-08 10:39:21
dateupload: 1322757096
tags: africa tanzania aids hiv temekedistrict agnesvarraineleca
license: 0
latitude: -6.82042
longitude: 39.275779
accuracy: 12
views: 4
interestingness: 138 out of 261

photo: 6436879477 8eb1d3205f 7150
owner: 40457697@N05
title: Temeke District, Tanzania Harm reduction programme
originalsecret: 0111ff0cc1
originalformat: jpg
o_height: 2912
o_width: 4368
datetaken: 2011-11-08 11:16:11
dateupload: 1322756924
tags: africa tanzania aids hiv temekedistrict agnesvarraineleca
license: 0
latitude: -6.82042
longitude: 39.275779
accuracy: 12
views: 4
interestingness: 139 out of 261

photo: 6436870369 0411d450b5 7016
owner: 40457697@N05
title: Temeke District, Tanzania Harm reduction programme
originalsecret: 3dd5d4c656
originalformat: jpg
o_height: 2912
o_width: 4368
datetaken: 2011-11-09 11:38:38
dateupload: 1322756805
tags: africa tanzania aids hiv temekedistrict agnesvarraineleca
license: 0
latitude: -6.82042
longitude: 39.275779
accuracy: 12
views: 3
interestingness: 140 out of 261

photo: 6436858099 648c9af886 7035
owner: 40457697@N05
title: Temeke District, Tanzania Harm reduction programme
originalsecret: 05c3f75397
originalformat: jpg
o_height: 2912
o_width: 4368
datetaken: 2011-11-10 08:02:42
dateupload: 1322756640
tags: africa tanzania aids hiv temekedistrict agnesvarraineleca
license: 0
latitude: -6.82042
longitude: 39.275779
accuracy: 12
views: 3
interestingness: 141 out of 261

photo: 6436850585 5d8375bffe 7168
owner: 40457697@N05
title: Temeke District, Tanzania Harm reduction programme
originalsecret: 182411934b
originalformat: jpg
o_height: 2912
o_width: 4368
datetaken: 2011-11-09 08:42:16
dateupload: 1322756537
tags: africa tanzania aids hiv temekedistrict agnesvarraineleca
license: 0
latitude: -6.82042
longitude: 39.275779
accuracy: 12
views: 5
interestingness: 142 out of 261

photo: 6436833705 2dc4c54df9 7030
owner: 40457697@N05
title: Temeke District, Tanzania Harm reduction programme
originalsecret: 87f6ec650e
originalformat: jpg
o_height: 2912
o_width: 4368
datetaken: 2011-11-09 08:42:43
dateupload: 1322756315
tags: africa tanzania aids hiv temekedistrict agnesvarraineleca
license: 0
latitude: -6.82042
longitude: 39.275779
accuracy: 12
views: 3
interestingness: 143 out of 261

photo: 6436825133 2b6a257272 7163
owner: 40457697@N05
title: Temeke District, Tanzania Harm reduction programme
originalsecret: cc7330695e
originalformat: jpg
o_height: 4368
o_width: 2912
datetaken: 2011-11-09 08:51:31
dateupload: 1322756198
tags: africa tanzania aids hiv temekedistrict agnesvarraineleca
license: 0
latitude: -6.82042
longitude: 39.275779
accuracy: 12
views: 3
interestingness: 144 out of 261

photo: 6436817807 902469675a 7174
owner: 40457697@N05
title: Temeke District, Tanzania Harm reduction programme
originalsecret: 8a9458733e
originalformat: jpg
o_height: 2912
o_width: 4368
datetaken: 2011-11-09 08:56:23
dateupload: 1322756097
tags: africa tanzania aids hiv temekedistrict agnesvarraineleca
license: 0
latitude: -6.82042
longitude: 39.275779
accuracy: 12
views: 3
interestingness: 145 out of 261

photo: 6436808529 eb570ac235 7146
owner: 40457697@N05
title: Temeke District, Tanzania Harm reduction programme
originalsecret: 8f6d499e19
originalformat: jpg
o_height: 2912
o_width: 4368
datetaken: 2011-11-09 09:25:35
dateupload: 1322755966
tags: africa tanzania aids hiv temekedistrict agnesvarraineleca
license: 0
latitude: -6.82042
longitude: 39.275779
accuracy: 12
views: 2
interestingness: 146 out of 261

photo: 6436796491 23a85610a5 7161
owner: 40457697@N05
title: Temeke District, Tanzania Harm reduction programme
originalsecret: 242f484f83
originalformat: jpg
o_height: 2912
o_width: 4368
datetaken: 2011-11-10 16:53:36
dateupload: 1322755799
tags: africa tanzania aids hiv temekedistrict agnesvarraineleca
license: 0
latitude: -6.82042
longitude: 39.275779
accuracy: 12
views: 2
interestingness: 147 out of 261

photo: 6436779119 e02aa5f184 7018
owner: 40457697@N05
title: Temeke District, Tanzania Harm reduction programme
originalsecret: c775403463
originalformat: jpg
o_height: 2912
o_width: 4368
datetaken: 2011-11-10 06:55:16
dateupload: 1322755562
tags: africa tanzania aids hiv temekedistrict agnesvarraineleca
license: 0
latitude: -6.82042
longitude: 39.275779
accuracy: 12
views: 3
interestingness: 148 out of 261

photo: 6436765511 7f4392e3a7 7142
owner: 40457697@N05
title: Temeke District, Tanzania Harm reduction programme
originalsecret: 118c5d5b58
originalformat: jpg
o_height: 2912
o_width: 4368
datetaken: 2011-11-10 08:24:41
dateupload: 1322755387
tags: africa tanzania aids hiv temekedistrict agnesvarraineleca
license: 0
latitude: -6.82042
longitude: 39.275779
accuracy: 12
views: 2
interestingness: 149 out of 261

photo: 6436751411 a3e667a864 7003
owner: 40457697@N05
title: Temeke District, Tanzania Harm reduction programme
originalsecret: 860e52abfe
originalformat: jpg
o_height: 2912
o_width: 4368
datetaken: 2011-11-10 11:07:29
dateupload: 1322755208
tags: africa tanzania aids hiv temekedistrict agnesvarraineleca
license: 0
latitude: -6.82042
longitude: 39.275779
accuracy: 12
views: 3
interestingness: 150 out of 261

photo: 6436738165 bb03dc4392 7157
owner: 40457697@N05
title: Temeke District, Tanzania Harm reduction programme
originalsecret: 239e5267cb
originalformat: jpg
o_height: 2912
o_width: 4368
datetaken: 2011-11-08 10:50:10
dateupload: 1322755044
tags: africa tanzania aids hiv temekedistrict agnesvarraineleca
license: 0
latitude: -6.82042
longitude: 39.275779
accuracy: 12
views: 2
interestingness: 151 out of 261

photo: 6436727105 5ce304d076 7008
owner: 40457697@N05
title: Temeke District, Tanzania Harm reduction programme
originalsecret: 5ce6ddd663
originalformat: jpg
o_height: 2911
o_width: 4368
datetaken: 2011-11-09 12:38:11
dateupload: 1322754898
tags: africa tanzania aids hiv temekedistrict agnesvarraineleca
license: 0
latitude: -6.82042
longitude: 39.275779
accuracy: 12
views: 2
interestingness: 152 out of 261

photo: 6436709883 f5a05fe639 7152
owner: 40457697@N05
title: Temeke District, Tanzania Harm reduction programme
originalsecret: 25c8821c65
originalformat: jpg
o_height: 2912
o_width: 4368
datetaken: 2011-11-10 17:26:30
dateupload: 1322754673
tags: africa tanzania aids hiv temekedistrict agnesvarraineleca
license: 0
latitude: -6.82042
longitude: 39.275779
accuracy: 12
views: 2
interestingness: 153 out of 261

photo: 6436706533 b7cff3d316 7145
owner: 30209191@N03
title: Chester Services TIP
originalsecret: null
originalformat: null
o_height: null
o_width: null
datetaken: 2011-12-01 15:50:29
dateupload: 1322754629
tags: tourism brochures daysout leaflets m56motorway chesterservicespartnership
license: 0
latitude: 53.268177
longitude: -2.801342
accuracy: 14
views: 2
interestingness: 154 out of 261

photo: 6436692263 a10ce63235 7155
owner: 40457697@N05
title: Temeke District, Tanzania Harm reduction programme
originalsecret: 9ef8fc0fe5
originalformat: jpg
o_height: 2912
o_width: 4368
datetaken: 2011-11-10 17:23:57
dateupload: 1322754444
tags: africa tanzania aids hiv temekedistrict agnesvarraineleca
license: 0
latitude: -6.82042
longitude: 39.275779
accuracy: 12
views: 2
interestingness: 155 out of 261

photo: 6436676529 ea1bb04b31 7146
owner: 40457697@N05
title: Temeke District, Tanzania Harm reduction programme
originalsecret: 22731a013c
originalformat: jpg
o_height: 2912
o_width: 4368
datetaken: 2011-11-10 17:17:54
dateupload: 1322754230
tags: africa tanzania aids hiv temekedistrict agnesvarraineleca
license: 0
latitude: -6.82042
longitude: 39.275779
accuracy: 12
views: 0
interestingness: 156 out of 261

photo: 6436259859 f3f6aa8f7f 7017
owner: 31861951@N07
title: Services Obernai et Georges Sand
originalsecret: null
originalformat: null
o_height: null
o_width: null
datetaken: 2007-11-09 01:22:11
dateupload: 1322748150
tags: art cristal lorraine vosges portieux artverrier
license: 0
latitude: 48.347122
longitude: 6.341342
accuracy: 11
views: 2
interestingness: 157 out of 261

photo: 6436223249 cf1bb813fa 7162
owner: 71081220@N04
title: Small Business Accountant
originalsecret: null
originalformat: null
o_height: null
o_width: null
datetaken: 2011-12-01 07:52:06
dateupload: 1322747526
tags: texas tx taxaccountant smallbusinessaccountant fortworthcpa accountantingfirm
license: 0
latitude: 32.68518
longitude: -97.392463
accuracy: 16
views: 0
interestingness: 158 out of 261

photo: 6436223197 8f01e08bc2 7147
owner: 71081220@N04
title: Fort Worth CPA
originalsecret: null
originalformat: null
o_height: null
o_width: null
datetaken: 2011-12-01 07:52:05
dateupload: 1322747525
tags: texas tx taxaccountant smallbusinessaccountant fortworthcpa accountantingfirm
license: 0
latitude: 32.68518
longitude: -97.392463
accuracy: 16
views: 0
interestingness: 159 out of 261

photo: 6435533957 f931ce6ab5 7155
owner: 21647809@N04
title: Sydney Buses - Scania 3732 (Not in Service) - Archer & Victoria Streets, Chatswood - 20 October 2011
originalsecret: 4d63fefbfd
originalformat: jpg
o_height: 2052
o_width: 3136
datetaken: 2011-10-20 17:14:05
dateupload: 1322733631
tags: buses sydney newsouthwales suburb chatswood
license: 0
latitude: -33.795161
longitude: 151.185593
accuracy: 14
views: 10
interestingness: 160 out of 261

photo: 6434753221 aaba745040 7156
owner: 33075566@N08
title: Hazell(Carmel)-JFJ875-Moretonhampstead-174-030897
originalsecret: 19f426aff9
originalformat: jpg
o_height: 1148
o_width: 1840
datetaken: 1997-08-03 00:00:01
dateupload: 1322716336
tags: carmel moretonhampstead daimlercvd6 carmelcoaches daimlercvd6sd jfj875
license: 0
latitude: 50.660585
longitude: -3.768192
accuracy: 16
views: 5
interestingness: 161 out of 261

photo: 6434752887 3b35ce1a2d 7148
owner: 33075566@N08
title: Hazell(Carmel)-JFJ875-Okehampton-174-030897
originalsecret: 1e4b8ce5d5
originalformat: jpg
o_height: 1145
o_width: 1840
datetaken: 1997-08-03 00:00:00
dateupload: 1322716330
tags: carmel okehampton daimlercvd6 carmelcoaches daimlercvd6sd jfj875
license: 0
latitude: 50.732557
longitude: -3.996802
accuracy: 16
views: 5
interestingness: 162 out of 261

photo: 6434752283 f178e31bc6 7175
owner: 33075566@N08
title: Hazell(Carmel)-JFJ875-Okehampton-174-040896
originalsecret: 0a079727b6
originalformat: jpg
o_height: 1110
o_width: 1840
datetaken: 1996-08-04 00:00:00
dateupload: 1322716320
tags: carmel okehampton daimlercvd6 carmelcoaches daimlercvd6sd jfj875
license: 0
latitude: 50.740848
longitude: -4.003604
accuracy: 16
views: 4
interestingness: 163 out of 261

photo: 6434751291 72579d421e 7003
owner: 33075566@N08
title: Hazell(Carmel)-HGU681V-Okehampton-630-280392
originalsecret: 42224b99ab
originalformat: jpg
o_height: 1221
o_width: 1840
datetaken: 1992-03-28 00:00:00
dateupload: 1322716303
tags: mercedes mercedesbenz carmel okehampton carmelcoaches hgu681v
license: 0
latitude: 50.740848
longitude: -4.003604
accuracy: 16
views: 12
interestingness: 164 out of 261

photo: 6434078465 ce101cd4da 7016
owner: 57835821@N00
title: Rosemary Beach
originalsecret: ae802aff7c
originalformat: jpg
o_height: 3456
o_width: 4608
datetaken: 2011-11-26 10:47:18
dateupload: 1322706172
tags: alley florida fl newurbanism rosemarybeach traditionalneighborhood
license: 0
latitude: 30.281838
longitude: -86.014757
accuracy: 16
views: 14
interestingness: 165 out of 261

photo: 6433519089 d6d19a811e 7017
owner: 8736322@N08
title: Mount Rubidoux Junipero Serra Plaque
originalsecret: null
originalformat: null
o_height: null
o_width: null
datetaken: 2011-11-30 13:07:09
dateupload: 1322697823
tags: ca riverside juniperoserra riversidecalifornia mountrubidoux landmarksofthecityofriveride
license: 0
latitude: 33.984159
longitude: -117.392928
accuracy: 16
views: 4
interestingness: 166 out of 261

photo: 6437267463 febe58e412 7008
owner: 71210535@N06
title: Gypsum Chamber Logo
originalsecret: null
originalformat: null
o_height: null
o_width: null
datetaken: 2011-12-01 10:53:44
dateupload: 1322762024
tags: logo commerce chamber gypsum
license: 0
latitude: 39.644713
longitude: -106.949114
accuracy: 16
views: 6
interestingness: 167 out of 261

photo: 6437111233 b4239740f8 7024
owner: 87583925@N00
title: Pontefract
originalsecret: c5d85ceaba
originalformat: jpg
o_height: 3000
o_width: 4000
datetaken: 2011-12-01 11:44:49
dateupload: 1322760006
tags: pontefract irisbus agoraline mtravel gx07arf
license: 0
latitude: 53.692863
longitude: -1.308488
accuracy: 16
views: 55
interestingness: 168 out of 261

photo: 6435033025 1104db742f 7034
owner: 96142515@N00
title: Sing It!
originalsecret: 11806b527d
originalformat: jpg
o_height: 2707
o_width: 4061
datetaken: 2011-04-10 10:38:35
dateupload: 1322721844
tags: africa uganda adamcohn wwwadamcohncom
license: 3
latitude: -1.278095
longitude: 29.744525
accuracy: 16
views: 8
interestingness: 169 out of 261

photo: 6435030025 553d75f62b 7019
owner: 96142515@N00
title: Arriving at the Field
originalsecret: 2a91a913ea
originalformat: jpg
o_height: 2746
o_width: 4119
datetaken: 2011-04-10 10:45:47
dateupload: 1322721773
tags: africa uganda adamcohn wwwadamcohncom
license: 3
latitude: -1.278095
longitude: 29.744525
accuracy: 16
views: 14
interestingness: 170 out of 261

photo: 6435024913 e33f4303cc 7006
owner: 72934342@N00
title: the buttresses were flying everywhere!
originalsecret: 81d44c6ca9
originalformat: jpg
o_height: 2791
o_width: 1861
datetaken: 2011-07-09 14:38:07
dateupload: 1322721660
tags: church window architecture washingtondc washingtonnationalcathedral
license: 1
latitude: 38.931175
longitude: -77.070862
accuracy: 16
views: 14
interestingness: 171 out of 261

photo: 6435845563 bfcb0882b3 7148
owner: 66699217@N08
title: At Arri Film & TV Services GmbH / Rental Deutschland GmbH / AG
originalsecret: null
originalformat: null
o_height: null
o_width: null
datetaken: 2011-12-01 03:55:10
dateupload: 1322740510
tags: uploaded:by=flicksquare foursquare:venue=4e285067814df9e4be544fc8 geo:lat=481532104282046 geo:lon=115777015686035
license: 2
latitude: 48.15321
longitude: 11.577701
accuracy: 16
views: 0
interestingness: 172 out of 261

photo: 6435022633 c6daed2667 7024
owner: 72934342@N00
title: St. Mary's Chapel
originalsecret: 82b6919dd0
originalformat: jpg
o_height: 2048
o_width: 3072
datetaken: 2011-07-09 14:17:04
dateupload: 1322721608
tags: art church washingtondc washingtonnationalcathedral
license: 1
latitude: 38.931175
longitude: -77.070862
accuracy: 16
views: 10
interestingness: 173 out of 261

photo: 6434690995 a370a0646a 7153
owner: 33170436@N03
title: Reid CIT Central Services Building Opening
originalsecret: de28df79fd
originalformat: jpg
o_height: 3000
o_width: 4000
datetaken: 2011-10-25 12:52:33
dateupload: 1322715241
tags: canberra susanryan archivesact reidcit
license: 2
latitude: -35.285651
longitude: 149.136486
accuracy: 16
views: 2
interestingness: 174 out of 261

photo: 6438028065 21b9ce266c 7023
owner: 50168063@N03
title: Test screen on Lothian 866
originalsecret: null
originalformat: null
o_height: null
o_width: null
datetaken: 2011-12-01 13:59:29
dateupload: 1322772367
tags: 
license: 0
latitude: 55.946045
longitude: -3.236171
accuracy: 16
views: 42
interestingness: 175 out of 261

photo: 6437771579 8a1facf7ba 7012
owner: 66356853@N06
title: Direct Rail Services Lead Engine 37087: Ipswich Station
originalsecret: e15fbc6d8c
originalformat: jpg
o_height: 3190
o_width: 4880
datetaken: 2011-12-01 15:49:07
dateupload: 1322768984
tags: 
license: 0
latitude: 52.05059
longitude: 1.145153
accuracy: 13
views: 40
interestingness: 176 out of 261

photo: 6437019225 1e2e52f8e8 7170
owner: 50168063@N03
title: Madder v Harlequin
originalsecret: null
originalformat: null
o_height: null
o_width: null
datetaken: 2011-12-01 11:54:21
dateupload: 1322758758
tags: 
license: 0
latitude: 55.952653
longitude: -3.191571
accuracy: 15
views: 10
interestingness: 177 out of 261

photo: 6436286691 ba15c562d5 7146
owner: 69161606@N02
title: LIC Student Services team
originalsecret: 2814dff4db
originalformat: jpg
o_height: 461
o_width: 614
datetaken: 2011-12-01 06:09:24
dateupload: 1322748564
tags: studentservices licstaff liverpoolinternationalcollege
license: 0
latitude: 53.411169
longitude: -2.980213
accuracy: 12
views: 1
interestingness: 178 out of 261

photo: 6436286597 3be8c9db2e 7172
owner: 69161606@N02
title: Gaye Harrison
originalsecret: ca5312b387
originalformat: jpg
o_height: 461
o_width: 614
datetaken: 2011-12-01 06:09:23
dateupload: 1322748563
tags: studentservices licstaff liverpoolinternationalcollege
license: 0
latitude: 53.411169
longitude: -2.980213
accuracy: 12
views: 0
interestingness: 179 out of 261

photo: 6436286495 634bdd3f11 7005
owner: 69161606@N02
title: Gaye Harrison
originalsecret: 274f6b3f19
originalformat: jpg
o_height: 720
o_width: 960
datetaken: 2011-12-01 06:09:21
dateupload: 1322748561
tags: studentservices licstaff liverpoolinternationalcollege
license: 0
latitude: 53.411169
longitude: -2.980213
accuracy: 12
views: 0
interestingness: 180 out of 261

photo: 6436286413 50fd42f1e4 7162
owner: 69161606@N02
title: Gaye and Joy
originalsecret: 255ae69443
originalformat: jpg
o_height: 720
o_width: 960
datetaken: 2011-12-01 06:09:20
dateupload: 1322748560
tags: studentservices licstaff liverpoolinternationalcollege
license: 0
latitude: 53.411169
longitude: -2.980213
accuracy: 12
views: 0
interestingness: 181 out of 261

photo: 6436286283 36dfabbdc9 7029
owner: 69161606@N02
title: Gaye and Joy
originalsecret: a94ffd7a01
originalformat: jpg
o_height: 960
o_width: 720
datetaken: 2011-12-01 06:09:18
dateupload: 1322748558
tags: studentservices licstaff liverpoolinternationalcollege
license: 0
latitude: 53.411169
longitude: -2.980213
accuracy: 12
views: 0
interestingness: 182 out of 261

photo: 6436286143 c508092648 7015
owner: 69161606@N02
title: Gaye and Joy
originalsecret: 85a4ec56e4
originalformat: jpg
o_height: 720
o_width: 960
datetaken: 2011-12-01 06:09:16
dateupload: 1322748556
tags: studentservices licstaff liverpoolinternationalcollege
license: 0
latitude: 53.411169
longitude: -2.980213
accuracy: 12
views: 0
interestingness: 183 out of 261

photo: 6435725811 e0dc3a55b4 7020
owner: 61783509@N07
title: 4933-Y933ERG_Sunderland_60
originalsecret: e16b642f0e
originalformat: jpg
o_height: 1994
o_width: 2655
datetaken: 2011-11-30 11:22:50
dateupload: 1322738013
tags: gonortheast wrightsolar scanial94ub
license: 0
latitude: 54.877007
longitude: -1.360802
accuracy: 15
views: 28
interestingness: 184 out of 261

photo: 6435718165 5a65de52f2 7035
owner: 61783509@N07
title: 6012-V312LGC_Eldon Square_31
originalsecret: 0e4cfc394a
originalformat: jpg
o_height: 2047
o_width: 2707
datetaken: 2011-11-30 18:58:32
dateupload: 1322737860
tags: gonortheast plaxtonpresident volvob7tl
license: 0
latitude: 54.975908
longitude: -1.614625
accuracy: 15
views: 40
interestingness: 185 out of 261

photo: 6435710817 79af13bb61 7159
owner: 61783509@N07
title: 8212-V212ERG_Ryhope_61
originalsecret: d23b63a930
originalformat: jpg
o_height: 2304
o_width: 3072
datetaken: 2011-11-30 11:27:32
dateupload: 1322737703
tags: gonortheast dennisdartslf plaxtonsuperpointer
license: 0
latitude: 54.877069
longitude: -1.360845
accuracy: 15
views: 17
interestingness: 186 out of 261

photo: 6435040667 d2c6938a8b 7010
owner: 65847316@N07
title: Servicing airplanes at Sydney Airport, circa 1955
originalsecret: null
originalformat: null
o_height: null
o_width: null
datetaken: 2011-11-23 15:39:13
dateupload: 1322722009
tags: airplanes sydneyairport
license: 0
latitude: -33.932233
longitude: 151.178591
accuracy: 14
views: 5
interestingness: 187 out of 261

photo: 6438194053 1984f668f1 7013
owner: 66492405@N04
title: Boutique San Francisco Hotel
originalsecret: null
originalformat: null
o_height: null
o_width: null
datetaken: 2011-12-01 13:19:57
dateupload: 1322774397
tags: nobhillhotels boutiquesanfranciscohotels
license: 0
latitude: 37.792007
longitude: -122.409339
accuracy: 16
views: 0
interestingness: 188 out of 261

photo: 6435872019 2075105c03 7168
owner: 69812784@N03
title: 100 Strangers #008: Chris
originalsecret: null
originalformat: null
o_height: null
o_width: null
datetaken: 2011-12-01 07:04:16
dateupload: 1322741056
tags: chris 100strangers
license: 0
latitude: 30.215835
longitude: -81.686439
accuracy: 16
views: 5
interestingness: 189 out of 261

photo: 6435040209 02fce4c081 7032
owner: 65847316@N07
title: Servicing airplanes at Sydney Airport, circa 1955
originalsecret: null
originalformat: null
o_height: null
o_width: null
datetaken: 2011-11-23 15:37:53
dateupload: 1322721999
tags: airplanes sydneyairport
license: 0
latitude: -33.931681
longitude: 151.178848
accuracy: 14
views: 2
interestingness: 190 out of 261

photo: 6437246335 a37e56fefd 7168
owner: 50168063@N03
title: Lothian 641
originalsecret: null
originalformat: null
o_height: null
o_width: null
datetaken: 2011-12-01 13:11:53
dateupload: 1322761740
tags: 
license: 0
latitude: 55.979369
longitude: -3.179007
accuracy: 16
views: 12
interestingness: 191 out of 261

photo: 6437232361 0469dc9193 7152
owner: 50168063@N03
title: Lothian 776
originalsecret: null
originalformat: null
o_height: null
o_width: null
datetaken: 2011-12-01 13:06:09
dateupload: 1322761549
tags: 
license: 0
latitude: 55.980545
longitude: -3.176679
accuracy: 14
views: 12
interestingness: 192 out of 261

photo: 6436954263 f5b627fefd 7004
owner: 50168063@N03
title: Lothian 908
originalsecret: null
originalformat: null
o_height: null
o_width: null
datetaken: 2011-12-01 11:40:35
dateupload: 1322757885
tags: 
license: 0
latitude: 55.953494
longitude: -3.197354
accuracy: 16
views: 4
interestingness: 193 out of 261

photo: 6438208081 9e1106ba62 7016
owner: 40263244@N04
title: West Country class 34040 10-09-66
originalsecret: 9a9e5b249a
originalformat: jpg
o_height: 627
o_width: 1024
datetaken: 2011-12-01 21:19:48
dateupload: 1322774582
tags: 
license: 0
latitude: 50.690803
longitude: -2.118988
accuracy: 11
views: 3
interestingness: 194 out of 261

photo: 6438204931 3b180030ef 7025
owner: 40263244@N04
title: West Country class 34008 Padstow on a Weymouth - Waterloo service 04-06-66
originalsecret: 1541a84a5d
originalformat: jpg
o_height: 625
o_width: 1024
datetaken: 2011-12-01 21:12:36
dateupload: 1322774541
tags: 
license: 0
latitude: 50.729284
longitude: -1.868019
accuracy: 11
views: 6
interestingness: 195 out of 261

photo: 6437932873 5650ae023b 7168
owner: 55391106@N00
title: DSC_0021
originalsecret: null
originalformat: null
o_height: null
o_width: null
datetaken: 2005-05-06 19:56:26
dateupload: 1322771158
tags: 
license: 0
latitude: 51.415081
longitude: -1.15135
accuracy: 11
views: 7
interestingness: 196 out of 261

photo: 6437932235 419d138fcd 7166
owner: 55391106@N00
title: DSC_0016
originalsecret: null
originalformat: null
o_height: null
o_width: null
datetaken: 2005-05-06 19:55:13
dateupload: 1322771151
tags: 
license: 0
latitude: 51.415081
longitude: -1.15135
accuracy: 11
views: 7
interestingness: 197 out of 261

photo: 6437856633 229ecb9c06 7163
owner: 66508977@N08
title: Remodel Your Kitchen with Stonebreaker Builders of St. Charles, IL (630) 762-8838
originalsecret: null
originalformat: null
o_height: null
o_width: null
datetaken: 2011-12-01 12:08:28
dateupload: 1322770108
tags: 
license: 0
latitude: 41.935306
longitude: -88.40023
accuracy: 16
views: 0
interestingness: 198 out of 261

photo: 6437856549 0cc5554f6a 7142
owner: 66508977@N08
title: Makeover Your Kitchen with Stonebreaker Builders of St. Charles, IL (630) 762-8838
originalsecret: null
originalformat: null
o_height: null
o_width: null
datetaken: 2011-12-01 12:08:27
dateupload: 1322770107
tags: 
license: 0
latitude: 41.935306
longitude: -88.40023
accuracy: 16
views: 1
interestingness: 199 out of 261

photo: 6437776661 cc640bef08 7156
owner: 66356853@N06
title: Direct Rail Services 37688 Crawls Past Platform 3: Ipswich Station
originalsecret: eaaa462ec9
originalformat: jpg
o_height: 3264
o_width: 4928
datetaken: 2011-12-01 15:49:14
dateupload: 1322769068
tags: 
license: 0
latitude: 52.050722
longitude: 1.145153
accuracy: 13
views: 23
interestingness: 200 out of 261

photo: 6437406771 3cc02125ba 7019
owner: 60142746@N00
title: Toyota passenger van
originalsecret: e7df7235cc
originalformat: jpg
o_height: 2160
o_width: 2880
datetaken: 2011-11-16 07:58:12
dateupload: 1322763932
tags: 
license: 3
latitude: 20.445511
longitude: -87.289466
accuracy: 11
views: 4
interestingness: 201 out of 261

photo: 6437187049 3bdaaf98a4 7150
owner: 50168063@N03
title: Lothian 999
originalsecret: null
originalformat: null
o_height: null
o_width: null
datetaken: 2011-12-01 12:58:15
dateupload: 1322760989
tags: 
license: 0
latitude: 55.980077
longitude: -3.17758
accuracy: 14
views: 10
interestingness: 202 out of 261

photo: 6437184773 4097daa746 7161
owner: 50168063@N03
title: Lothian 640
originalsecret: null
originalformat: null
o_height: null
o_width: null
datetaken: 2011-12-01 12:54:49
dateupload: 1322760960
tags: 
license: 0
latitude: 55.980077
longitude: -3.17758
accuracy: 14
views: 7
interestingness: 203 out of 261

photo: 6437181623 32dc131ec5 7011
owner: 50168063@N03
title: Lothian 998
originalsecret: null
originalformat: null
o_height: null
o_width: null
datetaken: 2011-12-01 12:52:50
dateupload: 1322760917
tags: 
license: 0
latitude: 55.980077
longitude: -3.17758
accuracy: 14
views: 10
interestingness: 204 out of 261

photo: 6437173091 174c5b304e 7146
owner: 50168063@N03
title: Lothian 762
originalsecret: null
originalformat: null
o_height: null
o_width: null
datetaken: 2011-12-01 12:50:51
dateupload: 1322760808
tags: 
license: 0
latitude: 55.980533
longitude: -3.177065
accuracy: 14
views: 9
interestingness: 205 out of 261

photo: 6437155725 e95eb9c94a 7007
owner: 50168063@N03
title: Lothian 383
originalsecret: null
originalformat: null
o_height: null
o_width: null
datetaken: 2011-12-01 12:31:18
dateupload: 1322760585
tags: 
license: 0
latitude: 55.970679
longitude: -3.171755
accuracy: 16
views: 11
interestingness: 206 out of 261

photo: 6437142075 105d7b1fe9 7028
owner: 50168063@N03
title: Lothian 654
originalsecret: null
originalformat: null
o_height: null
o_width: null
datetaken: 2011-12-01 12:28:42
dateupload: 1322760414
tags: 
license: 0
latitude: 55.970679
longitude: -3.171755
accuracy: 16
views: 6
interestingness: 207 out of 261

photo: 6437137159 9a0dc12cb6 7150
owner: 50168063@N03
title: Lothian 385
originalsecret: null
originalformat: null
o_height: null
o_width: null
datetaken: 2011-12-01 12:26:08
dateupload: 1322760351
tags: 
license: 0
latitude: 55.970679
longitude: -3.171755
accuracy: 16
views: 9
interestingness: 208 out of 261

photo: 6437128855 83cfd55e54 7143
owner: 50168063@N03
title: Lothian 60
originalsecret: null
originalformat: null
o_height: null
o_width: null
datetaken: 2011-12-01 12:09:47
dateupload: 1322760243
tags: 
license: 0
latitude: 55.952653
longitude: -3.191571
accuracy: 15
views: 18
interestingness: 209 out of 261

photo: 6437126579 bcbc19b15e 7168
owner: 50168063@N03
title: Lothian 778
originalsecret: null
originalformat: null
o_height: null
o_width: null
datetaken: 2011-12-01 12:09:19
dateupload: 1322760212
tags: 
license: 0
latitude: 55.952653
longitude: -3.191571
accuracy: 15
views: 8
interestingness: 210 out of 261

photo: 6437124087 95e4b9ce70 7171
owner: 50168063@N03
title: Lothian 875
originalsecret: null
originalformat: null
o_height: null
o_width: null
datetaken: 2011-12-01 12:08:11
dateupload: 1322760179
tags: 
license: 0
latitude: 55.952653
longitude: -3.191571
accuracy: 15
views: 10
interestingness: 211 out of 261

photo: 6437117131 e1c5e03a12 7024
owner: 50168063@N03
title: Lothian 88
originalsecret: null
originalformat: null
o_height: null
o_width: null
datetaken: 2011-12-01 12:08:05
dateupload: 1322760085
tags: 
license: 0
latitude: 55.952653
longitude: -3.191571
accuracy: 15
views: 9
interestingness: 212 out of 261

photo: 6437113595 87828c4926 7146
owner: 50168063@N03
title: First East Scotland 62355
originalsecret: null
originalformat: null
o_height: null
o_width: null
datetaken: 2011-12-01 12:07:46
dateupload: 1322760039
tags: 
license: 0
latitude: 55.952653
longitude: -3.191571
accuracy: 15
views: 9
interestingness: 213 out of 261

photo: 6437110817 8d13bd7e6d 7018
owner: 50168063@N03
title: Lothian 895
originalsecret: null
originalformat: null
o_height: null
o_width: null
datetaken: 2011-12-01 12:06:20
dateupload: 1322760001
tags: 
license: 0
latitude: 55.952653
longitude: -3.191571
accuracy: 15
views: 5
interestingness: 214 out of 261

photo: 6437105121 17c34a22b5 7157
owner: 50168063@N03
title: Lothian 777
originalsecret: null
originalformat: null
o_height: null
o_width: null
datetaken: 2011-12-01 12:05:58
dateupload: 1322759926
tags: 
license: 0
latitude: 55.952653
longitude: -3.191571
accuracy: 15
views: 7
interestingness: 215 out of 261

photo: 6437099947 de08865dc0 7002
owner: 50168063@N03
title: First East Scotland 30832
originalsecret: null
originalformat: null
o_height: null
o_width: null
datetaken: 2011-12-01 12:03:59
dateupload: 1322759858
tags: 
license: 0
latitude: 55.952653
longitude: -3.191571
accuracy: 15
views: 5
interestingness: 216 out of 261

photo: 6437092033 148bb9f38f 7142
owner: 50168063@N03
title: Lothian 109
originalsecret: null
originalformat: null
o_height: null
o_width: null
datetaken: 2011-12-01 12:02:07
dateupload: 1322759753
tags: 
license: 0
latitude: 55.952653
longitude: -3.191571
accuracy: 15
views: 6
interestingness: 217 out of 261

photo: 6437089953 15b876b322 7029
owner: 50168063@N03
title: Lothian 395
originalsecret: null
originalformat: null
o_height: null
o_width: null
datetaken: 2011-12-01 12:00:43
dateupload: 1322759726
tags: 
license: 0
latitude: 55.952653
longitude: -3.191571
accuracy: 15
views: 7
interestingness: 218 out of 261

photo: 6437067715 354157ef6a 7002
owner: 50168063@N03
title: Lothian 667
originalsecret: null
originalformat: null
o_height: null
o_width: null
datetaken: 2011-12-01 12:00:10
dateupload: 1322759426
tags: 
license: 0
latitude: 55.952653
longitude: -3.191571
accuracy: 15
views: 9
interestingness: 219 out of 261

photo: 6437064091 902104a14f 7022
owner: 50168063@N03
title: Lothian 893
originalsecret: null
originalformat: null
o_height: null
o_width: null
datetaken: 2011-12-01 12:00:00
dateupload: 1322759376
tags: 
license: 0
latitude: 55.952653
longitude: -3.191571
accuracy: 15
views: 3
interestingness: 220 out of 261

photo: 6437053617 2ba3a6348d 7167
owner: 50168063@N03
title: Lothian 758
originalsecret: null
originalformat: null
o_height: null
o_width: null
datetaken: 2011-12-01 11:58:29
dateupload: 1322759235
tags: 
license: 0
latitude: 55.952653
longitude: -3.191571
accuracy: 15
views: 9
interestingness: 221 out of 261

photo: 6437046627 8d03cefe23 7144
owner: 50168063@N03
title: Lothian 122
originalsecret: null
originalformat: null
o_height: null
o_width: null
datetaken: 2011-12-01 11:56:19
dateupload: 1322759144
tags: 
license: 0
latitude: 55.952653
longitude: -3.191571
accuracy: 15
views: 3
interestingness: 222 out of 261

photo: 6437035899 679ebb6366 7024
owner: 50168063@N03
title: Lothian 907
originalsecret: null
originalformat: null
o_height: null
o_width: null
datetaken: 2011-12-01 11:55:33
dateupload: 1322758994
tags: 
license: 0
latitude: 55.952653
longitude: -3.191571
accuracy: 15
views: 2
interestingness: 223 out of 261

photo: 6437033633 e47e256461 7173
owner: 50168063@N03
title: Lothian 789
originalsecret: null
originalformat: null
o_height: null
o_width: null
datetaken: 2011-12-01 11:55:20
dateupload: 1322758961
tags: 
license: 0
latitude: 55.952653
longitude: -3.191571
accuracy: 15
views: 2
interestingness: 224 out of 261

photo: 6437031267 1d1f5cf843 7035
owner: 50168063@N03
title: Lothian 897
originalsecret: null
originalformat: null
o_height: null
o_width: null
datetaken: 2011-12-01 11:54:44
dateupload: 1322758929
tags: 
license: 0
latitude: 55.952653
longitude: -3.191571
accuracy: 15
views: 4
interestingness: 225 out of 261

photo: 6437017129 af0f6a55a0 7155
owner: 50168063@N03
title: Lothian 916
originalsecret: null
originalformat: null
o_height: null
o_width: null
datetaken: 2011-12-01 11:53:40
dateupload: 1322758727
tags: 
license: 0
latitude: 55.952653
longitude: -3.191571
accuracy: 15
views: 2
interestingness: 226 out of 261

photo: 6437014465 d17be8af44 7173
owner: 50168063@N03
title: Lothian 772
originalsecret: null
originalformat: null
o_height: null
o_width: null
datetaken: 2011-12-01 11:52:57
dateupload: 1322758689
tags: 
license: 0
latitude: 55.952653
longitude: -3.191571
accuracy: 15
views: 4
interestingness: 227 out of 261

photo: 6437011825 cc3294dd3e 7012
owner: 50168063@N03
title: Lothian 797
originalsecret: null
originalformat: null
o_height: null
o_width: null
datetaken: 2011-12-01 11:52:49
dateupload: 1322758654
tags: 
license: 0
latitude: 55.952653
longitude: -3.191571
accuracy: 15
views: 3
interestingness: 228 out of 261

photo: 6437005439 f9e2b753b3 7020
owner: 50168063@N03
title: Lothian 847
originalsecret: null
originalformat: null
o_height: null
o_width: null
datetaken: 2011-12-01 11:52:39
dateupload: 1322758568
tags: 
license: 0
latitude: 55.952653
longitude: -3.191571
accuracy: 15
views: 2
interestingness: 229 out of 261

photo: 6436977365 2df77792b5 7142
owner: 50168063@N03
title: Lothian 876
originalsecret: null
originalformat: null
o_height: null
o_width: null
datetaken: 2011-12-01 11:46:43
dateupload: 1322758197
tags: 
license: 0
latitude: 55.953494
longitude: -3.197354
accuracy: 16
views: 2
interestingness: 230 out of 261

photo: 6436974943 44491728d3 7168
owner: 50168063@N03
title: Lothian 830
originalsecret: null
originalformat: null
o_height: null
o_width: null
datetaken: 2011-12-01 11:46:20
dateupload: 1322758164
tags: 
license: 0
latitude: 55.953494
longitude: -3.197354
accuracy: 16
views: 3
interestingness: 231 out of 261

photo: 6436969763 a2a8ce7c57 7031
owner: 50168063@N03
title: Lothian 379
originalsecret: null
originalformat: null
o_height: null
o_width: null
datetaken: 2011-12-01 11:45:58
