
mintime: 1322697600 maxtime: 1324512427.5
numimgs: 141
total pages: 1
visiting only 1 pages ( up to 250 images)
photo: 6448149905 c4dac60a9d 7015
owner: 34999371@N03
title: Pide un deseo...
originalsecret: 5f05fd5b40
originalformat: jpg
o_height: 773
o_width: 1024
datetaken: 2011-12-03 11:04:28
dateupload: 1322940076
tags: woman industry shoe mujer spain shoes artistic alicante industria elda calzado makeawish alacant wow1 comunidadvalenciana galard?n valenciancommunity demanaundesig mygearandme laficia
license: 0
latitude: 38.473283
longitude: -0.794348
accuracy: 16
views: 188
interestingness: 1 out of 141

photo: 6454660727 73d7d0c869 7006
owner: 46837558@N07
title: Yosemite Winter Storm - Tunnel View No.4 - Large Format Film
originalsecret: null
originalformat: null
o_height: null
o_width: null
datetaken: 2011-02-19 11:54:29
dateupload: 1323028623
tags: specland
license: 0
latitude: 37.715602
longitude: -119.676947
accuracy: 15
views: 382
interestingness: 2 out of 141

photo: 6459888525 e00afff9a9 7013
owner: 22071281@N00
title: Catch the waves....feel the waves...ride the waves...
originalsecret: 3f025558ef
originalformat: jpg
o_height: 1944
o_width: 2592
datetaken: 2007-05-05 06:47:54
dateupload: 1323096434
tags: ocean blue light sea summer brazil sunlight beach southamerica water beautiful riodejaneiro wonderful wonder daylight fantastic sand perfect waves great windy sunny excellent summertime moment shining niteroi sunnyday neloqua
license: 0
latitude: -22.95697
longitude: -43.040657
accuracy: 11
views: 125
interestingness: 3 out of 141

photo: 6436335047 d3260d76c3 7007
owner: 79828043@N00
title: got to be the shoes
originalsecret: null
originalformat: null
o_height: null
o_width: null
datetaken: 2011-10-25 02:43:57
dateupload: 1322749283
tags: street singapore candid michaeljordan orchardroad jordans jordanshoes jasonmartini wedidnotspeak gottobetheshoes jordanwouldbepissed
license: 0
latitude: 1.298528
longitude: 103.848752
accuracy: 14
views: 443
interestingness: 4 out of 141

photo: 6465805165 801bbc1c2b 7152
owner: 45991067@N00
title: Portal of Fire
originalsecret: null
originalformat: null
o_height: null
o_width: null
datetaken: 2011-12-02 17:33:34
dateupload: 1323179485
tags: beach? ?big ?light ?landscape? fire? ?nature? ?sunset? sur? pfeiffer? ?julia ?portal ?pacific? ?ocean? beam? ?seascape? ?pfeiffer ?portal? ?scenic? ?pfeiffer?
license: 0
latitude: 36.238129
longitude: -121.816781
accuracy: 15
views: 169
interestingness: 5 out of 141

photo: 6476005597 f3d67d0800 7013
owner: 34274565@N05
title: young boy in rubble 1985
originalsecret: edd15b1c81
originalformat: jpg
o_height: 1024
o_width: 1024
datetaken: 1985-04-28 09:32:58
dateupload: 1323336778
tags: youth welding vintage torched technicalpan swimming streetlife street social shoes rust romani rolleiflex public portrait pool mediumformat loneliness londonist london islington industrialwasteland housing homeless historic haggerston hackney eastend dystopia dump disused desolation demolition crash councilhousing council cityscape city chimney chrisdorleybrown boys blowdown blocks blackwhite before baths asbestos artist archive architecture apocalypse anarchy alienation 6x6 1980s
license: 0
latitude: 51.539529
longitude: -0.096484
accuracy: 16
views: 119
interestingness: 6 out of 141

photo: 6460729199 94c4b22f56 7006
owner: 54205779@N07
title: My leather boots
originalsecret: 66e7bcf441
originalformat: jpg
o_height: 4000
o_width: 6000
datetaken: 2011-12-03 14:27:22
dateupload: 1323105762
tags: paris france reflection sol monument wet water rain weather leather shoes boots eiffeltower pluie ground chaussures suelo flaque cuir sonya77
license: 0
latitude: 48.858288
longitude: 2.294352
accuracy: 16
views: 87
interestingness: 7 out of 141

photo: 6453934601 02742b45d2 7021
owner: 62632506@N06
title: Svarte Beach
originalsecret: 430459e0a5
originalformat: jpg
o_height: 2787
o_width: 4188
datetaken: 2011-12-04 15:24:14
dateupload: 1323021263
tags: ocean sunset sky beach clouds strand sk?ne sand nikon sweden svarte d700 distagont2821
license: 0
latitude: 55.426821
longitude: 13.713512
accuracy: 13
views: 234
interestingness: 8 out of 141

photo: 6458405917 204e71f463 7018
owner: 62632506@N06
title: Svarte Beach 2
originalsecret: 148c3c48d9
originalformat: jpg
o_height: 2420
o_width: 4256
datetaken: 2011-12-04 15:14:17
dateupload: 1323071556
tags: ocean sunset sky beach clouds strand zeiss sk?ne sand nikon sweden distagon 21mm svarte d700 distagont2821
license: 0
latitude: 55.426846
longitude: 13.713684
accuracy: 13
views: 122
interestingness: 9 out of 141

photo: 6451938999 9f881ffe35 7006
owner: 49775211@N03
title: Time to Dance
originalsecret: f7d2013ba8
originalformat: jpg
o_height: 864
o_width: 1200
datetaken: 2011-12-04 11:03:38
dateupload: 1322997451
tags: light ballet art studio shoe mirror dance ballerina ribbons shoes dancing mark dancer pointe satin slipper prepare balet ballerinas balett balerina winterbourne baletki baletka baletky
license: 0
latitude: 53.874088
longitude: -1.71612
accuracy: 11
views: 169
interestingness: 10 out of 141

photo: 6421989087 3a4660ebb5 7150
owner: 41543045@N08
title: In the lap of the Gods
originalsecret: null
originalformat: null
o_height: null
o_width: null
datetaken: 2011-11-27 21:07:30
dateupload: 1322912580
tags: madrid winter red portrait woman white motion black art texture girl beauty face look contrast canon hair studio grey dance spain shoes boots flash performance silk cotton cloth satin shape photodrama
license: 0
latitude: 40.458057
longitude: -3.708501
accuracy: 15
views: 150
interestingness: 11 out of 141

photo: 6476430917 23c3d9531a 7032
owner: 54624286@N07
title: 6 bunnies
originalsecret: 58bcb3df65
originalformat: jpg
o_height: 2368
o_width: 2917
datetaken: 2011-12-04 17:00:00
dateupload: 1323346198
tags: guangzhou china 6 girl lady shopping asian nikon asia boots chinese guangdong asiangirl chineselady d90 bootsshoes nikkor80200mmf28 beijinglu nikond90
license: 4
latitude: 23.103417
longitude: 113.246212
accuracy: 11
views: 120
interestingness: 12 out of 141

photo: 6447176599 d2fee7ae85 7174
owner: 8265938@N02
title: Wilderness Explorer II
originalsecret: null
originalformat: null
o_height: null
o_width: null
datetaken: 2011-11-28 15:47:48
dateupload: 1322928261
tags: dark doll des elf bjd soo fairyland henri msd mnf minifee
license: 0
latitude: 14.789986
longitude: 120.875186
accuracy: 12
views: 126
interestingness: 13 out of 141

photo: 6466987913 30b0534783 7026
owner: 57369711@N07
title: Journey to the End of the East Bay
originalsecret: null
originalformat: null
o_height: null
o_width: null
datetaken: 2011-12-06 13:00:31
dateupload: 1323194431
tags: street camera bridge people urban blackandwhite bw music usa man records reflection art apple monochrome rock work vintage fence painting walking person photography washingtondc photo dc washington lyrics lomo districtofcolumbia shoes punk paint noir december shadows pavement candid grunge band streetphotography 9 h2o reflect cover hardcore squareformat streetphoto dupontcircle allrightsreserved rancid iphone 2011 nyhc streetography streetstories dontforgetyourroots iphone4 iphonephotography michaelandrade iphoneography iphoneographer journeytotheendoftheeastbay hipstamatic lifeinlofi instantdc andradecobain
license: 0
latitude: 38.906848
longitude: -77.041381
accuracy: 16
views: 108
interestingness: 14 out of 141

photo: 6478908975 9b59ba420e 7024
owner: 62632506@N06
title: Svarte Beach 1 (2nd ed.)
originalsecret: 883e63a140
originalformat: jpg
o_height: 2778
o_width: 4175
datetaken: 2011-12-04 15:24:14
dateupload: 1323382547
tags: ocean winter sunset sky seascape beach stone clouds landscape sk?ne sand nikon rocks waves sweden stones oceanandsky svarte d700 distagont2821
license: 0
latitude: 55.426797
longitude: 13.714199
accuracy: 13
views: 71
interestingness: 15 out of 141

photo: 6441141245 2862fe96b7 7003
owner: 68792473@N04
title: PRANZO di NOZZE:in attesa degli sposi - WEDDING DINNER : waiting for the bride and groom
originalsecret: null
originalformat: null
o_height: null
o_width: null
datetaken: 1973-05-01 00:00:00
dateupload: 1322827556
tags: street socks 35mm bn seventies hp4 reportage anni70 pellicola castelliromani blackwhitephotos pranzonozzecalzettoniscarpebambinisposicastelliromaniannisettantaweddingshoes childrensspouseslunchseventies
license: 0
latitude: 41.706451
longitude: 12.68986
accuracy: 11
views: 56
interestingness: 16 out of 141

photo: 6463066409 d7d24042ac 7145
owner: 8945641@N02
title: Handmade Baby Grass shoes ??
originalsecret: null
originalformat: null
o_height: null
o_width: null
datetaken: 2011-11-23 15:12:29
dateupload: 1323133304
tags: grass shoes traditional chinese culture mel melinda babyshoes handcraft zhouzhuang ?? ?? chna ?? chanmelmel ???? grassshoes
license: 0
latitude: 31.122027
longitude: 120.887374
accuracy: 10
views: 66
interestingness: 17 out of 141

photo: 6446308441 bc8a98521e 7175
owner: 58597766@N05
title: He Won't Come Back
originalsecret: null
originalformat: null
o_height: null
o_width: null
datetaken: 2011-12-02 01:19:30
dateupload: 1322915474
tags: auto boy people color beach digital canon square eos focus shoes warm day dof angle bokeh weekend low perspective sunny sneakers converse processing format editing tone 500d
license: 3
latitude: -6.07811
longitude: 105.890708
accuracy: 11
views: 118
interestingness: 18 out of 141

photo: 6468257697 69c0ed299e 7169
owner: 55637010@N06
title: zapatos de mi esposa [2]
originalsecret: null
originalformat: null
o_height: null
o_width: null
datetaken: 2011-12-06 15:17:18
dateupload: 1323209838
tags: woman green film feet analog 35mm canon 50mm shoes dof dress kodak f14 denver flats rug a1 portra legwarmers fd 160
license: 0
latitude: -77.137611
longitude: -73.916015
accuracy: 3
views: 93
interestingness: 19 out of 141

photo: 6452938643 a2d9e901fd 7141
owner: 71856713@N00
title: wooden heart
originalsecret: 216aaf563f
originalformat: jpg
o_height: 598
o_width: 680
datetaken: 2011-12-04 15:07:16
dateupload: 1323010948
tags: orange holland netherlands dutch wooden nederland zaanseschans zaandam woodenshoes klompen klomp zaanstad zaans oudhollands woodenheart forannamarinamarck
license: 0
latitude: 52.473899
longitude: 4.81639
accuracy: 11
views: 120
interestingness: 20 out of 141

photo: 6478340091 2ecc811874 7141
owner: 56857819@N02
title: Early morning
originalsecret: 5691934523
originalformat: jpg
o_height: 3264
o_width: 4928
datetaken: 2011-12-06 08:05:39
dateupload: 1323374789
tags: morning red sky clouds sunrise silholette
license: 0
latitude: 52.054284
longitude: -1.955909
accuracy: 13
views: 52
interestingness: 21 out of 141

photo: 6478873937 5bd67424d1 7151
owner: 63726021@N04
title: Who stole my shoes?!
originalsecret: 6f3baa2955
originalformat: jpg
o_height: 3601
o_width: 5401
datetaken: 2011-12-08 23:09:52
dateupload: 1323382040
tags: blackandwhite bw rain 35mm canon lights sk?ne shadows sweden pavement wideangle flashlight malm? feettoes
license: 0
latitude: 55.587239
longitude: 13.001234
accuracy: 11
views: 79
interestingness: 22 out of 141

photo: 6439484485 7d5feb217d 7023
owner: 54441575@N02
title: DAY 3/365   Love - a wildly misunderstood although highly desirable malfunction of the heart which weakens the brain, causes eyes to sparkle, cheeks to glow, blood pressure to rise and the lips to pucker.  ~Author Unknown
originalsecret: 649f5f796c
originalformat: jpg
o_height: 1942
o_width: 2751
datetaken: 2011-12-01 20:57:21
dateupload: 1322793817
tags: boy white black art girl photography idea star photo nikon shoes all creative picture converse d90
license: 0
latitude: 43.500954
longitude: -80.472922
accuracy: 14
views: 87
interestingness: 23 out of 141

photo: 6477190421 61aaeffdd4 7017
owner: 55545444@N02
title: Karni Mata Rat Temple ! Bikaner, India (explored)
originalsecret: null
originalformat: null
o_height: null
o_width: null
datetaken: 2010-01-08 07:11:28
dateupload: 1323358780
tags: india temple rats souris bikaner rajasthan inde mouses templerats
license: 0
latitude: 28.028879
longitude: 73.339477
accuracy: 11
views: 67
interestingness: 24 out of 141

photo: 6435605551 5e998715c0 7006
owner: 90794078@N00
title: Fisherman's Shoe
originalsecret: null
originalformat: null
o_height: null
o_width: null
datetaken: 2011-12-01 11:26:41
dateupload: 1322741044
tags: canon cuerda shoe nederland thenetherlands denhaag rope 5d paysbas duinen schoen touw chaussures schuh scarpa zapato corde zuidholland kijkduin corda seil sgravenhage omejan ??? ???? jutterskeet pietermusterd hofstijl canon5dmarkii denhaag2018
license: 0
latitude: 52.07179
longitude: 4.224221
accuracy: 14
views: 129
interestingness: 25 out of 141

photo: 6463063269 bc14ce32fd 7145
owner: 8945641@N02
title: Handmade Grass shoes ??
originalsecret: null
originalformat: null
o_height: null
o_width: null
datetaken: 2011-11-23 15:06:41
dateupload: 1323133258
tags: grass shoes traditional chinese culture mel melinda handcraft zhouzhuang ?? ?? chna ?? chanmelmel ???? grassshoes
license: 0
latitude: 31.122027
longitude: 120.887374
accuracy: 10
views: 55
interestingness: 26 out of 141

photo: 6433929213 cf23d441c3 7007
owner: 33281223@N08
title: McMeow
originalsecret: 563ff8f8c8
originalformat: jpg
o_height: 4256
o_width: 2832
datetaken: 2011-11-23 10:57:01
dateupload: 1322704015
tags: portrait macro eye animal cat fur nose nikon flash micro whisker nikkor speedlight f28 105mm strobist su800 nikkor105mmf28macro sb900 d3s
license: 0
latitude: 23.181447
longitude: 113.313679
accuracy: 16
views: 158
interestingness: 27 out of 141

photo: 6464704741 02be6455db 7175
owner: 34999371@N03
title: Psychedelic Art Shoes
originalsecret: 5cd2e3b75a
originalformat: jpg
o_height: 959
o_width: 1024
datetaken: 2011-12-05 10:28:47
dateupload: 1323157951
tags: woman industry shoe mujer spain shoes artistic alicante footwear industria elda calzado alacant comunidadvalenciana psychedelicart galard?n valenciancommunity laficia artepsicod?lico
license: 0
latitude: 38.473252
longitude: -0.794323
accuracy: 16
views: 107
interestingness: 28 out of 141

photo: 6475573449 171e8f79cb 7035
owner: 24284053@N08
title: The girl who walked faster than buses :-)
originalsecret: 3ddd27600b
originalformat: jpg
o_height: 2969
o_width: 3227
datetaken: 2011-05-29 13:58:43
dateupload: 1323326603
tags: street red england urban bus cute london love girl fashion canon eos nice shoes raw boots britain candid jungle oxford londres british streetphoto rue regent mode uj londonist rawstreet pitvanmeeffe pierremallien
license: 0
latitude: 51.51367
longitude: -0.141234
accuracy: 14
views: 206
interestingness: 29 out of 141

photo: 6462895837 b5bd22a521 7142
owner: 47041589@N00
title: tenue du jour~outfit of the day
originalsecret: 75482a7048
originalformat: jpg
o_height: 4000
o_width: 3000
datetaken: 2011-10-08 11:16:22
dateupload: 1323130993
tags: nyc newyorkcity ny newyork wardroberemix brooklyn vintage zoo dress thrift secondhand thrifting outfitoftheday streetstyle thriftfind tenuedujour
license: 0
latitude: 40.663981
longitude: -73.964281
accuracy: 14
views: 348
interestingness: 30 out of 141

photo: 6438889333 11ffa447a9 7003
owner: 39499834@N06
title: Family Feet
originalsecret: null
originalformat: null
o_height: null
o_width: null
datetaken: 2011-12-02 06:10:53
dateupload: 1322835053
tags: family feet tile interesting nikon shoes sqaure fromwhereistand feetfriday
license: 0
latitude: 38.691773
longitude: -120.905098
accuracy: 14
views: 107
interestingness: 31 out of 141

photo: 6470362417 9c9372f3ef 7024
owner: 87759483@N00
title: 2 + 1
originalsecret: null
originalformat: null
o_height: null
o_width: null
datetaken: 2011-12-02 09:55:26
dateupload: 1323242746
tags: red shoes hand legs bologna mano scarpe motorshow gambe rosse
license: 0
latitude: 44.510607
longitude: 11.365914
accuracy: 15
views: 112
interestingness: 32 out of 141

photo: 6448445107 8879d3a9ff 7028
owner: 61488095@N08
title: The Enigma Ball Nov 2011
originalsecret: null
originalformat: null
o_height: null
o_width: null
datetaken: 2011-11-26 21:01:13
dateupload: 1322943853
tags: 
license: 0
latitude: 51.99553
longitude: -0.739474
accuracy: 14
views: 255
interestingness: 33 out of 141

photo: 6471057145 4b88e14909 7025
owner: 25658675@N04
title: Poseur
originalsecret: fd9837a4a1
originalformat: jpg
o_height: 2447
o_width: 3156
datetaken: 2011-12-03 17:39:28
dateupload: 1323257874
tags: street chicago rain walking december gbrearview kodak ukrainianvillage beware fake pump rainy unreal kodakeasyshare trickster poseur gapersblock wbez soaked imposter chicagoillinois shoestore divisionstreet chicagoist scurrying 2011 tooskinny wetsanta telltalesigns itsnotchristmasyet noreindeer reneerendlerkaplan nosleigh mrsclauswouldmakehimtakeanumbrella dontfallforfakesantas santadoesntwearsportshoes andhedoesntcarryasmallgreensack citizensarrestcitizensarrest
license: 0
latitude: 41.903171
longitude: -87.662315
accuracy: 13
views: 111
interestingness: 34 out of 141

photo: 6458874033 fa8aa24d1e 7144
owner: 34274565@N05
title: skaters 1985
originalsecret: 6044c259c9
originalformat: jpg
o_height: 1024
o_width: 993
datetaken: 1985-04-18 10:26:00
dateupload: 1323080760
tags: road street city portrait men london 6x6 boys public fashion club night rolleiflex vintage mediumformat underground disco shoe graffiti evening blackwhite shoes chinatown artist traffic boots soho performance archive streetlife social dancer skaters historic shirts revolution rockroll pedestrians roller glam anarchy psychedelic performer 1980s punks glamrock eastend londonist rollerskaters technicalpan glampunk chrisdorleybrown
license: 0
latitude: 51.509984
longitude: -0.135097
accuracy: 14
views: 157
interestingness: 35 out of 141

photo: 6437145189 cc185f2157 7149
owner: 25722132@N05
title: ORIENTADO
originalsecret: null
originalformat: null
o_height: null
o_width: null
datetaken: 2011-10-22 16:00:30
dateupload: 1322760452
tags: espa?a fish pez yellow rock andaluc?a spain shoes boots drawing zapatos amarillo arrow sanjos? dibujo signal almer?a cabodegata roca botas se?al flecha grabado recorded playadelosgenoveses ol?tusfotos ?ngelmart?nmateo beachofthegenoese imarat?nfotogr?ficodealmer?a
license: 0
latitude: 36.748141
longitude: -2.123064
accuracy: 14
views: 104
interestingness: 36 out of 141

photo: 6435910049 c253bc1884 7174
owner: 41346951@N05
title: Sharing a passion...
originalsecret: f1a9a57cdb
originalformat: jpg
o_height: 4000
o_width: 2672
datetaken: 2011-06-05 00:07:07
dateupload: 1322741835
tags: 
license: 4
latitude: 40.71455
longitude: -74.007118
accuracy: 11
views: 286
interestingness: 37 out of 141

photo: 6455549627 40d97e9f9f 7022
owner: 36659124@N03
title: av. Wellington
originalsecret: null
originalformat: null
o_height: null
o_width: null
datetaken: 2011-12-04 23:09:18
dateupload: 1323037133
tags: autumn polaroid sx70 shoes instantfilm impossibleprojectfilm px600silvershade06
license: 0
latitude: 41.389809
longitude: 2.18894
accuracy: 15
views: 44
interestingness: 38 out of 141

photo: 6442638377 e4891ac1a3 7175
owner: 7933174@N07
title: [Project 1000 Strangers] #2 Vanessa
originalsecret: bd00295fa6
originalformat: jpg
o_height: 474
o_width: 800
datetaken: 2011-12-02 17:12:45
dateupload: 1322849920
tags: 
license: 0
latitude: 50.776255
longitude: 6.083292
accuracy: 14
views: 134
interestingness: 39 out of 141

photo: 6433648131 a9c2380f4a 7162
owner: 61488095@N08
title: 11112011005
originalsecret: null
originalformat: null
o_height: null
o_width: null
datetaken: 2011-12-01 00:37:05
dateupload: 1322699825
tags: 
license: 0
latitude: 51.996983
longitude: -0.711879
accuracy: 15
views: 203
interestingness: 40 out of 141

photo: 6445070239 787c13dc13 7018
owner: 22128409@N02
title: A warm day
originalsecret: null
originalformat: null
o_height: null
o_width: null
datetaken: 2011-12-03 18:03:57
dateupload: 1322888637
tags: 
license: 0
latitude: -43.557754
longitude: 172.637329
accuracy: 14
views: 154
interestingness: 41 out of 141

photo: 6435007611 b723a8b356 7160
owner: 9019105@N02
title: Portrait y-2.jpg
originalsecret: 0c572e97f6
originalformat: jpg
o_height: 800
o_width: 333
datetaken: 2011-10-06 12:25:14
dateupload: 1322721278
tags: bw face canon pose studio model shoes highheels dress pair models makeup style aurora heels pantyhose firefly strobist leopoard yongnuo
license: 0
latitude: 54.328646
longitude: 10.133669
accuracy: 16
views: 490
interestingness: 42 out of 141

photo: 6452890231 6b6c0cf70f 7146
owner: 22009915@N08
title: shoes with cat
originalsecret: null
originalformat: null
o_height: null
o_width: null
datetaken: 2011-12-04 16:39:41
dateupload: 1323010411
tags: cat thailand bangkok sony a77 sal85f14cz carlzeissplanart85mmf14za
license: 0
latitude: 13.725127
longitude: 100.514259
accuracy: 13
views: 86
interestingness: 43 out of 141

photo: 6434558985 9715b1eb65 7035
owner: 90717863@N00
title: 22/30
originalsecret: null
originalformat: null
o_height: null
o_width: null
datetaken: 2011-11-30 20:08:46
dateupload: 1322713249
tags: burgundy nailpolish itsagirlthing littlepleasures girlthings thankfulandgrateful patternpillow tonighttheturnwasforapricotgrapefruitandlillyofthevalley
license: 0
latitude: 14.631589
longitude: -90.550689
accuracy: 11
views: 101
interestingness: 44 out of 141

photo: 6453043237 2e0165942d 7013
owner: 24409610@N04
title: alfredoBANNISTER
originalsecret: null
originalformat: null
o_height: null
o_width: null
datetaken: 2011-12-05 00:13:26
dateupload: 1323012102
tags: 100 ef35mmf14lusm canoneos5dmarkii ??????f71
license: 0
latitude: 35.701499
longitude: 139.709243
accuracy: 1
views: 124
interestingness: 45 out of 141

photo: 6473480685 5dbee40646 7151
owner: 54754281@N04
title: Experiment - 300mm - Breaking the layered sunset
originalsecret: d563544594
originalformat: jpg
o_height: 1880
o_width: 2816
datetaken: 2011-12-07 15:25:53
dateupload: 1323292059
tags: light sunset people seaweed beach sc wet golden haze dof 300mm isleofwight m42 breakwater sandown dec12 breakwaters optomax scdec tp28 scdec12
license: 0
latitude: 50.6555
longitude: -1.148157
accuracy: 14
views: 57
interestingness: 46 out of 141

photo: 6444352813 943f30b2af 7162
owner: 90717863@N00
title: 23/30
originalsecret: null
originalformat: null
o_height: null
o_width: null
datetaken: 2011-12-02 16:54:16
dateupload: 1322875960
tags: friends orange flower green naturallight rocio xmasgift lasocia thankfulandgrateful soocifthetextdoesntcount
license: 0
latitude: 14.632088
longitude: -90.549659
accuracy: 11
views: 76
interestingness: 47 out of 141

photo: 6475635855 534c90e0d4 7166
owner: 60234830@N08
title: Tailors Dummy
originalsecret: 171e574b1a
originalformat: jpg
o_height: 3648
o_width: 2736
datetaken: 2011-11-09 10:29:38
dateupload: 1323327937
tags: reflection london window shop lumix lights shoes jacket dummy manequin lx5
license: 0
latitude: 51.51181
longitude: -0.163499
accuracy: 1
views: 92
interestingness: 48 out of 141

photo: 6434133091 6353c22511 7154
owner: 28396696@N04
title: '89 Miami Pumps
originalsecret: eb25662ec5
originalformat: jpg
o_height: 4240
o_width: 7632
datetaken: 2011-11-30 16:37:26
dateupload: 1322706940
tags: old shoes pumps miami hasselblad reebok powerpack broncolor strobist broncolour h3d39 scoro
license: 0
latitude: 43.727537
longitude: -79.60689
accuracy: 15
views: 284
interestingness: 49 out of 141

photo: 6461459427 c51cdc8cfa 7014
owner: 93499782@N00
title: Feet in your Shoes
originalsecret: null
originalformat: null
o_height: null
o_width: null
datetaken: 2011-09-12 10:13:17
dateupload: 1323113892
tags: wood light boy brazil man green feet kitchen metal brasil walking table chair focus shoes shiny floor legs bokeh walk flag ground tiles crocs
license: 0
latitude: 31.87937
longitude: 35.831426
accuracy: 16
views: 65
interestingness: 50 out of 141

photo: 6461641567 7e4e8e9820 7166
owner: 24998211@N08
title: wardrobe remix 156
originalsecret: 8e95128ac8
originalformat: jpg
o_height: 3648
o_width: 2736
datetaken: 2011-12-05 08:32:30
dateupload: 1323115878
tags: 
license: 0
latitude: 52.483289
longitude: 13.417296
accuracy: 14
views: 149
interestingness: 51 out of 141

photo: 6447298137 4e9617b2f2 7145
owner: 30807533@N02
title: JOAN MIRO INSPIRED 2
originalsecret: null
originalformat: null
o_height: null
o_width: null
datetaken: 2011-12-03 16:27:48
dateupload: 1322929795
tags: selfportrait miro holliewoodstudio digitalmania
license: 0
latitude: 53.825786
longitude: -1.539001
accuracy: 9
views: 33
interestingness: 52 out of 141

photo: 6438008925 86d85321f1 7156
owner: 57097091@N07
title: El fin del verano
originalsecret: null
originalformat: null
o_height: null
o_width: null
datetaken: 2011-08-13 19:00:50
dateupload: 1322772126
tags: summer inspiration sepia shoe arte artistic sommer sony cable verano vans simple inspiracion impresionante increible zapatilla cordones hangingshoe zapatillacolgada
license: 0
latitude: 42.460905
longitude: -8.894934
accuracy: 15
views: 27
interestingness: 53 out of 141

photo: 6440805247 8f5e2d8fec 7141
owner: 9019105@N02
title: Portrait y-1.jpg
originalsecret: 1e5dd81e28
originalformat: jpg
o_height: 800
o_width: 343
datetaken: 2011-12-02 11:02:37
dateupload: 1322820170
tags: black sexy canon pose hair studio model shoes highheels skirt teen aurora heels pantyhose firefly kiel strobist yongnuo
license: 0
latitude: 54.328646
longitude: 10.133669
accuracy: 16
views: 834
interestingness: 54 out of 141

photo: 6453497025 f8e6716237 7152
owner: 60268072@N08
title: lunch date
originalsecret: null
originalformat: null
o_height: null
o_width: null
datetaken: 2011-12-02 13:02:52
dateupload: 1323016853
tags: street woman square foot shoe cafe olympus date moment lunchdate epl2
license: 0
latitude: 22.282107
longitude: 114.157562
accuracy: 11
views: 50
interestingness: 55 out of 141

photo: 6447611761 64c43f264a 7165
owner: 11728784@N00
title: Saturday morning lost property
originalsecret: null
originalformat: null
o_height: null
o_width: null
datetaken: 2011-12-03 12:17:41
dateupload: 1322933501
tags: street party london lost shoe december discarded hernehill
license: 0
latitude: 51.454942
longitude: -0.103962
accuracy: 14
views: 137
interestingness: 56 out of 141

photo: 6455430249 cf9937f99d 7163
owner: 19188168@N04
title: Plates and Saucers and Empty Mugs
originalsecret: 91a74d223c
originalformat: jpg
o_height: 3937
o_width: 3937
datetaken: 2011-11-07 18:39:12
dateupload: 1323035988
tags: park bw white black 6x6 feet square chair child brunswick hp5 plates ilford camberwell swc 903swc hasselbad alexburgess
license: 0
latitude: 51.477908
longitude: -0.08553
accuracy: 14
views: 58
interestingness: 57 out of 141

photo: 6451852763 4d8b5db326 7009
owner: 67955941@N00
title: Hard Move
originalsecret: null
originalformat: null
o_height: null
o_width: null
datetaken: 2011-08-11 13:57:21
dateupload: 1322995900
tags: street shadow trash canon shoe eos garbage funny hard ground move sneakers step lustig rubbish bewegung stick bubblegum chewinggum asphalt tamron schatten m?ll schmutz schuh boden kleben kaugummi strase schritt 18270 60d b008 gettyimagesstilllife gettysalq4
license: 0
latitude: 48.202541
longitude: 16.368799
accuracy: 11
views: 84
interestingness: 58 out of 141

photo: 6438243249 551d00c78a 7013
owner: 51539233@N00
title: My feet
originalsecret: 62081334ae
originalformat: jpg
o_height: 2850
o_width: 1824
datetaken: 2011-04-11 13:07:52
dateupload: 1322775042
tags: ocean red sea feet thames pier muelle mar estuary pies southend redshoes picnik t?mesis crocs southendonsea rojos southendpier estuario zapatosrojos flickraward
license: 0
latitude: 51.530426
longitude: 0.716514
accuracy: 14
views: 36
interestingness: 59 out of 141

photo: 6435485027 e798f2e13b 7162
owner: 94941181@N00
title: Zorki 2-S
originalsecret: f57171e20e
originalformat: jpg
o_height: 542
o_width: 800
datetaken: 2011-11-27 16:05:37
dateupload: 1322732594
tags: zorki2s
license: 0
latitude: 39.932923
longitude: 32.834658
accuracy: 15
views: 121
interestingness: 60 out of 141

photo: 6454090847 c55c3413f4 7171
owner: 43147518@N06
title: Been running ...
originalsecret: fbf6d13f0d
originalformat: jpg
o_height: 3416
o_width: 4388
datetaken: 2011-12-04 18:46:34
dateupload: 1323022847
tags: shoes dirt strobist
license: 0
latitude: 53.614333
longitude: 10.0265
accuracy: 16
views: 72
interestingness: 61 out of 141

photo: 6448280659 3d1886cb4a 7006
owner: 46323460@N02
title: Bag, Stickers and Me in the Trees
originalsecret: bbf19c3713
originalformat: jpg
o_height: 1171
o_width: 1776
datetaken: 2011-12-03 11:43:07
dateupload: 1322941751
tags: nov life park lighting uk november original autumn trees sunset summer macro dan nature colors sunshine forest canon magazine dark lens eos death grey diy high woods squirrel shoes fuji natural skateboarding artistic buckinghamshire grain creative ducks style bowl daily skaters movember iso sidewalk 200 era skateboard tele vans british manual 500 nophotoshop sputnik circa skateboards tamron berkshire bucks kingpin lense thrasher cates endless wycombe lightroom offthewall 2011 wwwdeathskateboardscouk wwwliabilityskateblogspotcom oldskoolpaul liability01494
license: 0
latitude: 51.622719
longitude: -0.74531
accuracy: 14
views: 55
interestingness: 62 out of 141

photo: 6448105701 f5a08e70b7 7144
owner: 74519205@N00
title: Sparrow On Ice
originalsecret: null
originalformat: null
o_height: null
o_width: null
datetaken: 2011-12-03 08:33:35
dateupload: 1322939530
tags: snow
license: 0
latitude: 33.185817
longitude: -107.227678
accuracy: 14
views: 35
interestingness: 63 out of 141

photo: 6483002847 e9346f8200 7165
owner: 28856961@N02
title: Anger Never Dies
originalsecret: null
originalformat: null
o_height: null
o_width: null
datetaken: 2011-09-18 01:45:27
dateupload: 1323457485
tags: madrid espa?a spain redshoes happen girlontop fashionworld rosarusa angerneverdies girlinnowhere
license: 0
latitude: 40.46758
longitude: -3.6133
accuracy: 16
views: 9
interestingness: 64 out of 141

photo: 6460870157 48e5000160 7152
owner: 62632506@N06
title: Svarte Beach 3
originalsecret: 0ee07506af
originalformat: jpg
o_height: 2486
o_width: 4224
datetaken: 2011-12-04 14:59:45
dateupload: 1323107322
tags: ocean sunset sky beach clouds strand zeiss sk?ne sand nikon sweden distagon 21mm svarte d700 distagont2821
license: 0
latitude: 55.426919
longitude: 13.715057
accuracy: 13
views: 64
interestingness: 65 out of 141

photo: 6446598461 422cb7c345 7001
owner: 53055958@N00
title: The enchanted tree
originalsecret: null
originalformat: null
o_height: null
o_width: null
datetaken: 2011-11-26 13:25:23
dateupload: 1322920205
tags: statepark november people cliff mountain vortex southwest west tree nature landscape outside outdoors nikon worship rocks texas power weekend south trails bluesky hike nativeamerican montage dome sacred granite indians dslr hillcountry fredericksburg ancients scrub arid monoliths enchantedrock sacredtree fredericksburgtexas pinkgranite magictree windsong enchantedrockstatepark texasstatepark 2011 energyfields glowingrock tonkawa d80 worshipped enchantedtree nikond80 spiralenergy singingrock jensphotography llanouplift tonkawaindians metomorphic hydroenergylines condensedenergyfields thekeeperoftherock telluricenergyflow mayanleyline triangleofenergy ayersrockofamerica
license: 0
latitude: 30.512971
longitude: -98.819189
accuracy: 14
views: 39
interestingness: 66 out of 141

photo: 6459906637 ed12589fe4 7174
owner: 46436094@N04
title: One Shoe
originalsecret: 4e5a2a5461
originalformat: jpg
o_height: 1016
o_width: 1000
datetaken: 2011-12-05 00:55:55
dateupload: 1323096646
tags: shirtless portrait sun white black 6x6 bondi square stand photo kid ramp fat helmet sydney bowl hasselblad skatepark skate skateboard format iphone
license: 0
latitude: -33.891792
longitude: 151.275129
accuracy: 13
views: 77
interestingness: 67 out of 141

photo: 6463623547 d460925b24 7026
owner: 26117269@N05
title: Mujeres / Women
originalsecret: 3b9ca106b5
originalformat: jpg
o_height: 2516
o_width: 2633
datetaken: 2011-10-14 11:32:53
dateupload: 1323140651
tags: 
license: 0
latitude: -34.597041
longitude: -60.117187
accuracy: 1
views: 75
interestingness: 68 out of 141

photo: 6479779753 8c1e6cf3bc 7156
owner: 39499834@N06
title: Upward
originalsecret: null
originalformat: null
o_height: null
o_width: null
datetaken: 2011-12-09 05:23:54
dateupload: 1323437034
tags: texture feet square leaf interesting stencil nikon shoes cement sidewalk pixels feetfriday
license: 0
latitude: 34.205511
longitude: -118.228576
accuracy: 16
views: 59
interestingness: 69 out of 141

photo: 6463291055 c2c7355de8 7035
owner: 8426916@N04
title: Puma 1
originalsecret: 9815609e10
originalformat: jpg
o_height: 792
o_width: 769
datetaken: 2011-12-05 17:53:21
dateupload: 1323136401
tags: california ca street urban art mill fence polaroid sx70 graffiti la los alley mural shoes paint downtown industrial time angeles manipulation can spray chain link puma 70 zero between timezero sx
license: 0
latitude: 34.03571
longitude: -118.234043
accuracy: 16
views: 46
interestingness: 70 out of 141

photo: 6462810683 9838f280fd 7174
owner: 36443769@N06
title: paris
originalsecret: bfb5084731
originalformat: jpg
o_height: 1296
o_width: 1296
datetaken: 2011-11-03 17:02:49
dateupload: 1323129901
tags: square squarecrop nikond90 paris france jeans shoes heels chasseurs stripes multicolored sidewalk wet
license: 0
latitude: 48.861132
longitude: 2.353498
accuracy: 16
views: 31
interestingness: 71 out of 141

photo: 6439237131 364bd48e93 7146
owner: 47926462@N03
title: Week 44 (XLIV) + 2 In Comments
originalsecret: null
originalformat: null
o_height: null
o_width: null
datetaken: 2011-08-02 23:23:04
dateupload: 1322789422
tags: trees summer lake canada green grass leaves wow hair happy hope edmonton joy fresh alberta excitement outsight imissthissomuch suchnostalgicfeelsrightnow theheatandeverythingelsewassoperfectthatday iremembergoingtotimhortonsafterthisandspillingcoffeeallovermyshoes yuptotesbestdayever nobutiactuallymissthisandsummersomuch ifyouwouldaskme tristanwhatwouldyouwantyourperfectdaytolooklike iwouldsaythis lookingatthesemakemefeelhappy kkkimdonesorry
license: 0
latitude: 53.46516
longitude: -113.36071
accuracy: 11
views: 48
interestingness: 72 out of 141

photo: 6479324617 e57aed6e4e 7171
owner: 58456066@N06
title: #46 - shimmer & shine
originalsecret: null
originalformat: null
o_height: null
o_width: null
datetaken: 2011-12-09 00:00:37
dateupload: 1323389275
tags: train germany toy deutschland shoe miniature model europa europe bonn eisenbahn figure 187 modell spielzeug figur schuh miniatur h0 scale187 masstab187
license: 0
latitude: 50.721969
longitude: 7.088499
accuracy: 15
views: 26
interestingness: 73 out of 141

photo: 6433855861 9ea0e2187b 7017
owner: 51198921@N06
title: joe's shoes... pizazz!
originalsecret: d1f9e28b68
originalformat: jpg
o_height: 1452
o_width: 1936
datetaken: 2011-11-30 17:23:28
dateupload: 1322702906
tags: camera red chicago downtown crossprocess dearborn iphone lomora2
license: 0
latitude: 41.882138
longitude: -87.628809
accuracy: 16
views: 97
interestingness: 74 out of 141

photo: 6462808899 f34abd98e6 7006
owner: 36443769@N06
title: paris
originalsecret: 5024914668
originalformat: jpg
o_height: 1296
o_width: 1296
datetaken: 2011-11-03 16:32:43
dateupload: 1323129871
tags: blackandwhite paris france vintage square dress sidewalk cheetah handbag tulle squarecrop polkadot pointyshoes blacktights nikond90 orangesneakers
license: 0
latitude: 48.861161
longitude: 2.35352
accuracy: 16
views: 34
interestingness: 75 out of 141

photo: 6449691037 10a548d845 7170
owner: 26084125@N08
title: Fashion Still Life
originalsecret: null
originalformat: null
o_height: null
o_width: null
datetaken: 2011-11-24 21:00:00
dateupload: 1322960139
tags: bosl fashionstilllife bestofsecondlifemagazine shoesandhat
license: 0
latitude: -31.900732
longitude: 115.775942
accuracy: 14
views: 43
interestingness: 76 out of 141

photo: 6469985757 09641f698f 7001
owner: 66436048@N07
title: Andrew & Joanna | Engagement | Rancho Santa Fe
originalsecret: 9f021e214c
originalformat: jpg
o_height: 900
o_width: 596
datetaken: 2011-11-20 04:04:20
dateupload: 1323235253
tags: building cute brick love fountain engagement kiss kissing couple sweet staircase cielo railing engaged redshoes ranchosantafe sandiegophotographer southerncaliforniaweddingphotographer sandiegoweddingphotographer sandiegoengagementphotographer cielovillage
license: 0
latitude: 33.02003
longitude: -117.203086
accuracy: 11
views: 61
interestingness: 77 out of 141

photo: 6458713917 1689ed0958 7022
owner: 54624286@N07
title: Dr.Martens
originalsecret: 00554ffe3e
originalformat: jpg
o_height: 1789
o_width: 3217
datetaken: 2011-12-02 23:37:12
dateupload: 1323077633
tags: boots drmartens bootsshoes nikkor80200mmf28 strobist nikond90
license: 0
latitude: 22.298429
longitude: 114.172111
accuracy: 11
views: 64
interestingness: 78 out of 141

photo: 6455396005 9fc32f2d0d 7033
owner: 19188168@N04
title: Got my Head in the Clouds
originalsecret: 4f121e5092
originalformat: jpg
o_height: 3917
o_width: 3917
datetaken: 2011-11-07 18:35:54
dateupload: 1323035663
tags: park bw white black 6x6 feet square chair child brunswick hp5 plates ilford camberwell swc 903swc hasselbad alexburgess
license: 0
latitude: 51.477908
longitude: -0.08553
accuracy: 14
views: 71
interestingness: 79 out of 141

photo: 6433706843 5f815d8bb0 7175
owner: 65146752@N04
title: Chacott V Pointe Shoes
originalsecret: 8466a8848e
originalformat: jpg
o_height: 2832
o_width: 1993
datetaken: 2011-11-30 17:28:04
dateupload: 1322700677
tags: camera ballet dead shoes toe with pointe duchess
license: 0
latitude: 41.884151
longitude: -87.632408
accuracy: 11
views: 102
interestingness: 80 out of 141

photo: 6458445611 8a193d2047 7004
owner: 47337726@N04
title: Moonrise ...
originalsecret: 94ddf41754
originalformat: jpg
o_height: 5184
o_width: 3456
datetaken: 2011-12-05 00:05:18
dateupload: 1323072318
tags: sunset arizona usa moon nature colors canon zoom iso400 az moonrise page f71 silhoutte horshoe 115mm 03sec canoneos7d canon7d
license: 4
latitude: 36.880137
longitude: -111.512832
accuracy: 11
views: 74
interestingness: 81 out of 141

photo: 6457638053 8516ddb262 7154
owner: 89231549@N00
title: Day 95 - Dealing the Cold Wind
originalsecret: null
originalformat: null
o_height: null
o_width: null
datetaken: 2011-12-04 17:56:47
dateupload: 1323059825
tags: cloud wickerpark streetart chicago graffiti wind storefront shutter deal windycity project365 stalfred 095365 ?2011miketravis
license: 0
latitude: 41.909136
longitude: -87.675222
accuracy: 16
views: 46
interestingness: 82 out of 141

photo: 6472824097 2d334f70be 7001
owner: 31997306@N07
title: Ken Block Testing Ford Fiesta
originalsecret: 60f3f729c6
originalformat: jpg
o_height: 641
o_width: 1000
datetaken: 2011-12-01 17:03:51
dateupload: 1323283316
tags: auto school ford monster race driving fiesta rally racing wrc wa snoqualmie motorsport dcshoes gymkhana worldrally kenblock dirtfish
license: 0
latitude: 47.530676
longitude: -121.818809
accuracy: 13
views: 50
interestingness: 83 out of 141

photo: 6462839617 b70b58cbda 7024
owner: 44217191@N05
title: Ken Block's WRC Ford Fiesta - Parc Ferme
originalsecret: f97162aedf
originalformat: jpg
o_height: 853
o_width: 1280
datetaken: 2011-11-10 23:08:52
dateupload: 1323130276
tags: ford wales dc spy dcshoes pirelli dcshoe alpinestars monsterenergydrink mobil1 dirt3 kenblock alexgelsomino monsterworldrallyteam hoonigan px60auv
license: 0
latitude: 53.322183
longitude: -3.816536
accuracy: 16
views: 54
interestingness: 84 out of 141

photo: 6461471661 bc9885f6e4 7142
owner: 61142936@N05
title: 170/365 Converse Love.
originalsecret: 387b306fa2
originalformat: jpg
o_height: 1413
o_width: 2622
datetaken: 2011-12-05 18:56:37
dateupload: 1323114022
tags: love socks project heart free odd converse 365 stripey laces odc
license: 0
latitude: 51.507861
longitude: 0.13029
accuracy: 13
views: 38
interestingness: 85 out of 141

photo: 6434696471 a5c9e1925e 7030
owner: 35870491@N02
title: I'm Walking Out that Door...
originalsecret: null
originalformat: null
o_height: null
o_width: null
datetaken: 2011-11-30 14:10:21
dateupload: 1322715332
tags: color feet shoes canvas splash ankles indiekids musicaddicts indiefashion mysexylegs retrofeel seattleeveryday portraitswithoutaface lovelifeandbeauty
license: 0
latitude: 47.601533
longitude: -122.336883
accuracy: 11
views: 75
interestingness: 86 out of 141

photo: 6473456001 501b902903 7018
owner: 26876910@N08
title: High Heels in High Colors
originalsecret: 9631d2bed0
originalformat: jpg
o_height: 1067
o_width: 1600
datetaken: 2011-12-03 22:11:21
dateupload: 1323291720
tags: colors bag shoes highheels moda heels vetrina colori borsa scarpe lusso fashon tacchi
license: 0
latitude: 41.906141
longitude: 12.482378
accuracy: 14
views: 23
interestingness: 87 out of 141

photo: 6457015195 7f0cc9e30a 7025
owner: 27257044@N05
title: reasonably unseasonable
originalsecret: null
originalformat: null
o_height: null
o_width: null
datetaken: 2011-10-23 15:11:11
dateupload: 1323055165
tags: 
license: 0
latitude: 40.571457
longitude: -73.984293
accuracy: 13
views: 86
interestingness: 88 out of 141

photo: 6433668117 c96030c660 7033
owner: 65146752@N04
title: Chacott V Pointe Shoes
originalsecret: 1f7fcde5dc
originalformat: jpg
o_height: 1354
o_width: 1137
datetaken: 2011-11-30 17:32:48
dateupload: 1322700124
tags: camera ballet dead shoes toe with dancer v pointe duchess chacott
license: 0
latitude: 41.884151
longitude: -87.632408
accuracy: 11
views: 90
interestingness: 89 out of 141

photo: 6466481809 f0b4d35f92 7175
owner: 48217992@N02
title: De roze stappers/ pink shoes
originalsecret: d60f2a3f4e
originalformat: jpg
o_height: 864
o_width: 1296
datetaken: 2011-12-05 16:00:29
dateupload: 1323188202
tags: city pink light people holland art public strange amsterdam shoe licht view kunst centre great transport nederland tram transportation mokum schoenen anders stad streetview strassenbahn apart roze tramvaj tramvay leuk grappig vervoer stadsarchief kistjes bekeken andersbekeken vervoersbedrijf
license: 0
latitude: 52.35451
longitude: 4.885933
accuracy: 16
views: 83
interestingness: 90 out of 141

photo: 6454516805 5e4c6f9473 7005
owner: 62539202@N05
title: ELEGANT SKATEBOARD SHOES
originalsecret: null
originalformat: null
o_height: null
o_width: null
datetaken: 2011-12-04 12:13:35
dateupload: 1323027191
tags: light foot team shoes skateboard ssk jasama
license: 0
latitude: 37.387691
longitude: -6.00181
accuracy: 11
views: 79
interestingness: 91 out of 141

photo: 6436813731 b1e85e67de 7151
owner: 8413804@N04
title: December 1 Socks
originalsecret: null
originalformat: null
o_height: null
o_width: null
datetaken: 2011-12-01 09:04:02
dateupload: 1322756040
tags: socks work dirty whitesocks dirtysocks shoeless sockwalking sockwalkingwhitesocks
license: 0
latitude: 33.452993
longitude: -111.98997
accuracy: 16
views: 46
interestingness: 92 out of 141

photo: 6445180253 f9cc9537b7 7165
owner: 47652558@N04
title: Unintentional Swag
originalsecret: null
originalformat: null
o_height: null
o_width: null
datetaken: 2011-12-02 21:32:42
dateupload: 1322890668
tags: shoe sweater sneakers nike kicks michaeljordan airjordan wdywt airjordanxii airjordanxiiplayoff
license: 0
latitude: 36.27251
longitude: -115.129079
accuracy: 13
views: 70
interestingness: 93 out of 141

photo: 6437836453 dff64e40f2 7175
owner: 47391132@N00
title: 040759 01
originalsecret: null
originalformat: null
o_height: null
o_width: null
datetaken: 1959-04-01 00:00:00
dateupload: 1322769836
tags: park street city bridge people blackandwhite bw woman 6x6 tlr car boston umbrella blackwhite women shoes massachusetts nick citylife streetlife sidewalk 1950s pedestrians april heels fenway fens parkedcar 1959 dewolf backbayfens nickdewolf photographbynickdewolf hotelkenmore hotelfensgate
license: 0
latitude: 42.343173
longitude: -71.092373
accuracy: 16
views: 47
interestingness: 94 out of 141

photo: 6434697217 70fa5814f1 7006
owner: 35870491@N02
title: What a Swanky Life
originalsecret: null
originalformat: null
o_height: null
o_width: null
datetaken: 2011-11-30 20:50:48
dateupload: 1322715345
tags: color feet collage shoes canvas splash ankles indiekids musicaddicts indiefashion mysexylegs retrofeel seattleeveryday portraitswithoutaface lovelifeandbeauty
license: 0
latitude: 47.601301
longitude: -122.33551
accuracy: 11
views: 94
interestingness: 95 out of 141

photo: 6437718935 86cd279db1 7174
owner: 7354779@N06
title: 20111123-IMG_5295-Edit
originalsecret: e49abdff66
originalformat: jpg
o_height: 3000
o_width: 4500
datetaken: 2011-11-23 11:53:15
dateupload: 1322768252
tags: canonef70200mmf4lisusm camera:make=canon camera:model=canoneos7d camera:lens=canonef70200mmf4lisusm
license: 0
latitude: 52.336738
longitude: 4.854669
accuracy: 16
views: 44
interestingness: 96 out of 141

photo: 6452121147 dac985897d 7019
owner: 37593216@N06
title: Andy
originalsecret: null
originalformat: null
o_height: null
o_width: null
datetaken: 2011-12-01 22:02:19
dateupload: 1323000354
tags: ireland portrait black male guy andy ball serious models lowkey studiolights codublin johncoveney andysmurf
license: 0
latitude: 53.25402
longitude: -6.130542
accuracy: 16
views: 131
interestingness: 97 out of 141

photo: 6473618927 c3d465963f 7023
owner: 36971271@N08
title: Vans Lineup #2
originalsecret: null
originalformat: null
o_height: null
o_width: null
datetaken: 2011-12-06 16:22:45
dateupload: 1323293933
tags: blue red favorite white black love shoes purple stripes collection vans addiction collect suede authentic lineup vanscheck
license: 0
latitude: 30.288709
longitude: -81.391792
accuracy: 11
views: 87
interestingness: 98 out of 141

photo: 6448278117 512f6aa2b9 7031
owner: 46323460@N02
title: Bag & Stickers in the Trees
originalsecret: 0d6043a1e9
originalformat: jpg
o_height: 1188
o_width: 1776
datetaken: 2011-12-03 11:43:02
dateupload: 1322941718
tags: nov life park lighting uk november original autumn trees sunset summer macro dan nature colors sunshine forest canon magazine dark lens eos death grey diy high woods squirrel shoes fuji natural skateboarding artistic buckinghamshire grain creative ducks style bowl daily skaters movember iso sidewalk 200 era skateboard tele vans british manual 500 nophotoshop sputnik circa skateboards tamron berkshire bucks kingpin lense thrasher cates endless wycombe lightroom offthewall 2011 wwwdeathskateboardscouk wwwliabilityskateblogspotcom oldskoolpaul liability01494
license: 0
latitude: 51.622719
longitude: -0.74531
accuracy: 14
views: 46
interestingness: 99 out of 141

photo: 6443678411 61e9a2c7c7 7009
owner: 55691305@N08
title: fila skeletoes
originalsecret: a4bc93c4ca
originalformat: jpg
o_height: 1311
o_width: 3798
datetaken: 2011-03-15 15:51:13
dateupload: 1322864541
tags: feet st foot shoe shoes toe rubber barefoot augustine minimalist picnik fila skeletoes minimalistbarefootfootwear
license: 1
latitude: 29.906975
longitude: -81.314492
accuracy: 14
views: 41
interestingness: 100 out of 141

photo: 6437138065 824fff4de9 7171
owner: 50502839@N06
title: Oh Vienna..... get out!
originalsecret: 816bde629f
originalformat: jpg
o_height: 855
o_width: 1288
datetaken: 2011-12-01 12:58:21
dateupload: 1322760363
tags: orange car shoes vermeer schoenen
license: 0
latitude: 52.454408
longitude: 4.591884
accuracy: 13
views: 39
interestingness: 101 out of 141

photo: 6460046167 93458e84bf 7015
owner: 89203331@N00
title: Low Tide
originalsecret: b6777b138d
originalformat: jpg
o_height: 3273
o_width: 4909
datetaken: 2011-11-07 17:29:06
dateupload: 1323098266
tags: ocean sunset beach capecod massachusetts lowtide hdr barnstable canonefs1855mmf3556is millwaybeach
license: 3
latitude: 41.709166
longitude: -70.298
accuracy: 16
views: 37
interestingness: 102 out of 141

photo: 6448275857 870d4ce7ba 7003
owner: 46323460@N02
title: Grey Squirrel - Rye - High Wycombe
originalsecret: 427911bd47
originalformat: jpg
o_height: 1188
o_width: 1788
datetaken: 2011-12-03 11:42:58
dateupload: 1322941691
tags: nov life park lighting uk november original autumn trees sunset summer macro dan nature colors sunshine forest canon magazine dark lens eos death grey diy high woods squirrel shoes fuji natural skateboarding artistic buckinghamshire grain creative ducks style bowl daily skaters movember iso sidewalk 200 era skateboard tele vans british manual 500 nophotoshop sputnik circa skateboards tamron berkshire bucks kingpin lense thrasher cates endless wycombe lightroom offthewall 2011 wwwdeathskateboardscouk wwwliabilityskateblogspotcom oldskoolpaul liability01494
license: 0
latitude: 51.622719
longitude: -0.74531
accuracy: 14
views: 60
interestingness: 103 out of 141

photo: 6474059941 794b1f2b90 7034
owner: 58171316@N08
title: Floor Stall
originalsecret: 93398c1419
originalformat: jpg
o_height: 3352
o_width: 4325
datetaken: 2011-08-09 13:17:15
dateupload: 1323300459
tags: china city people panorama man asian roc asia cityscape market crowd chinese taiwan stall nightmarket vendor taipei formosa shilin taiwanese shilinnightmarket republicofchina vertorama
license: 0
latitude: 25.088125
longitude: 121.525225
accuracy: 13
views: 38
interestingness: 104 out of 141

photo: 6446024919 634103da1a 7163
owner: 55691305@N08
title: st augustine lighthouse haunted?
originalsecret: eb1939830f
originalformat: jpg
o_height: 2440
o_width: 7296
datetaken: 2011-03-16 15:38:28
dateupload: 1322909679
tags: lighthouse feet st shoes haunted augustine crocs
license: 1
latitude: 29.885541
longitude: -81.288346
accuracy: 16
views: 43
interestingness: 105 out of 141

photo: 6439902661 b471b2c077 7162
owner: 30666716@N02
title: cobblestone
originalsecret: 469283805d
originalformat: jpg
o_height: 1188
o_width: 1791
datetaken: 2011-12-01 20:35:17
dateupload: 1322800517
tags: leica rome shoes kodak cobblestone portra m6 roll37
license: 0
latitude: 41.90311
longitude: 12.495759
accuracy: 11
views: 54
interestingness: 106 out of 141

photo: 6439250111 3f2e2ed4a5 7164
owner: 50626444@N05
title: NX-Nardcotix Esther Vintage Pump - Red by Nardya Rousselot
originalsecret: null
originalformat: null
o_height: null
o_width: null
datetaken: 2011-12-01 20:26:19
dateupload: 1322789646
tags: fashion shoes secondlife slfashion vintagefair nxnardcotix
license: 0
latitude: 40.784358
longitude: -73.980352
accuracy: 16
views: 47
interestingness: 107 out of 141

photo: 6458661805 2e9cfd7ba8 7008
owner: 40110176@N08
title: "Love, Under Construction" - Milano 2011
originalsecret: null
originalformat: null
o_height: null
o_width: null
datetaken: 2011-12-05 18:16:18
dateupload: 1323076578
tags: red art love cutout grey blood shoes strada grigio arte boots rosso cuore nero amore sangue scarpe halflight penombra
license: 0
latitude: 45.46894
longitude: 9.18103
accuracy: 11
views: 27
interestingness: 108 out of 141

photo: 6451313873 e017ab50db 7005
owner: 53462745@N03
title: 2011.12.03-Champs_cancelled_due_to_power_outage-114.jpg
originalsecret: null
originalformat: null
o_height: null
o_width: null
datetaken: 2011-12-03 18:00:29
dateupload: 1322985523
tags: poweroutage swarm sirens derbydolls dollfactory sirclicksalot 1232011
license: 0
latitude: 34.069541
longitude: -118.265701
accuracy: 16
views: 219
interestingness: 109 out of 141

photo: 6434696875 17387f720c 7167
owner: 35870491@N02
title: Tongue Tied
originalsecret: null
originalformat: null
o_height: null
o_width: null
datetaken: 2011-11-30 19:51:55
dateupload: 1322715338
tags: selfportrait color feet fun lyrics shoes floor legs angles canvas splash dailyphoto ankles indiekids musicaddicts imemine indiefashion blipfoto mysexylegs retrofeel seattleeveryday showusyourbest portraitswithoutaface lovelifeandbeauty tonguetiedbygrouplove
license: 0
latitude: 47.601417
longitude: -122.334823
accuracy: 11
views: 97
interestingness: 110 out of 141

photo: 6473203761 f8b3ddae2a 7166
owner: 54754281@N04
title: Experiment - 300mm - Singled Out
originalsecret: e35db05cb8
originalformat: jpg
o_height: 1880
o_width: 2816
datetaken: 2011-12-07 15:34:41
dateupload: 1323288332
tags: light beach dof stones 300mm independent peebles single isleofwight m42 sandown optomax
license: 0
latitude: 50.656562
longitude: -1.146054
accuracy: 14
views: 24
interestingness: 111 out of 141

photo: 6479659073 701f84fe72 7029
owner: 99923398@N00
title: Never steal a Stetson
originalsecret: fc9c0124f2
originalformat: jpg
o_height: 1709
o_width: 2273
datetaken: 2011-12-08 09:27:47
dateupload: 1323395123
tags: horse signs chicago store interesting mural cowboy desert painted south side hats wear faded western stetson chicagoist
license: 3
latitude: 41.810118
longitude: -87.665336
accuracy: 14
views: 24
interestingness: 112 out of 141

photo: 6446657681 76ee66286d 7145
owner: 47757737@N00
title: Big Foot
originalsecret: 5afcfc8b6e
originalformat: jpg
o_height: 2807
o_width: 2810
datetaken: 2011-11-30 19:17:23
dateupload: 1322921092
tags: foot shoe big clown grand pied cirque chaussure olibac canoneos500d mmxi
license: 4
latitude: 50.29776
longitude: 2.782373
accuracy: 15
views: 206
interestingness: 113 out of 141

photo: 6439362353 676e87f153 7014
owner: 53055958@N00
title: Enchanted Rock mosaic
originalsecret: null
originalformat: null
o_height: null
o_width: null
datetaken: 2011-12-01 18:07:28
dateupload: 1322791648
tags: statepark november cliff mountain vortex southwest west nature landscape outside outdoors nikon worship rocks texas power weekend south trails bluesky hike nativeamerican dome granite indians dslr hillcountry fredericksburg ancients scrub arid monoliths enchantedrock fredericksburgtexas pinkgranite windsong enchantedrockstatepark texasstatepark 2011 energyfields glowingrock tonkawa d80 worshipped nikond80 spiralenergy singingrock jensphotography llanouplift tonkawaindians metomorphic hydroenergylines condensedenergyfields thekeeperoftherock telluricenergyflow mayanleyline freshmandome triangleofenergy ayersrockofamerica
license: 0
latitude: 30.511769
longitude: -98.819231
accuracy: 14
views: 28
interestingness: 114 out of 141

photo: 6472885291 ef6ebe60e9 7023
owner: 66493364@N00
title: Outdoor Nap
originalsecret: 9b14207685
originalformat: jpg
o_height: 2604
o_width: 3472
datetaken: 2011-11-28 14:47:41
dateupload: 1323284108
tags: socks outdoors whitesocks blacksocks noshoes sandalsandsocks
license: 0
latitude: 40.193369
longitude: -74.641706
accuracy: 14
views: 50
interestingness: 115 out of 141

photo: 6434091663 04edd99451 7028
owner: 38200487@N02
title: Life in Lima, Peru
originalsecret: null
originalformat: null
o_height: null
o_width: null
datetaken: 2011-05-29 09:41:03
dateupload: 1322706358
tags: 
license: 0
latitude: -12.063494
longitude: -77.058105
accuracy: 7
views: 21
interestingness: 116 out of 141

photo: 6474025261 0cb936f8af 7019
owner: 58171316@N08
title: Stall Vendor
originalsecret: 2b40db3511
originalformat: jpg
o_height: 2592
o_width: 3872
datetaken: 2011-08-09 13:16:29
dateupload: 1323299918
tags: china city people man asian roc asia cityscape market crowd chinese taiwan stall nightmarket vendor taipei formosa shilin taiwanese shilinnightmarket republicofchina
license: 0
latitude: 25.088008
longitude: 121.525139
accuracy: 13
views: 50
interestingness: 117 out of 141

photo: 6433667991 ce1c1285e8 7007
owner: 65146752@N04
title: Chacott V Pointe Shoes
originalsecret: fc363df636
originalformat: jpg
o_height: 2312
o_width: 2635
datetaken: 2011-11-30 17:38:55
dateupload: 1322700122
tags: camera ballet dead shoes toe with dancer v pointe duchess chacott
license: 0
latitude: 41.884151
longitude: -87.632408
accuracy: 11
views: 80
interestingness: 118 out of 141

photo: 6433667687 84d7a53f42 7149
owner: 65146752@N04
title: Chacott V Pointe Shoes
originalsecret: f9d9c569b5
originalformat: jpg
o_height: 1236
o_width: 1949
datetaken: 2011-11-30 17:34:10
dateupload: 1322700118
tags: camera ballet dead shoes toe with dancer v pointe duchess chacott
license: 0
latitude: 41.884151
longitude: -87.632408
accuracy: 11
views: 72
interestingness: 119 out of 141

photo: 6481053517 5785b17365 7015
owner: 37300104@N05
title: Day 49 of 365!
originalsecret: null
originalformat: null
o_height: null
o_width: null
datetaken: 2011-12-09 14:23:23
dateupload: 1323423694
tags: bottle wine bottles drinks alcohol winebottles robermondavi
license: 0
latitude: 34.053489
longitude: -118.245323
accuracy: 11
views: 11
interestingness: 120 out of 141

photo: 6480372341 020162eb9a 7024
owner: 33599008@N03
title: 344
originalsecret: null
originalformat: null
o_height: null
o_width: null
datetaken: 2011-12-08 23:15:05
dateupload: 1323407705
tags: fashion mexico shoes skins supermodel avatar best modelo blogs secondlife virtual glam fashionista couture thalia haute sculpted classy avatares nx 2011 themagazine fashionblog chicmanagement heckroth secondlifefashion thaliaheckroth fashioninsecondlife modaensecondlife trasognoerealta withlovehunt creativeartnetwork
license: 0
latitude: 19.4319
longitude: -99.13285
accuracy: 11
views: 44
interestingness: 121 out of 141

photo: 6470106779 c3ea821136 7005
owner: 7203664@N07
title: Resting...
originalsecret: cc7dd47da2
originalformat: jpg
o_height: 2400
o_width: 3000
datetaken: 2011-09-16 06:34:28
dateupload: 1323237430
tags: england people london streetsho
license: 0
latitude: 51.511079
longitude: -0.109941
accuracy: 15
views: 23
interestingness: 122 out of 141

photo: 6461128543 64984c5294 7143
owner: 68017240@N05
title: Shoes
originalsecret: b6380a7bee
originalformat: jpg
o_height: 1280
o_width: 853
datetaken: 2011-12-05 19:07:42
dateupload: 1323110288
tags: red black shop shoe gold store shoes enschede twente
license: 0
latitude: 52.217388
longitude: 6.89289
accuracy: 11
views: 7
interestingness: 123 out of 141

photo: 6455498337 a79bf2b1c1 7148
owner: 19188168@N04
title: Rocking Horse
originalsecret: 04212a5598
originalformat: jpg
o_height: 5245
o_width: 5128
datetaken: 2011-11-08 22:14:17
dateupload: 1323036633
tags: park bw white black 6x6 feet square chair child brunswick hp5 plates ilford camberwell swc 903swc hasselbad alexburgess
license: 0
latitude: 51.476605
longitude: -0.086415
accuracy: 16
views: 46
interestingness: 124 out of 141

photo: 6440101855 12bec3f82f 7025
owner: 62584290@N03
title: Sunset on the Prairie - Colorado front range, Fire in the sky
originalsecret: c306acab20
originalformat: jpg
o_height: 2087
o_width: 3897
datetaken: 2011-10-01 00:00:00
dateupload: 1322804214
tags: longspeak mountainsunset prairiesunset corockymountainsstevemaplegrovestevemccuskeyfoothillsprairieswithsnowcolorado
license: 0
latitude: 40.418462
longitude: -104.999771
accuracy: 10
views: 110
interestingness: 125 out of 141

photo: 6480859415 83271d8b76 7157
owner: 27573864@N02
title: Her shoes
originalsecret: null
originalformat: null
o_height: null
o_width: null
datetaken: 2011-10-04 16:58:24
dateupload: 1323418815
tags: school shoes chittagong cgs basma
license: 0
latitude: 22.334833
longitude: 91.833343
accuracy: 9
views: 42
interestingness: 126 out of 141

photo: 6479179623 a19df34aa7 7007
owner: 52857121@N06
title: Day 9 : I'm So Fast That My Feet Were On Fire
originalsecret: null
originalformat: null
o_height: null
o_width: null
datetaken: 2011-12-08 23:04:51
dateupload: 1323386775
tags: man mannequin fire fight bedroom shoes place smoke fast been 365 chambre l?vitation fum? dannylinkes
license: 0
latitude: 49.741122
longitude: 0.333366
accuracy: 11
views: 37
interestingness: 127 out of 141

photo: 6465005391 1de0a8d38b 7175
owner: 19808533@N00
title: Ladies in red
originalsecret: 03a7ac0f4e
originalformat: jpg
o_height: 2736
o_width: 3648
datetaken: 2011-12-03 19:42:50
dateupload: 1323164397
tags: christmas uk girls red england cute sexy london europe sitting trainstation wimbledon jackets jxnlxx
license: 0
latitude: 51.420954
longitude: -0.20668
accuracy: 15
views: 53
interestingness: 128 out of 141

photo: 6450174105 ec8b85b88d 7158
owner: 63608557@N08
title: Vans
originalsecret: null
originalformat: null
o_height: null
o_width: null
datetaken: 2011-12-03 15:59:07
dateupload: 1322967010
tags: usa classic sc shoes purple south center era carolina vans greenville bilo 2011
license: 2
latitude: 34.848018
longitude: -82.400222
accuracy: 11
views: 44
interestingness: 129 out of 141

photo: 6454249519 f7938fd889 7031
owner: 59211281@N06
title: !
originalsecret: null
originalformat: null
o_height: null
o_width: null
datetaken: 2011-12-04 14:51:06
dateupload: 1323024515
tags: star shoes all heart cords zapatos coraz?n allstar cordones
license: 0
latitude: 28.09005
longitude: -17.114845
accuracy: 16
views: 15
interestingness: 130 out of 141

photo: 6451540697 6ab91a8368 7019
owner: 60027749@N08
title: Still life with shoe... 2011.
originalsecret: 6d2b358690
originalformat: jpg
o_height: 4012
o_width: 2930
datetaken: 2011-10-30 11:47:53
dateupload: 1322990069
tags: shoe rubbish graffito pallet
license: 0
latitude: 53.734313
longitude: -0.359941
accuracy: 15
views: 20
interestingness: 131 out of 141

photo: 6433668275 c8889e49b1 7161
owner: 65146752@N04
title: Chacott V Pointe Shoes
originalsecret: 9ddeffc584
originalformat: jpg
o_height: 1615
o_width: 1751
datetaken: 2011-11-30 17:40:20
dateupload: 1322700125
tags: camera ballet dead shoes toe with dancer v pointe duchess chacott
license: 0
latitude: 41.884151
longitude: -87.632408
accuracy: 11
views: 94
interestingness: 132 out of 141

photo: 6456464105 96e3304fc9 7020
owner: 64203022@N02
title: Puppy & Pashminas - Entrance of Aphrodite site,Turkey
originalsecret: null
originalformat: null
o_height: null
o_width: null
datetaken: 2011-12-04 16:58:09
dateupload: 1323046689
tags: wood orange white black scarf puppy foot shoe grey basket label pashmina pulling wickerbasket lackers woodlackers
license: 0
latitude: 38.95774
longitude: 35.431701
accuracy: 2
views: 10
interestingness: 133 out of 141

photo: 6453662319 1c9851b94c 7025
owner: 16223968@N00
title: 
originalsecret: 5c3657eff4
originalformat: jpg
o_height: 1447
o_width: 1929
datetaken: 2011-11-19 20:56:48
dateupload: 1323018534
tags: chris people me shoe toddler singapore colorful floor andrea daughter converse 3gs iphone vivocity
license: 2
latitude: 1.266333
longitude: 103.823833
accuracy: 16
views: 27
interestingness: 134 out of 141

photo: 6437154687 0e2b89e03e 7155
owner: 51393599@N03
title: Photography Journal: 272/365 - Competition
originalsecret: f38e6ed82e
originalformat: jpg
o_height: 1445
o_width: 1941
datetaken: 2011-12-01 14:21:45
dateupload: 1322760572
tags: dog animal shoes panda
license: 0
latitude: -15.778459
longitude: -47.928661
accuracy: 11
views: 70
interestingness: 135 out of 141

photo: 6459281979 87125fc68d 7171
owner: 25854373@N03
title: The Dungeon
originalsecret: ddda6291e8
originalformat: jpg
o_height: 5173
o_width: 3443
datetaken: 2011-12-03 15:25:54
dateupload: 1323090196
tags: usa newyork abandoned hospital unitedstates urbanexploration asylum hdr institution urbex letchworthvillage photomatix thiells physicallyandmentallydisabled residentialinstitution
license: 0
latitude: 41.216713
longitude: -74.021731
accuracy: 16
views: 64
interestingness: 136 out of 141

photo: 6450432149 c6bfe9ac5d 7165
owner: 93851844@N00
title: Tough Mudder 45
originalsecret: 0cdc9e2098
originalformat: jpg
o_height: 3000
o_width: 4000
datetaken: 2011-12-02 23:50:50
dateupload: 1322970740
tags: race shoes mud run obstacles spartans toughmudder
license: 4
latitude: 28.407236
longitude: -82.173335
accuracy: 14
views: 80
interestingness: 137 out of 141

photo: 6439562135 609552c884 7020
owner: 69179322@N07
title: Ghost Child Playing At Latourell Falls
originalsecret: null
originalformat: null
o_height: null
o_width: null
datetaken: 2011-07-24 17:44:17
dateupload: 1322795017
tags: nature oregon river children waterfall columbiarivergorge latourellfalls
license: 0
latitude: 45.538759
longitude: -122.217664
accuracy: 13
views: 28
interestingness: 138 out of 141

photo: 6447297751 967b372402 7002
owner: 45923298@N00
title: Benson, AZ Horse Shoe Cafe neon sign
originalsecret: null
originalformat: null
o_height: null
o_width: null
datetaken: 2011-11-30 15:33:59
dateupload: 1322929790
tags: arizona sign restaurant cafe neon az horseshoe benson
license: 0
latitude: 31.968393
longitude: -110.2966
accuracy: 15
views: 15
interestingness: 139 out of 141

photo: 6473200171 5bf244443b 7017
owner: 54754281@N04
title: Experiment - 300mm - Beach & Stones
originalsecret: 17be222d59
originalformat: jpg
o_height: 1880
o_width: 2816
datetaken: 2011-12-07 15:32:28
dateupload: 1323288283
tags: light beach dof stones 300mm peebles isleofwight m42 sandown optomax
license: 0
latitude: 50.656276
longitude: -1.146783
accuracy: 14
views: 21
interestingness: 140 out of 141

photo: 6464718905 b148b5f06d 7028
owner: 8981098@N07
title: Tanneries.
originalsecret: 4c149e337c
originalformat: jpg
o_height: 1980
o_width: 2640
datetaken: 2011-10-12 16:04:08
dateupload: 1323158206
tags: africa travel leather canon geotagged handicraft morocco fez maroc fes artesania handwerk artisanat tanneries peregrin alma?rib ???????????? lindadevolder chouwaratanneries powershotsx30
license: 0
latitude: 34.056214
longitude: -4.993801
accuracy: 12
views: 7
interestingness: 141 out of 141

photo: 6448262807 b717492f19 7170
owner: 46323460@N02
title: Dick Weetch & Dan Cates - Newbury
originalsecret: e0e3468cfe
originalformat: jpg
o_height: 1722
o_width: 1182
datetaken: 2011-12-03 11:42:27
dateupload: 1322941515
tags: nov life park lighting uk november original autumn trees sunset summer macro dan nature colors sunshine forest canon magazine dark lens eos death grey diy high woods squirrel shoes fuji natural skateboarding artistic buckinghamshire grain creative ducks style bowl daily skaters movember iso sidewalk 200 era skateboard tele vans british manual 500 nophotoshop sputnik circa skateboards tamron berkshire bucks kingpin lense thrasher cates endless wycombe lightroom offthewall 2011 wwwdeathskateboardscouk wwwliabilityskateblogspotcom oldskoolpaul liability01494
license: 0
latitude: 51.403663
longitude: -1.319571
accuracy: 15
views: 51
interestingness: 142 out of 141

photo: 6447296097 b8b57c30dd 7153
owner: 45923298@N00
title: Benson, AZ Horse Shoe Cafe tabletop jukebox
originalsecret: null
originalformat: null
o_height: null
o_width: null
datetaken: 2011-11-30 15:15:29
dateupload: 1322929767
tags: arizona restaurant cafe az jukebox horseshoe benson tabletop
license: 0
latitude: 31.968393
longitude: -110.2966
accuracy: 15
views: 29
interestingness: 143 out of 141

photo: 6443673499 3fa0de3606 7032
owner: 26108128@N00
title: Friday Elegance
originalsecret: d921a0e781
originalformat: jpg
o_height: 2430
o_width: 1303
datetaken: 2011-12-02 16:52:25
dateupload: 1322864463
tags: fashion style
license: 1
latitude: 40.704333
longitude: -73.987
accuracy: 16
views: 56
interestingness: 144 out of 141

photo: 6439603919 5675154d28 7024
owner: 56772802@N02
title: Potential
originalsecret: null
originalformat: null
o_height: null
o_width: null
datetaken: 2011-11-30 12:36:33
dateupload: 1322795692
tags: christmas winter lake dress straw
license: 0
latitude: 38.803915
longitude: -77.290105
accuracy: 14
views: 27
interestingness: 145 out of 141

photo: 6439514763 3cf4af2382 7172
owner: 8413804@N04
title: Home203
originalsecret: null
originalformat: null
o_height: null
o_width: null
datetaken: 2011-12-01 19:04:59
dateupload: 1322794296
tags: socks whitesocks dirtysocks wetsocks dirtywhitesocks wetdirtysocks
license: 0
latitude: 33.476095
longitude: -112.106713
accuracy: 16
views: 58
interestingness: 146 out of 141

photo: 6470581819 df6392dfe6 7164
owner: 94941181@N00
title: Exa Ia
originalsecret: 5d397500b3
originalformat: jpg
o_height: 900
o_width: 1234
datetaken: 2011-12-04 11:57:20
dateupload: 1323247730
tags: exa1a
license: 0
latitude: 39.932923
longitude: 32.834658
accuracy: 15
views: 39
interestingness: 147 out of 141

photo: 6461306975 ed9a610bc7 7034
owner: 65146752@N04
title: Gamba Pointe Shoes
originalsecret: 3811dbb07d
originalformat: jpg
o_height: 3362
o_width: 3452
datetaken: 2011-12-05 13:30:04
dateupload: 1323112287
tags: camera ballet shoes with pointe gamba duchess 2011
license: 0
latitude: 41.884151
longitude: -87.632408
accuracy: 11
views: 18
interestingness: 148 out of 141

photo: 6445036805 427d05756d 7152
owner: 7693310@N04
title: Trashed
originalsecret: null
originalformat: null
o_height: null
o_width: null
datetaken: 2011-11-28 11:38:01
dateupload: 1322888019
tags: boot shoe clothing rocks dirt zipper tash leftbehind glassbottle cocacolabottle childsshoe thingsfoundalongsidetheroad
license: 0
latitude: 34.574866
longitude: -117.324199
accuracy: 16
views: 46
interestingness: 149 out of 141

photo: 6440515937 3613478715 7148
owner: 47652558@N04
title: Corporate Fitted with the matching Azure I.E.'s
originalsecret: null
originalformat: null
o_height: null
o_width: null
datetaken: 2011-12-01 19:08:11
dateupload: 1322812919
tags: corporate shoes nike kicks michaeljordan jordans fitteds kickz jordanbrand airjordans airjordanxi corporategotem airjordanxiie
license: 0
latitude: 36.273202
longitude: -115.130195
accuracy: 11
views: 46
interestingness: 150 out of 141

photo: 6478344907 4ac7a512c7 7026
owner: 32489451@N07
title: Lost, not found.
originalsecret: e2c9c682f4
originalformat: jpg
o_height: 2848
o_width: 4272
datetaken: 2011-12-07 20:37:49
dateupload: 1323374860
tags: city blue light sky sun black reflection night canon lens eos 50mm d aberdeen ii mm 450 callum 450d mckain
license: 0
latitude: 57.152006
longitude: -2.099169
accuracy: 14
views: 19
interestingness: 151 out of 141

photo: 6474401769 5ff91bd945 7173
owner: 83045427@N00
title: .. and dog
originalsecret: null
originalformat: null
o_height: null
o_width: null
datetaken: 2011-07-01 00:00:00
dateupload: 1323306098
tags: leica bw dog film analog subway shoes metro kodak sweden stockholm bokeh grain nb nails mp sverige noctilux tmax100 hornstull selfdeveloped
license: 0
latitude: 59.316188
longitude: 18.033628
accuracy: 15
views: 32
interestingness: 152 out of 141

photo: 6466257537 da6fc5e9c7 7150
owner: 24964852@N06
title: This is Mr. Farahani, the shoe business
originalsecret: null
originalformat: null
o_height: null
o_width: null
datetaken: 2011-12-06 16:31:41
dateupload: 1323185501
tags: sun man film 35mm canon store chair shoes iran esfahan eos5 businesses
license: 0
latitude: 32.666402
longitude: 51.666297
accuracy: 11
views: 33
interestingness: 153 out of 141

photo: 6454924453 1f871430bc 7020
owner: 39028800@N03
title: These boots are made for walking...
originalsecret: 625fc87470
originalformat: jpg
o_height: 3264
o_width: 4912
datetaken: 2011-12-04 15:06:00
dateupload: 1323031121
tags: germany deutschland shoe focus dof boots bokeh stones sony sigma amelie slt airdale a55 sigmaapo150500mmf563dgoshsm bigmos slta55v sonyalphadslta55
license: 0
latitude: 51.831016
longitude: 6.220683
accuracy: 16
views: 66
interestingness: 154 out of 141

photo: 6443821541 bb614affa0 7017
owner: 31611900@N00
title: Angela (#137)
originalsecret: null
originalformat: null
o_height: null
o_width: null
datetaken: 2011-11-21 11:44:22
dateupload: 1322866684
tags: woman paris beyond angela 85mmf14 100strangers 20111121
license: 0
latitude: 48.847928
longitude: 2.341396
accuracy: 15
views: 83
interestingness: 155 out of 141

photo: 6077861838 8729b99737 6186
owner: 35014314@N06
title: Dita
originalsecret: null
originalformat: null
o_height: null
o_width: null
datetaken: 2011-12-07 13:17:00
dateupload: 1323260220
tags: sanfrancisco red feet window rouge store shoes magasin legs haightashbury pieds jambes stilettos chaussures californie haightst 33mm piedmontboutique fren?tre
license: 0
latitude: 37.770138
longitude: -122.446178
accuracy: 15
views: 44
interestingness: 156 out of 141

photo: 6473313123 8318f23dd6 7030
owner: 54754281@N04
title: Experiment - 300mm - The Edge
originalsecret: a5c44b2395
originalformat: jpg
o_height: 1880
o_width: 2816
datetaken: 2011-12-07 15:42:13
dateupload: 1323289781
tags: light beach dof stones sharp 300mm edge isleofwight m42 sandown optomax tp28
license: 0
latitude: 50.65565
longitude: -1.148071
accuracy: 14
views: 26
interestingness: 157 out of 141

photo: 6438193175 d6b141e20f 7154
owner: 40950430@N04
title: suit n boot
originalsecret: null
originalformat: null
o_height: null
o_width: null
datetaken: 2011-11-26 13:08:37
dateupload: 1322774386
tags: street brown man black men london smart garden shoes smoke tie style smoking covent jacket menswear madbharat
license: 0
latitude: 51.51377
longitude: -0.125041
accuracy: 16
views: 72
interestingness: 158 out of 141

photo: 6481980263 f3168064ed 7169
owner: 9966329@N04
title: Sunset over the lake
originalsecret: null
originalformat: null
o_height: null
o_width: null
datetaken: 2011-12-07 17:50:48
dateupload: 1323442879
tags: california sunset lake clouds reflections sierras wispy donner
license: 0
latitude: 39.323674
longitude: -120.216522
accuracy: 9
views: 13
interestingness: 159 out of 141

photo: 6473066613 5356293ed5 7146
owner: 52655291@N08
title: ???? ???? ? ????? ?????..!
originalsecret: null
originalformat: null
o_height: null
o_width: null
datetaken: 2011-11-27 07:06:04
dateupload: 1323286510
tags: yellow shoes steps sands ??? ???? ???? ?????????
license: 0
latitude: 20.81435
longitude: 55.85926
accuracy: 2
views: 8
interestingness: 160 out of 141

photo: 6462585221 cb5e6ca97b 7152
owner: 41845311@N06
title: 2011 Christmas lights, Neal Street, Covent Garden, London
originalsecret: e987f0dd40
originalformat: jpg
o_height: 2616
o_width: 3488
datetaken: 2011-12-03 20:03:29
dateupload: 1323126934
tags: christmas uk england london night lights coventgarden londonist nealstreet 2011 shoeshops
license: 0
latitude: 51.5146
longitude: -0.126519
accuracy: 15
views: 56
interestingness: 161 out of 141

photo: 6482203593 13a0ac9a34 7168
owner: 55691305@N08
title: a walk in the mall
originalsecret: a69441102c
originalformat: jpg
o_height: 1132
o_width: 3380
datetaken: 2011-12-09 00:00:00
dateupload: 1323446159
tags: mall high orlando heels
license: 1
latitude: 28.444845
longitude: -81.393928
accuracy: 11
views: 17
interestingness: 162 out of 141

photo: 6480828949 9dd675e412 7026
owner: 32204075@N08
title: Urban Stills: Shoes Being Watched
originalsecret: null
originalformat: null
o_height: null
o_width: null
datetaken: 2011-12-09 15:07:47
dateupload: 1323418084
tags: street blackandwhite shoes cctv rack finepix fujifilm osanpocamera x100 urbanstills
license: 0
latitude: 1.380474
longitude: 103.896013
accuracy: 16
views: 32
interestingness: 163 out of 141

photo: 6480602775 f4b0a91f27 7151
owner: 22055334@N02
title: sIMG_0554
originalsecret: a8e7030628
originalformat: jpg
o_height: 700
o_width: 467
datetaken: 2011-12-07 23:13:17
dateupload: 1323412794
tags: longexposure arizona usa forest canon unitedstates grandcanyon wideangle roadtrip lodge fullmoon 5d markii 1635 mountaintime starrysky maswiklodge
license: 0
latitude: 35.999118
longitude: -111.947937
accuracy: 9
views: 10
interestingness: 164 out of 141

photo: 6466594949 60cf4a3874 7007
owner: 29532646@N05
title: Escape
originalsecret: null
originalformat: null
o_height: null
o_width: null
datetaken: 2011-11-19 16:00:51
dateupload: 1323189577
tags: ocean beach freshair one sand shoes solitude alone escape walk wave breathe seabreeze
license: 0
latitude: 33.670541
longitude: -78.902483
accuracy: 16
views: 21
interestingness: 165 out of 141

photo: 6458072547 4d6a787092 7164
owner: 44254572@N04
title: Sad Shoes
originalsecret: fda12f5659
originalformat: jpg
o_height: 1932
o_width: 2705
datetaken: 2011-11-29 17:46:22
dateupload: 1323065692
tags: old blackandwhite bw austin shoes texas sad tx homeless bags d7000 24120f4
license: 0
latitude: 30.268167
longitude: -97.742936
accuracy: 15
views: 31
interestingness: 166 out of 141

photo: 6452985047 196bd7753f 7157
owner: 53727267@N00
title: My shoes
originalsecret: null
originalformat: null
o_height: null
o_width: null
datetaken: 2011-12-04 10:09:57
dateupload: 1323011447
tags: nyc newyork december running nyrr 2011 pixelpipe
license: 0
latitude: 40.7725
longitude: -73.971112
accuracy: 16
views: 18
interestingness: 167 out of 141

photo: 6448259487 015113d72c 7170
owner: 46323460@N02
title: William Burgess - 5050 - Newbury
originalsecret: a806a2663a
originalformat: jpg
o_height: 1182
o_width: 1770
datetaken: 2011-12-03 11:42:18
dateupload: 1322941469
tags: nov life park lighting uk november original autumn trees sunset summer macro dan nature colors sunshine forest canon magazine dark lens eos death grey diy high woods squirrel shoes fuji natural skateboarding artistic buckinghamshire grain creative ducks style bowl daily skaters movember iso sidewalk 200 era skateboard tele vans british manual 500 nophotoshop sputnik circa skateboards tamron berkshire bucks kingpin lense thrasher cates endless wycombe lightroom offthewall 2011 wwwdeathskateboardscouk wwwliabilityskateblogspotcom oldskoolpaul liability01494
license: 0
latitude: 51.403663
longitude: -1.319571
accuracy: 15
views: 72
interestingness: 168 out of 141

photo: 6448211505 7a18b54ab1 7020
owner: 19779889@N00
title: Shoe Tree
originalsecret: 3182795b3a
originalformat: jpg
o_height: 4000
o_width: 3000
datetaken: 2011-11-02 10:02:47
dateupload: 1322940853
tags: strange weird shoes ritual quirky abandonedshoes arbyreed
license: 1
latitude: 39.985423
longitude: -111.501563
accuracy: 16
views: 22
interestingness: 169 out of 141

photo: 6481500717 7aa8b80488 7149
owner: 65435239@N02
title: Shoes in Cordoba
originalsecret: null
originalformat: null
o_height: null
o_width: null
datetaken: 2011-12-03 16:31:46
dateupload: 1323434293
tags: argentina shoes tokina c?rdoba
license: 0
latitude: -31.98505
longitude: -64.561172
accuracy: 11
views: 13
interestingness: 170 out of 141

photo: 6479179981 9c6e17282a 7161
owner: 26154094@N03
title: Land of the Bubblemakers: Proenza Schouler (close)
originalsecret: b2b8f2e96a
originalformat: jpg
o_height: 1200
o_width: 880
datetaken: 2011-12-07 13:41:32
dateupload: 1323386780
tags: christmas nyc newyorkcity urban newyork mannequin fashion reflections mannequins dress manhattan midtown dresses fifthavenue saksfifthavenue saks storewindows hstern newyorkny fallwinter windowdisplays newyorkcityny christmaswindows sakscompany midtownnyc proenzaschouler 10022shoe saksfifthavenuewindows rootsteinmannequins saksfifthavenuewindowdisplay christmas2011 saksfifthavenuewindowdisplays saksfifthavenuechristmaswindowdisplays landofthebubblemakers saksfifthavenuelandofthebubblemakers saksfifthavenuechristmas2011windowdisplays
license: 0
latitude: 40.758009
longitude: -73.977352
accuracy: 15
views: 21
interestingness: 171 out of 141

photo: 6468290165 d567ba3f83 7022
owner: 27625591@N05
title: Look Confused
originalsecret: e1c5a5992e
originalformat: jpg
o_height: 3888
o_width: 2592
datetaken: 2011-11-24 10:30:06
dateupload: 1323210220
tags: winter portrait people bw white black male men boys smile grass canon pose kyle ties outdoors model shoes funny faces sweaters african handsome professional american confused fairfield 40d
license: 0
latitude: 40.041759
longitude: -75.820899
accuracy: 16
views: 11
interestingness: 172 out of 141

photo: 6462799493 da03003023 7020
owner: 35897260@N00
title: repetto
originalsecret: null
originalformat: null
o_height: null
o_width: null
datetaken: 2011-12-03 21:51:08
dateupload: 1323129739
tags: blackandwhite shoes noiretblanc live stage gig chaussures aubagne repetto dissonantnation cilou101
license: 0
latitude: 43.294496
longitude: 5.568351
accuracy: 15
views: 40
interestingness: 173 out of 141

photo: 6461686661 a76dc64253 7144
owner: 61055902@N04
title: Jess.
originalsecret: null
originalformat: null
o_height: null
o_width: null
datetaken: 2011-12-05 15:14:25
dateupload: 1323116345
tags: winter portrait sky orange woman usa snow ice hat sign fence hair shoes december michigan parking cement cyan tights skirt structure jacket fedora suede 2011
license: 0
latitude: 42.292357
longitude: -85.585738
accuracy: 16
views: 59
interestingness: 174 out of 141

photo: 6446343765 3f48eb5110 7173
owner: 19808533@N00
title: Neon
originalsecret: 70cf94f149
originalformat: jpg
o_height: 1422
o_width: 1422
datetaken: 2011-09-04 13:39:53
dateupload: 1322916115
tags: uk travel blue england london lights europe neon display hipstamatic
license: 0
latitude: 51.513947
longitude: -0.149356
accuracy: 16
views: 9
interestingness: 175 out of 141

photo: 6443203381 bbf1b9ac8e 7149
owner: 70148226@N08
title: Run it.
originalsecret: null
originalformat: null
o_height: null
o_width: null
datetaken: 2011-12-02 14:42:36
dateupload: 1322857751
tags: white black self shoes jeans converse laces
license: 0
latitude: 26.139089
longitude: -81.795791
accuracy: 11
views: 43
interestingness: 176 out of 141

photo: 6479272223 8822615059 7154
owner: 26154094@N03
title: Land of the Bubblemakers: Stella McCartney (day)
originalsecret: 65ea0a794b
originalformat: jpg
o_height: 1182
o_width: 913
datetaken: 2011-12-07 13:42:31
dateupload: 1323388350
tags: christmas nyc newyorkcity urban newyork mannequin fashion reflections mannequins dress manhattan midtown dresses fifthavenue saksfifthavenue saks stellamccartney storewindows hstern newyorkny fallwinter windowdisplays newyorkcityny christmaswindows sakscompany midtownnyc 10022shoe saksfifthavenuewindows saksfifthavenuewindowdisplay christmas2011 saksfifthavenuewindowdisplays saksfifthavenuechristmaswindowdisplays landofthebubblemakers saksfifthavenuelandofthebubblemakers saksfifthavenuechristmas2011windowdisplays
license: 0
latitude: 40.758237
longitude: -73.977223
accuracy: 15
views: 21
interestingness: 177 out of 141

photo: 6466783277 33c9cddfdb 7169
owner: 7767835@N03
title: Tough Mudder, shoe pile post-race
originalsecret: null
originalformat: null
o_height: null
o_width: null
datetaken: 2011-12-03 13:55:37
dateupload: 1323191926
tags: race tampa shoe mud florida run event pile dadecity toughmudder
license: 0
latitude: 28.420391
longitude: -82.176704
accuracy: 11
views: 17
interestingness: 178 out of 141

photo: 6473860745 1456124a06 7025
owner: 81669009@N00
title: Maria III
originalsecret: null
originalformat: null
o_height: null
o_width: null
datetaken: 2011-12-03 19:41:32
dateupload: 1323297489
tags: woman sexy beauty coach mujer shoes pretty dress legs sing heels
license: 0
latitude: 39.469188
longitude: -0.376819
accuracy: 11
views: 78
interestingness: 179 out of 141

photo: 6468073919 edc248c239 7148
owner: 42714088@N07
title: FS
originalsecret: null
originalformat: null
o_height: null
o_width: null
datetaken: 2011-12-06 13:38:55
dateupload: 1323207605
tags: 
license: 0
latitude: 44.944838
longitude: -122.98228
accuracy: 16
views: 57
interestingness: 180 out of 141

photo: 6450417831 5d82087e27 7014
owner: 93851844@N00
title: Tough Mudder 34
originalsecret: 0257dff447
originalformat: jpg
o_height: 3000
o_width: 4000
datetaken: 2011-12-02 22:07:48
dateupload: 1322970540
tags: race mud run obstacles spartans toughmudder
license: 4
latitude: 28.406632
longitude: -82.178614
accuracy: 14
views: 40
interestingness: 181 out of 141

photo: 6470579687 c7ea4d1c53 7024
owner: 94941181@N00
title: Exa Ia
originalsecret: 13d3ea9cf1
originalformat: jpg
o_height: 900
o_width: 921
datetaken: 2011-12-04 11:53:01
dateupload: 1323247682
tags: exa1a
license: 0
latitude: 39.932923
longitude: 32.834658
accuracy: 15
views: 37
interestingness: 182 out of 141

photo: 6464000453 2e97d5c2dc 7022
owner: 61307441@N03
title: 
originalsecret: 44f4ac237a
originalformat: jpg
o_height: 2400
o_width: 1594
datetaken: 2011-12-05 23:27:33
dateupload: 1323145653
tags: street blackandwhite white building sepia 50mm nikon shoes miami monotone highrise streetshot nikkor50mmf14 d90 nikond90
license: 0
latitude: 25.79309
longitude: -80.134902
accuracy: 11
views: 10
interestingness: 183 out of 141

photo: 6456149157 08da827400 7005
owner: 7759425@N07
title: Samantha Rose enjoys a latte & apple fritter...
originalsecret: 58cb9dfbbe
originalformat: jpg
o_height: 2640
o_width: 1342
datetaken: 2011-11-28 14:31:39
dateupload: 1323043226
tags: sd starbucks blythe latte applefritter
license: 0
latitude: 55.861922
longitude: -4.254713
accuracy: 16
views: 18
interestingness: 184 out of 141

photo: 6478626621 bb6e0702d1 7145
owner: 64582759@N06
title: The shoes store..
originalsecret: d3206f51ba
originalformat: jpg
o_height: 530
o_width: 800
datetaken: 2011-11-28 16:14:26
dateupload: 1323378700
tags: white black nikon shoes sudan khartoum faisal zahran d7000
license: 0
latitude: 15.587324
longitude: 32.529144
accuracy: 10
views: 21
interestingness: 185 out of 141

photo: 6462483965 800b2b1371 7032
owner: 61055902@N04
title: Jess.
originalsecret: null
originalformat: null
o_height: null
o_width: null
datetaken: 2011-12-01 11:17:19
dateupload: 1323125546
tags: blue red woman metal shoes legs cyan tights tires heels trailer
license: 0
latitude: 42.292357
longitude: -85.585738
accuracy: 16
views: 60
interestingness: 186 out of 141

photo: 6461027941 fe88a58f84 7027
owner: 52983167@N05
title: Can a Girl Believe?
originalsecret: null
originalformat: null
o_height: null
o_width: null
datetaken: 2011-12-05 21:18:32
dateupload: 1323109112
tags: pink night shoes makeup heels cinderella luxury christianlouboutin nikond90
license: 0
latitude: 25.281255
longitude: 51.51987
accuracy: 16
views: 16
interestingness: 187 out of 141

photo: 6454498355 d70a160703 7012
owner: 12477599@N08
title: Forever 21
originalsecret: null
originalformat: null
o_height: null
o_width: null
datetaken: 2011-12-04 13:48:57
dateupload: 1323027008
tags: birthday girl fashion haiti outfit bricks pearls vest redshoes 21stbirthday straightskirt personalstyle
license: 0
latitude: 18.573361
longitude: -72.290039
accuracy: 5
views: 25
interestingness: 188 out of 141

photo: 6468254517 f056577dbd 7031
owner: 85659491@N00
title: Commuter pic 12/06/11 4:06pm DART train, Dallas, TX
originalsecret: a693d8aa3b
originalformat: jpg
o_height: 1368
o_width: 1824
datetaken: 2011-12-06 17:06:24
dateupload: 1323209803
tags: train subway dallas construction shoes texas boots seat railcar transportation transit commute worker dfw lightrail dart consumerist dallastx steeltoe metroplex s95 nffcnnr pegnews canons95
license: 1
latitude: 32.787342
longitude: -96.79313
accuracy: 14
views: 31
interestingness: 189 out of 141

photo: 6458525535 df7c82a862 7010
owner: 94468504@N00
title: Add-ons
originalsecret: null
originalformat: null
o_height: null
o_width: null
datetaken: 2011-12-04 15:55:41
dateupload: 1323073875
tags: kids losangeles shoes wheels gadgets grandcentralmarket
license: 0
latitude: 34.051526
longitude: -118.249073
accuracy: 16
views: 2
interestingness: 190 out of 141

photo: 6446600235 2ec61fa009 7163
owner: 71332155@N06
title: illumin?e
originalsecret: null
originalformat: null
o_height: null
o_width: null
datetaken: 2011-11-25 12:00:34
dateupload: 1322920233
tags: lights shoes lumi?res chaussures illumin?e
license: 0
latitude: 48.041365
longitude: 0.153808
accuracy: 6
views: 7
interestingness: 191 out of 141

photo: 6483091339 546ddeeb87 7171
owner: 55691305@N08
title: florida strawberry festival
originalsecret: 2f080bbb60
originalformat: jpg
o_height: 1759
o_width: 3081
datetaken: 2011-12-09 00:00:00
dateupload: 1323458686
tags: sky feet festival strawberry shoes florida keen
license: 1
latitude: 28.021833
longitude: -82.165374
accuracy: 11
views: 2
interestingness: 192 out of 141

photo: 6473696503 6ae1738f99 7011
owner: 64109888@N02
title: Little and large!
originalsecret: fbb55920ce
originalformat: jpg
o_height: 3456
o_width: 2592
datetaken: 2011-12-06 15:35:23
dateupload: 1323295055
tags: winter urban sunlight sign shop retail architecture shoe neon afternoon bank panasonic shops stokeontrent staffordshire hsbc potteries hanley brassington crownbank dmctz5
license: 0
latitude: 53.025867
longitude: -2.17599
accuracy: 16
views: 17
interestingness: 193 out of 141

photo: 6472885679 40e5108edb 7147
owner: 66493364@N00
title: Trenton Station
originalsecret: daaedd5812
originalformat: jpg
o_height: 600
o_width: 800
datetaken: 2011-12-02 16:03:43
dateupload: 1323284112
tags: socks outdoors whitesocks blacksocks noshoes sandalsandsocks
license: 0
latitude: 40.21882
longitude: -74.755003
accuracy: 14
views: 71
interestingness: 194 out of 141

photo: 6453916873 244a0bb250 7011
owner: 10394091@N00
title: Abandoned Davis Hospital
originalsecret: 2f4b48e3cc
originalformat: jpg
o_height: 612
o_width: 612
datetaken: 2011-12-04 12:51:20
dateupload: 1323021080
tags: abandoned hospital square condemned urbandecay haunted urbanexploration squareformat urbex iphoneography instagramapp xproii uploaded:by=instagram
license: 0
latitude: 35.782
longitude: -80.89883
accuracy: 16
views: 4
interestingness: 195 out of 141

photo: 6448261141 901ace3677 7146
owner: 46323460@N02
title: Dick Weetch - Feeble - Newbury
originalsecret: 2c702ef43b
originalformat: jpg
o_height: 1182
o_width: 1764
datetaken: 2011-12-03 11:42:23
dateupload: 1322941492
tags: nov life park lighting uk november original autumn trees sunset summer macro dan nature colors sunshine forest canon magazine dark lens eos death grey diy high woods squirrel shoes fuji natural skateboarding artistic buckinghamshire grain creative ducks style bowl daily skaters movember iso sidewalk 200 era skateboard tele vans british manual 500 nophotoshop sputnik circa skateboards tamron berkshire bucks kingpin lense thrasher cates endless wycombe lightroom offthewall 2011 wwwdeathskateboardscouk wwwliabilityskateblogspotcom oldskoolpaul liability01494
license: 0
latitude: 51.403663
longitude: -1.319571
accuracy: 15
views: 74
interestingness: 196 out of 141

photo: 6442196043 2314ee0abf 7174
owner: 26305960@N04
title: Paolo Vandini Player
originalsecret: 049a25195f
originalformat: jpg
o_height: 755
o_width: 1080
datetaken: 2011-07-13 14:20:31
dateupload: 1322843970
tags: fashion scott shoes paolo player 7d 2011 chipsforthepoor canon1855mmf3556efs vandini canon580exiispeedlite canon7d wwwwetheconspiratorscom paolovandini paolovandinicom
license: 0
latitude: 51.523203
longitude: -0.070273
accuracy: 15
views: 29
interestingness: 197 out of 141

photo: 6437449285 e34af45ecc 7002
owner: 37457643@N04
title: Motion
originalsecret: null
originalformat: null
o_height: null
o_width: null
datetaken: 2011-12-01 15:54:00
dateupload: 1322764517
tags: park orange motion contrast canon shoe purple move alexandru ioan cuza
license: 0
latitude: 44.425888
longitude: 26.158618
accuracy: 14
views: 8
interestingness: 198 out of 141

photo: 6435485721 a4861ee983 7013
owner: 94941181@N00
title: Zorki 2-S
originalsecret: 011a9709be
originalformat: jpg
o_height: 634
o_width: 800
datetaken: 2011-11-27 16:06:37
dateupload: 1322732432
tags: zorki2s
license: 0
latitude: 39.932923
longitude: 32.834658
accuracy: 15
views: 59
interestingness: 199 out of 141

photo: 6481316279 a2238dc27a 7172
owner: 17537227@N00
title: Leaves / Left
originalsecret: 21d01969cd
originalformat: jpg
o_height: 2848
o_width: 4288
datetaken: 2011-10-22 21:45:07
dateupload: 1323430183
tags: autumn grass leaves rural outside shoe leaf shoes knife passport d90 nikond90
license: 2
latitude: 51.410556
longitude: -0.614182
accuracy: 14
views: 16
interestingness: 200 out of 141

photo: 6476538691 2118ed3530 7146
owner: 35068332@N00
title: Kyle showing off his new Skele-Toes
originalsecret: 42a0ff8eb4
originalformat: jpg
o_height: 1840
o_width: 3264
datetaken: 2011-12-07 16:41:50
dateupload: 1323348316
tags: show red black mall shoe shoes toes toe off line finish autism fila skele skeletoes
license: 0
latitude: 33.390199
longitude: -111.689769
accuracy: 16
views: 8
interestingness: 201 out of 141

photo: 6468959561 0ccfdbe315 7153
owner: 38575250@N06
title: My muddy shoes
originalsecret: null
originalformat: null
o_height: null
o_width: null
datetaken: 2011-12-05 13:40:55
dateupload: 1323219666
tags: toronto reflection feet shoes mud
license: 0
latitude: 43.655744
longitude: -79.411523
accuracy: 16
views: 24
interestingness: 202 out of 141

photo: 6464765579 0511bdcebf 7142
owner: 8981098@N07
title: Tanneries.
originalsecret: 5f39356c6c
originalformat: jpg
o_height: 1970
o_width: 2626
datetaken: 2011-10-12 16:07:16
dateupload: 1323159183
tags: africa travel leather canon geotagged handicraft morocco fez maroc fes artesania handwerk artisanat tanneries peregrin alma?rib ???????????? lindadevolder chouwaratanneries powershotsx30
license: 0
latitude: 34.056214
longitude: -4.993801
accuracy: 12
views: 10
interestingness: 203 out of 141

photo: 6464186069 9aeeb80c19 7035
owner: 93254204@N00
title: The...
originalsecret: null
originalformat: null
o_height: null
o_width: null
datetaken: 2011-12-02 16:18:48
dateupload: 1323148508
tags: autumn woman hot holland cute sexy fall netherlands girl beautiful amsterdam hair europe legs skin babe lips wicked nophotoshop lovely lifeisgood carpediem waterreflections stadsarchief 2011 amstersam reflectah amstersm amsterdamthebestcityintheworld reflectionsofamsterdam checkoutmywebsitewwwamstersamcom wickedreflections puddlepictures sonyhx1 thewickedreflectah amstersmthewickedreflectah
license: 0
latitude: 52.372573
longitude: 4.893808
accuracy: 16
views: 160
interestingness: 204 out of 141

photo: 6462307585 4b1736e973 7147
owner: 8818635@N02
title: 2011-12-05 Monster High Jackson (5)
originalsecret: null
originalformat: null
o_height: null
o_width: null
datetaken: 2011-12-05 16:35:46
dateupload: 1323123313
tags: mattel monsterhigh jacksonjekyll
license: 0
latitude: 44.265117
longitude: -88.417625
accuracy: 10
views: 18
interestingness: 205 out of 141

photo: 6457568651 f08c7903ca 7163
owner: 16735675@N00
title: Feet, Incheon, Korea
originalsecret: null
originalformat: null
o_height: null
o_width: null
datetaken: 2011-09-01 12:32:48
dateupload: 1323058987
tags: travel boy people feet car bag shoes asia korea carseat dashboard southkorea incheon manpurse
license: 0
latitude: 37.704639
longitude: 126.440872
accuracy: 11
views: 26
interestingness: 206 out of 141

photo: 6453691625 d9d7370fe6 7171
owner: 65146752@N04
title: Nutcracker 2011
originalsecret: b0d4bb877c
originalformat: jpg
o_height: 1783
o_width: 2420
datetaken: 2011-12-02 16:29:39
dateupload: 1323018842
tags: camera ballet shoes toe with dancers dancer pointe duchess 2011
license: 0
latitude: 41.884151
longitude: -87.632408
accuracy: 11
views: 40
interestingness: 207 out of 141

photo: 6447494155 cbc702daa9 7170
owner: 41701540@N02
title: Trinkets
originalsecret: null
originalformat: null
o_height: null
o_width: null
datetaken: 2011-11-24 17:19:26
dateupload: 1322932091
tags: thanksgiving santa christmas wood city november autumn urban house holiday detail fall home kids children toys shoe town dc washington floor suburban weekend uncle warmth maryland domestic present microphone claus bethesda trinkets 2011
license: 0
latitude: 38.98637
longitude: -77.096916
accuracy: 11
views: 19
interestingness: 208 out of 141

photo: 6465916307 c1e8f39167 7163
owner: 7759425@N07
title: Happy St. Nick's Day! (49/52)
originalsecret: 00de4ae887
originalformat: jpg
o_height: 1696
o_width: 2489
datetaken: 2011-12-06 12:56:37
dateupload: 1323181072
tags: socks shoe book keychain chocolate blythe mm eyeshadow stnicks
license: 0
latitude: 57.605508
longitude: -3.629608
accuracy: 11
views: 9
interestingness: 209 out of 141

photo: 6448268609 5ac57d92d8 7032
owner: 46323460@N02
title: Sunset  over Wycombe @ Dicks House 2
originalsecret: b033aa591d
originalformat: jpg
o_height: 1176
o_width: 1776
datetaken: 2011-12-03 11:42:41
dateupload: 1322941595
tags: nov life park lighting uk november original autumn trees sunset summer macro dan nature colors sunshine forest canon magazine dark lens eos death grey diy high woods squirrel shoes fuji natural skateboarding artistic buckinghamshire grain creative ducks style bowl daily skaters movember iso sidewalk 200 era skateboard tele vans british manual 500 nophotoshop sputnik circa skateboards tamron berkshire bucks kingpin lense thrasher cates endless wycombe lightroom offthewall 2011 wwwdeathskateboardscouk wwwliabilityskateblogspotcom oldskoolpaul liability01494
license: 0
latitude: 51.618243
longitude: -0.706483
accuracy: 15
views: 23
interestingness: 210 out of 141

photo: 6443424747 4fb28ca760 7010
owner: 60948104@N06
title: Lonely shoes
originalsecret: ac959aca5e
originalformat: jpg
o_height: 3456
o_width: 4696
datetaken: 2011-05-05 21:23:14
dateupload: 1322860854
tags: santiago spain camino
license: 0
latitude: 42.766044
longitude: -7.533531
accuracy: 11
views: 6
interestingness: 211 out of 141

photo: 6482071163 a4012e6077 7148
owner: 94941181@N00
title: FED 50
originalsecret: e44ce45ed2
originalformat: jpg
o_height: 900
o_width: 1124
datetaken: 2011-12-04 11:23:36
dateupload: 1323444396
tags: fed50
license: 0
latitude: 39.932923
longitude: 32.834658
accuracy: 15
views: 7
interestingness: 212 out of 141

photo: 6478965963 eedfe3f0af 7028
owner: 62467082@N04
title: 2k4s
originalsecret: null
originalformat: null
o_height: null
o_width: null
datetaken: 2011-12-08 17:22:48
dateupload: 1323383370
tags: 
license: 0
latitude: 42.708667
longitude: -73.808833
accuracy: 16
views: 22
interestingness: 213 out of 141

photo: 6476929611 e0b0d5de30 7162
owner: 42537008@N00
title: Soir?e Sid'Amour
originalsecret: 165a7dc777
originalformat: jpg
o_height: 1200
o_width: 800
datetaken: 2011-12-03 00:38:03
dateupload: 1323354899
tags: canon shoes punk basket tatoo 50 creuse limousin tatouage 2011 canonef50mmf18ii burningheads sidaction yvesfuret sidamour
license: 0
latitude: 46.235821
longitude: 1.492091
accuracy: 15
views: 29
interestingness: 214 out of 141

photo: 6464833829 1b043f8d34 7003
owner: 8981098@N07
title: Tanneries.
originalsecret: 86f0d379c4
originalformat: jpg
o_height: 1617
o_width: 2086
datetaken: 2011-10-12 16:08:27
dateupload: 1323160560
tags: africa travel leather canon geotagged handicraft morocco fez maroc fes artesania handwerk artisanat tanneries peregrin alma?rib ???????????? lindadevolder chouwaratanneries powershotsx30
license: 0
latitude: 34.056214
longitude: -4.993801
accuracy: 12
views: 6
interestingness: 215 out of 141

photo: 6464185039 1a89d8fb0f 7155
owner: 93254204@N00
title: ...Amsterdam
originalsecret: null
originalformat: null
o_height: null
o_width: null
datetaken: 2011-12-02 16:18:58
dateupload: 1323148492
tags: autumn woman hot holland cute sexy fall netherlands girl beautiful amsterdam hair europe legs skin babe lips wicked nophotoshop lovely lifeisgood carpediem waterreflections stadsarchief 2011 amstersam reflectah amstersm amsterdamthebestcityintheworld reflectionsofamsterdam checkoutmywebsitewwwamstersamcom wickedreflections puddlepictures sonyhx1 thewickedreflectah amstersmthewickedreflectah
license: 0
latitude: 52.372573
longitude: 4.893808
accuracy: 16
views: 147
interestingness: 216 out of 141

photo: 6433668497 949e8509f4 7009
owner: 65146752@N04
title: Chacott V Pointe Shoes B&W
originalsecret: bfa23d0aa5
originalformat: jpg
o_height: 3085
o_width: 2358
datetaken: 2011-11-30 17:39:25
dateupload: 1322700129
tags: camera ballet dead shoes toe with dancer v pointe duchess chacott
license: 0
latitude: 41.884151
longitude: -87.632408
accuracy: 11
views: 47
interestingness: 217 out of 141

photo: 6480372111 0844d87741 7161
owner: 33599008@N03
title: 344-front
originalsecret: null
originalformat: null
o_height: null
o_width: null
datetaken: 2011-12-08 23:15:00
dateupload: 1323407700
