
mintime: 1322697600 maxtime: 1322717395.08
numimgs: 248
total pages: 1
visiting only 1 pages ( up to 250 images)
photo: 6433514371 0ed1182289 7163
owner: 96077153@N00
title: All Decked Out for Christmas
originalsecret: null
originalformat: null
o_height: null
o_width: null
datetaken: 2011-11-26 22:42:40
dateupload: 1322697746
tags: thanksgiving christmas castle memories wdw waltdisneyworld magickingdom disneyphotochallengewinner
license: 0
latitude: 28.419088
longitude: -81.581325
accuracy: 14
views: 198
interestingness: 1 out of 248

photo: 6433782297 55460e79b6 7149
owner: 51433305@N02
title: 1968 Dodge Charger R/T - Road/Trip II
originalsecret: null
originalformat: null
o_height: null
o_width: null
datetaken: 2011-08-03 06:39:14
dateupload: 1322701829
tags: auto old original shadow white detail reflection green classic cars hardtop car sedan vintage reflections landscape eos rebel photo washington cool interesting automobile shiny spokane driving shadows shine unitedstates muscle top metallic interior wheels vinyl cruising automotive retro american valley transportation nostalgic dodge 1968 chrysler mopar gasoline musclecars bullitt 440 rt sixties v8 charger carshow magnum musclecar collectable horsepower 68 yesteryear easternwashington unrestored roadtrack chargerrt inlandnorthwest 60?s pentastar 1968dodge 1968dodgecharger worldcars bbody 1968charger 1968dodgechargerrt
license: 0
latitude: 47.68339
longitude: -117.396469
accuracy: 14
views: 463
interestingness: 2 out of 248

photo: 6434404271 d3ac2c4d61 7027
owner: 34486561@N03
title: Broken Shock?
originalsecret: null
originalformat: null
o_height: null
o_width: null
datetaken: 2011-10-29 14:45:01
dateupload: 1322710983
tags: geotagged nc nikon charlotte northcarolina concord hdr cms carshow topaz goodguys charlottemotorspeedway photomatix tonemapped dougjohnson d700 worldcars topazadjust southeasternnationals
license: 0
latitude: 35.35136
longitude: -80.681705
accuracy: 13
views: 142
interestingness: 3 out of 248

photo: 6373187295 7a67f34a75 6045
owner: 40682521@N04
title: Western Gull and Rainbow
originalsecret: 0274d85893
originalformat: jpg
o_height: 1933
o_width: 2703
datetaken: 2011-11-20 16:38:04
dateupload: 1322701002
tags: 
license: 0
latitude: 37.809402
longitude: -122.469781
accuracy: 16
views: 79
interestingness: 4 out of 248

photo: 6433628781 7758de7ff1 7172
owner: 28096552@N02
title: .
originalsecret: 4e695fb76b
originalformat: jpg
o_height: 683
o_width: 1024
datetaken: 2011-11-30 14:46:45
dateupload: 1322699536
tags: reflection water pool swimming reflections children eau child reflet enfants reflets piscine bassin thedefiningtouch reflexionautourdubassin reflectionaroundthepool
license: 0
latitude: 44.677198
longitude: -0.23951
accuracy: 13
views: 82
interestingness: 5 out of 248

photo: 6434011191 ac1595a52c 7155
owner: 56755616@N06
title: Tokyo Big Sight
originalsecret: 39d710a245
originalformat: jpg
o_height: 772
o_width: 1200
datetaken: 2011-12-01 03:06:42
dateupload: 1322705202
tags: auto show travel car japan tokyo nikon odaiba hdr tokyobigsight bigsight tokyomotorshow d700 2011tokyomotorshow
license: 3
latitude: 35.629744
longitude: 139.794502
accuracy: 16
views: 128
interestingness: 6 out of 248

photo: 6434115501 6ab3d2a5ef 7154
owner: 8378957@N02
title: Harris's Hawk
originalsecret: null
originalformat: null
o_height: null
o_width: null
datetaken: 2011-11-25 14:49:08
dateupload: 1322706693
tags: hawk raptor ave birdofprey harrisshawk aguililla avedepresa averapaz aguililladeharris
license: 0
latitude: 26.550369
longitude: -98.536264
accuracy: 16
views: 42
interestingness: 7 out of 248

photo: 6434465821 a3ee7f5c43 7172
owner: 54683012@N04
title: Painted Desert along the Navajo trail
originalsecret: null
originalformat: null
o_height: null
o_width: null
datetaken: 2011-11-21 14:29:38
dateupload: 1322711877
tags: 
license: 0
latitude: 36.082557
longitude: -111.368329
accuracy: 16
views: 28
interestingness: 8 out of 248

photo: 6433853831 f2f25af566 7163
owner: 8378957@N02
title: Harris's Hawk
originalsecret: null
originalformat: null
o_height: null
o_width: null
datetaken: 2011-11-25 14:30:33
dateupload: 1322702875
tags: hawk raptor ave birdofprey harrisshawk parabuteounicinctus aguililla avedepresa averapaz agulilladeharris
license: 0
latitude: 26.550364
longitude: -98.536232
accuracy: 16
views: 196
interestingness: 9 out of 248

photo: 6434589205 b6b1c1e30c 7029
owner: 49832046@N05
title: IMG_8741rx
originalsecret: 8c48274aa6
originalformat: jpg
o_height: 1354
o_width: 2048
datetaken: 2011-11-23 14:08:16
dateupload: 1322713689
tags: autoshow laautoshow laautoshow2011
license: 0
latitude: 34.043106
longitude: -118.269478
accuracy: 15
views: 23
interestingness: 10 out of 248

photo: 6433881879 243a8996c4 7024
owner: 34578976@N00
title: Loon Lake B-23 Isometric
originalsecret: 9f09128d99
originalformat: jpg
o_height: 2934
o_width: 3168
datetaken: 2011-11-30 19:11:18
dateupload: 1322703287
tags: lake 3d model bomber pap loon b23 meshlab hypr3d
license: 0
latitude: 45.15877
longitude: -115.841238
accuracy: 14
views: 97
interestingness: 11 out of 248

photo: 6434696875 17387f720c 7167
owner: 35870491@N02
title: Tongue Tied
originalsecret: null
originalformat: null
o_height: null
o_width: null
datetaken: 2011-11-30 19:51:55
dateupload: 1322715338
tags: selfportrait color feet fun lyrics shoes floor legs angles canvas splash dailyphoto ankles indiekids musicaddicts imemine indiefashion blipfoto mysexylegs retrofeel seattleeveryday showusyourbest portraitswithoutaface lovelifeandbeauty tonguetiedbygrouplove
license: 0
latitude: 47.601417
longitude: -122.334823
accuracy: 11
views: 97
interestingness: 12 out of 248

photo: 6434253241 d41c6f92f2 7011
owner: 23238402@N04
title: Dream
originalsecret: null
originalformat: null
o_height: null
o_width: null
datetaken: 2011-11-30 01:34:50
dateupload: 1322708765
tags: 50mm nikon portra 160 ?18 fm10nikkor dkodak
license: 0
latitude: 3.815279
longitude: 103.322692
accuracy: 11
views: 67
interestingness: 13 out of 248

photo: 6433732349 92bff9841e 7148
owner: 30966697@N08
title: Bunny Ears
originalsecret: fc8a4076f9
originalformat: jpg
o_height: 3072
o_width: 4608
datetaken: 2011-11-30 17:52:16
dateupload: 1322701081
tags: dog ear imallears curvedline 111picturesin2011 dogchal
license: 0
latitude: 40.799
longitude: -89.196506
accuracy: 16
views: 45
interestingness: 14 out of 248

photo: 6434165921 3d2a073ab4 7032
owner: 47432611@N07
title: Pucker Up
originalsecret: a6a3e1e3dd
originalformat: jpg
o_height: 1067
o_width: 800
datetaken: 2011-11-30 12:28:23
dateupload: 1322707413
tags: tree outdoors kiss humour smooch duckpond facialimpressions yelm cochranepark
license: 0
latitude: 46.937766
longitude: -122.610227
accuracy: 16
views: 27
interestingness: 15 out of 248

photo: 6433881785 619a1d8cc5 7018
owner: 34578976@N00
title: Loon Lake B-23 Orthographic
originalsecret: 0dbf97ca1d
originalformat: jpg
o_height: 2748
o_width: 4152
datetaken: 2011-11-30 19:09:01
dateupload: 1322703286
tags: lake 3d model bomber pap loon b23 meshlab hypr3d
license: 0
latitude: 45.158861
longitude: -115.84134
accuracy: 16
views: 56
interestingness: 16 out of 248

photo: 6434039729 e0e49d8139 7148
owner: 22812711@N05
title: Neon Art Sign
originalsecret: null
originalformat: null
o_height: null
o_width: null
datetaken: 2010-10-04 17:45:08
dateupload: 1322705598
tags: usa
license: 0
latitude: 46.585402
longitude: -120.52967
accuracy: 16
views: 19
interestingness: 17 out of 248

photo: 6434003949 a9420ea153 7162
owner: 7202153@N03
title: Emery's early iPod - an Edison phonograph - Kolb residence - Grand Canyon Village
originalsecret: 4df07a354a
originalformat: jpg
o_height: 3000
o_width: 4000
datetaken: 2011-11-17 15:28:30
dateupload: 1322705101
tags: park arizona building history home architecture movie studio nationalpark village district grandcanyon south grand photographic canyon historic national residence rim southrim kolb grandcanyonnationalpark nationalhistoricdistrict kolbstudio alhikesaz arizonamemoryproject gc2011 kolbresidence grandcanyonvillagehistoricdistrict
license: 2
latitude: 36.057538
longitude: -112.145744
accuracy: 16
views: 40
interestingness: 18 out of 248

photo: 6434004439 140fc0c172 7173
owner: 7202153@N03
title: Historic Kolb Studio - Grand Canyon - South Rim
originalsecret: 8fbe2c29f8
originalformat: jpg
o_height: 2468
o_width: 3688
datetaken: 2011-11-17 14:22:48
dateupload: 1322705108
tags: park arizona building history home architecture movie studio nationalpark village district flag grandcanyon south americanflag grand photographic canyon historic national american residence rim southrim kolb grandcanyonnationalpark nationalhistoricdistrict kolbstudio alhikesaz arizonamemoryproject gc2011 kolbresidence grandcanyonvillagehistoricdistrict
license: 2
latitude: 36.057538
longitude: -112.145744
accuracy: 16
views: 63
interestingness: 19 out of 248

photo: 6433797367 0db4041f6f 7169
owner: 10290887@N03
title: Ford Focus ST
originalsecret: 87c40feb7e
originalformat: jpg
o_height: 3430
o_width: 5146
datetaken: 2011-11-27 13:26:17
dateupload: 1322702046
tags: auto show ford st la los focus angeles autoshow 2011
license: 0
latitude: 34.040277
longitude: -118.269492
accuracy: 16
views: 20
interestingness: 20 out of 248

photo: 6433604195 d59ef68e88 7023
owner: 29936458@N05
title: Smith College 2011 Fall Mum Show
originalsecret: 9b656ab8a8
originalformat: jpg
o_height: 960
o_width: 1600
datetaken: 2011-11-19 00:00:11
dateupload: 1322699170
tags: flower color ma northampton massachusetts botanicgarden chrysanthemum smithcollege 2011 charleskellogg charlesgkellogg charliekellogg fallmumshow copyright2011
license: 1
latitude: 42.319113
longitude: -72.640056
accuracy: 14
views: 3
interestingness: 21 out of 248

photo: 6433597697 c9c8d319c0 7173
owner: 29936458@N05
title: Smith College 2011 Fall Mum Show
originalsecret: b93a5cb4d4
originalformat: jpg
o_height: 1600
o_width: 1071
datetaken: 2011-11-19 00:00:00
dateupload: 1322699073
tags: flower color ma northampton massachusetts botanicgarden chrysanthemum smithcollege 2011 charleskellogg charlesgkellogg charliekellogg fallmumshow copyright2011
license: 1
latitude: 42.319113
longitude: -72.640056
accuracy: 14
views: 2
interestingness: 22 out of 248

photo: 6433584145 b035cd5686 7022
owner: 11541209@N06
title: It's a Small World Holiday at Night, Disneyland in California
originalsecret: 66e2d00413
originalformat: jpg
o_height: 3456
o_width: 5184
datetaken: 2011-11-29 20:58:19
dateupload: 1322698880
tags: california park lighting christmas ca travel decorations holiday tourism night lights holidays disneyland disney resort socal nightime christmasdecorations destination southerncalifornia orangecounty anaheim oc decor dl dlr themepark disneylandresort
license: 2
latitude: 33.814418
longitude: -117.917917
accuracy: 16
views: 46
interestingness: 23 out of 248

photo: 6434679259 81514718e1 7030
owner: 25112341@N06
title: Indian Fashion Show
originalsecret: null
originalformat: null
o_height: null
o_width: null
datetaken: 2011-11-26 22:42:21
dateupload: 1322715048
tags: fashion runway indianfashionshow modeols
license: 0
latitude: 43.702947
longitude: -79.638433
accuracy: 16
views: 20
interestingness: 24 out of 248

photo: 6434804067 2e0fac1e26 7169
owner: 74382902@N00
title: Jay Alexander showing how to do magic tricks to folks #QtDD11
originalsecret: null
originalformat: null
o_height: null
o_width: null
datetaken: 2011-11-30 21:27:31
dateupload: 1322717251
tags: cameraphone sanfrancisco california camera mobile moblog fun nokia technology phone burlingame qt msjen blackphoebecom photobyjenhanen nokian8 qtquick qtdd11 qtdeveloperdays2011
license: 0
latitude: 37.592199
longitude: -122.359428
accuracy: 11
views: 57
interestingness: 25 out of 248

photo: 6434589333 56be3a8dff 7154
owner: 49832046@N05
title: IMG_8749rx
originalsecret: 5e89d694f4
originalformat: jpg
o_height: 1412
o_width: 2048
datetaken: 2011-11-23 14:09:36
dateupload: 1322713691
tags: autoshow laautoshow laautoshow2011
license: 0
latitude: 34.043106
longitude: -118.269478
accuracy: 15
views: 18
interestingness: 26 out of 248

photo: 6434701937 bf8b2cbeb5 7160
owner: 58628677@N00
title: Mia Lopez 02
originalsecret: null
originalformat: null
o_height: null
o_width: null
datetaken: 2011-11-30 15:30:56
dateupload: 1322715421
tags: model mia gma7 germanmoreno mastershowman mialopez canoneoskissx4 walangtulugan
license: 0
latitude: 14.500229
longitude: 120.992912
accuracy: 11
views: 120
interestingness: 27 out of 248

photo: 6434626077 8f014218ba 7014
owner: 45717670@N00
title: Bonds on show.
originalsecret: 494c25aa43
originalformat: jpg
o_height: 1068
o_width: 1625
datetaken: 2011-12-01 12:28:47
dateupload: 1322714231
tags: boy people cars walking backpack behind carpark backview shoppingtrolleys
license: 0
latitude: -28.135274
longitude: 153.478317
accuracy: 10
views: 23
interestingness: 28 out of 248

photo: 6434653541 f896c00e61 7166
owner: 35035489@N05
title: SRM570911117550
originalsecret: null
originalformat: null
o_height: null
o_width: null
datetaken: 2011-11-30 20:44:10
dateupload: 1322714650
tags: ca sj sacramento usaf warbird ranchocordova usairforce 2011 f15estrikeeagle capitolairshow militaryfighterjet af870179
license: 0
latitude: 38.562998
longitude: -121.293697
accuracy: 13
views: 8
interestingness: 29 out of 248

photo: 6433540765 e8d9c11b18 7006
owner: 55034803@N02
title: VH_A7-071
originalsecret: 9230b638fc
originalformat: jpg
o_height: 2316
o_width: 3509
datetaken: 2011-11-27 14:25:42
dateupload: 1322698173
tags: aircraft aviation camouflage cac commonwealth raaf trainer bundaberg macchi mb326 ca30 76squadron leadinfighter a7071
license: 0
latitude: -24.899389
longitude: 152.321147
accuracy: 15
views: 17
interestingness: 30 out of 248

photo: 6434423757 2687ac13c3 7169
owner: 22957574@N00
title: Watching the watchers
originalsecret: eb249d0605
originalformat: jpg
o_height: 2463
o_width: 4193
datetaken: 2011-11-28 01:48:52
dateupload: 1322711262
tags: lasvegas bellagio watershow
license: 0
latitude: 36.113636
longitude: -115.1731
accuracy: 15
views: 14
interestingness: 31 out of 248

photo: 6433749683 a5415cf907 7024
owner: 72098626@N00
title: Central Park Dance Skaters, Oct 2011 - 17
originalsecret: 6ca27a978d
originalformat: jpg
o_height: 3957
o_width: 2639
datetaken: 2011-10-23 15:28:04
dateupload: 1322701338
tags: newyork bottle dancers centralpark manhattan skate centralparkdanceskaters danceskaters
license: 1
latitude: 40.773277
longitude: -73.971356
accuracy: 16
views: 27
interestingness: 32 out of 248

photo: 6433602551 36042d01b7 7020
owner: 29936458@N05
title: Smith College 2011 Fall Mum Show
originalsecret: aacba9d078
originalformat: jpg
o_height: 960
o_width: 1600
datetaken: 2011-11-19 00:00:08
dateupload: 1322699145
tags: flower color ma northampton massachusetts botanicgarden chrysanthemum smithcollege 2011 charleskellogg charlesgkellogg charliekellogg fallmumshow copyright2011
license: 1
latitude: 42.319113
longitude: -72.640056
accuracy: 14
views: 6
interestingness: 33 out of 248

photo: 6433733441 9bda09b9eb 7144
owner: 22224184@N00
title: Muggles
originalsecret: b943d7d06e
originalformat: jpg
o_height: 3072
o_width: 2304
datetaken: 2011-11-04 12:10:00
dateupload: 1322701098
tags: mike orlando florida mary harrypotter universalstudios hogwarts islandsofadventure
license: 0
latitude: 28.472567
longitude: -81.473209
accuracy: 16
views: 7
interestingness: 34 out of 248

photo: 6433617047 251bc9f5ee 7009
owner: 10290887@N03
title: Porsche 911 Carrera S
originalsecret: bda5be6330
originalformat: jpg
o_height: 2964
o_width: 4446
datetaken: 2011-11-27 13:04:06
dateupload: 1322699361
tags: auto show la los angeles 911 autoshow s porsche carrera 991 2011
license: 0
latitude: 34.040277
longitude: -118.269492
accuracy: 16
views: 25
interestingness: 35 out of 248

photo: 6434678473 2807a2bb4e 7172
owner: 71159954@N04
title: Kenzo Fall/Winter 2006 Collection fashion show
originalsecret: null
originalformat: null
o_height: null
o_width: null
datetaken: 2006-10-07 04:03:26
dateupload: 1322715036
tags: show winter paris fall fashion james 2006 collection edward coco kenzo rocha
license: 0
latitude: 48.856918
longitude: 2.341209
accuracy: 11
views: 0
interestingness: 36 out of 248

photo: 6434653497 163eac22b8 7148
owner: 35035489@N05
title: SRM570911117572
originalsecret: null
originalformat: null
o_height: null
o_width: null
datetaken: 2011-11-30 20:44:09
dateupload: 1322714649
tags: ca talon sacramento airforce bb usaf ranchocordova usairforce bealeafb 2011 t38a capitolairshow trainerjet northropcorp af65342 u2reconteam
license: 0
latitude: 38.562998
longitude: -121.293697
accuracy: 13
views: 15
interestingness: 37 out of 248

photo: 6434310773 d81c0373a7 7023
owner: 10965794@N00
title: Devil Dinosaur vs. Godzilla
originalsecret: null
originalformat: null
o_height: null
o_width: null
datetaken: 2011-11-29 22:52:19
dateupload: 1322709621
tags: show november boy moon comics print poster sketch nc comic dinosaur drawing north books godzilla autograph artists writers convention comicbook carolina devil writer marvel signed autographed morrisville inscribed moonboy srtist
license: 0
latitude: 35.859256
longitude: -78.819313
accuracy: 16
views: 13
interestingness: 38 out of 248

photo: 6434309721 d6f3e4222a 7017
owner: 10965794@N00
title: Zombie Professor Zoom
originalsecret: null
originalformat: null
o_height: null
o_width: null
datetaken: 2011-11-29 22:52:00
dateupload: 1322709605
tags: show november black comics print poster sketch dc nc comic zoom drawing zombie flash north books autograph artists writers convention comicbook carolina writer professor signed autographed morrisville inscribed zombified srtist
license: 0
latitude: 35.859256
longitude: -78.819313
accuracy: 16
views: 11
interestingness: 39 out of 248

photo: 6434309357 3976671da5 7163
owner: 8820084@N02
title: .
originalsecret: null
originalformat: null
o_height: null
o_width: null
datetaken: 2011-10-29 10:20:59
dateupload: 1322709600
tags: dog austin geotagged downtown austintexas republicsquare austinfarmersmarket costumeddog geo:lat=302678745673167 geo:lon=9774762738161468
license: 0
latitude: 30.267874
longitude: -97.747627
accuracy: 16
views: 41
interestingness: 40 out of 248

photo: 6434308999 2cc420a9a7 7005
owner: 10965794@N00
title: Zombie Professor Zoom aka Black Flash
originalsecret: null
originalformat: null
o_height: null
o_width: null
datetaken: 2011-11-29 22:48:59
dateupload: 1322709594
tags: show november black comics print poster sketch dc nc comic zoom drawing zombie flash north books autograph artists writers convention comicbook carolina writer professor signed autographed morrisville inscribed zombified srtist
license: 0
latitude: 35.859256
longitude: -78.819313
accuracy: 16
views: 19
interestingness: 41 out of 248

photo: 6434104385 a5e26c8160 7014
owner: 48363332@N07
title: Gallardo Spyder
originalsecret: null
originalformat: null
o_height: null
o_width: null
datetaken: 2011-09-10 01:11:07
dateupload: 1322706535
tags: show new red car racecar michael bank gear convertible ferrari spyder e jersey rims lamborghini coupe supercar gallardo fux aftermarket rival 2011 asanti
license: 0
latitude: 40.349201
longitude: -74.070137
accuracy: 11
views: 13
interestingness: 42 out of 248

photo: 6434037341 1556640331 7033
owner: 51035555243@N01
title: Trample
originalsecret: 9ec9ea26ff
originalformat: jpg
o_height: 1447
o_width: 2171
datetaken: 2011-01-23 19:06:44
dateupload: 1322705564
tags: usa cowboy texas unitedstates unitedstatesofamerica bull rodeo dfw bullriding fortworth fortworthstockshowrodeo fortworthstockshowandrodeo dmudallas012011
license: 2
latitude: 32.746058
longitude: -97.364964
accuracy: 16
views: 25
interestingness: 43 out of 248

photo: 6433882877 6e2754b9ca 7169
owner: 89725937@N00
title: 11/22/11 - Sound Check
originalsecret: null
originalformat: null
o_height: null
o_width: null
datetaken: 2011-11-22 20:02:50
dateupload: 1322703302
tags: november philadelphia pennsylvania livemusic pa soundcheck dailyphoto drdog secretshow 2011 project365 tobyleaman frankmcelroy kungfunecktie veroniquelee veropie
license: 0
latitude: 39.970789
longitude: -75.134682
accuracy: 14
views: 3
interestingness: 44 out of 248

photo: 6433791149 2a49800a3e 7016
owner: 10290887@N03
title: Ford Fiesta ST
originalsecret: 6d7218eb2d
originalformat: jpg
o_height: 3152
o_width: 4728
datetaken: 2011-11-27 13:26:01
dateupload: 1322701954
tags: auto show ford st la los fiesta angeles autoshow 2011
license: 0
latitude: 34.040277
longitude: -118.269492
accuracy: 16
views: 8
interestingness: 45 out of 248

photo: 6433784681 4f03cdb61d 7027
owner: 10290887@N03
title: Ford Fiesta ST
originalsecret: 58cacb5fac
originalformat: jpg
o_height: 3345
o_width: 5017
datetaken: 2011-11-27 13:25:39
dateupload: 1322701861
tags: auto show ford st la los fiesta angeles autoshow 2011
license: 0
latitude: 34.040277
longitude: -118.269492
accuracy: 16
views: 10
interestingness: 46 out of 248

photo: 6433778479 5a4b14c0e7 7159
owner: 10290887@N03
title: Ford SVT Raptor
originalsecret: 2bd6f5f871
originalformat: jpg
o_height: 5184
o_width: 3456
datetaken: 2011-11-27 13:24:05
dateupload: 1322701773
tags: auto show ford la los angeles autoshow raptor svt 2011
license: 0
latitude: 34.040277
longitude: -118.269492
accuracy: 16
views: 8
interestingness: 47 out of 248

photo: 6433770013 492abec448 7175
owner: 10290887@N03
title: Ford SVT Raptor
originalsecret: 37977ea4ba
originalformat: jpg
o_height: 5184
o_width: 3456
datetaken: 2011-11-27 13:23:56
dateupload: 1322701643
tags: auto show ford la los angeles autoshow raptor svt 2011
license: 0
latitude: 34.040277
longitude: -118.269492
accuracy: 16
views: 7
interestingness: 48 out of 248

photo: 6433761981 5c4f369dee 7157
owner: 10290887@N03
title: Ford SVT Raptor
originalsecret: 5e1b4a743d
originalformat: jpg
o_height: 3456
o_width: 5184
datetaken: 2011-11-27 13:23:51
dateupload: 1322701524
tags: auto show ford la los angeles autoshow raptor svt 2011
license: 0
latitude: 34.040277
longitude: -118.269492
accuracy: 16
views: 7
interestingness: 49 out of 248

photo: 6433755653 3800f98df1 7035
owner: 10290887@N03
title: Ford SVT Raptor
originalsecret: e163a15be8
originalformat: jpg
o_height: 3456
o_width: 5184
datetaken: 2011-11-27 13:23:48
dateupload: 1322701430
tags: auto show ford la los angeles autoshow raptor svt 2011
license: 0
latitude: 34.040277
longitude: -118.269492
accuracy: 16
views: 6
interestingness: 50 out of 248

photo: 6433749205 c96efcfcd0 7160
owner: 10290887@N03
title: Ford SVT Raptor
originalsecret: fd3a1157b8
originalformat: jpg
o_height: 5184
o_width: 3456
datetaken: 2011-11-27 13:23:12
dateupload: 1322701332
tags: auto show ford la los angeles autoshow raptor svt 2011
license: 0
latitude: 34.040277
longitude: -118.269492
accuracy: 16
views: 4
interestingness: 51 out of 248

photo: 6433742125 492e454179 7173
owner: 72098626@N00
title: Central Park Dance Skaters, Oct 2011 - 15
originalsecret: 41a3582004
originalformat: jpg
o_height: 2801
o_width: 4201
datetaken: 2011-10-23 15:26:58
dateupload: 1322701227
tags: newyork dancers mayor centralpark manhattan skate beret centralparkdanceskaters themayor danceskaters
license: 1
latitude: 40.773277
longitude: -73.971356
accuracy: 16
views: 19
interestingness: 52 out of 248

photo: 6433740469 ca3034b042 7006
owner: 10290887@N03
title: Ford SVT Raptor
originalsecret: a82279221b
originalformat: jpg
o_height: 3456
o_width: 5184
datetaken: 2011-11-27 13:22:47
dateupload: 1322701202
tags: auto show ford la los angeles autoshow raptor svt 2011
license: 0
latitude: 34.040277
longitude: -118.269492
accuracy: 16
views: 10
interestingness: 53 out of 248

photo: 6433734899 d16df83274 7007
owner: 72098626@N00
title: Central Park Dance Skaters, Oct 2011 - 13
originalsecret: e658419ddd
originalformat: jpg
o_height: 2810
o_width: 4215
datetaken: 2011-10-23 15:24:11
dateupload: 1322701120
tags: newyork sunglasses scarf couple dancers dancing centralpark manhattan skate centralparkdanceskaters danceskaters
license: 1
latitude: 40.773277
longitude: -73.971356
accuracy: 16
views: 43
interestingness: 54 out of 248

photo: 6433732693 5102e3ffa5 7018
owner: 10290887@N03
title: Ford SVT Raptor
originalsecret: 37d3de11b9
originalformat: jpg
o_height: 3456
o_width: 5184
datetaken: 2011-11-27 13:22:41
dateupload: 1322701086
tags: auto show ford la los angeles autoshow raptor svt 2011
license: 0
latitude: 34.040277
longitude: -118.269492
accuracy: 16
views: 11
interestingness: 55 out of 248

photo: 6433726707 9969f9d5f7 7144
owner: 10290887@N03
title: KIA GT Concept
originalsecret: 8673d07870
originalformat: jpg
o_height: 3349
o_width: 5024
datetaken: 2011-11-27 13:20:26
dateupload: 1322700993
tags: auto show la los angeles autoshow concept kia gt 2011
license: 0
latitude: 34.040277
longitude: -118.269492
accuracy: 16
views: 13
interestingness: 56 out of 248

photo: 6433724843 40eabba012 7019
owner: 72098626@N00
title: Central Park Dance Skaters, Oct 2011 - 11
originalsecret: 14416ee88c
originalformat: jpg
o_height: 4928
o_width: 3264
datetaken: 2011-10-23 15:19:53
dateupload: 1322700963
tags: newyork sunglasses dancers centralpark manhattan skate yellowshirt centralparkdanceskaters yellowclothes danceskaters
license: 1
latitude: 40.773277
longitude: -73.971356
accuracy: 16
views: 19
interestingness: 57 out of 248

photo: 6433722755 cb96b70e0e 7022
owner: 10290887@N03
title: KIA GT Concept
originalsecret: 605da1340b
originalformat: jpg
o_height: 3456
o_width: 5184
datetaken: 2011-11-27 13:20:21
dateupload: 1322700929
tags: auto show la los angeles autoshow concept kia gt 2011
license: 0
latitude: 34.040277
longitude: -118.269492
accuracy: 16
views: 9
interestingness: 58 out of 248

photo: 6433717823 39c72c355f 7151
owner: 10290887@N03
title: KIA GT Concept
originalsecret: 2415325cf8
originalformat: jpg
o_height: 5184
o_width: 3456
datetaken: 2011-11-27 13:20:06
dateupload: 1322700850
tags: auto show la los angeles autoshow concept kia gt 2011
license: 0
latitude: 34.040277
longitude: -118.269492
accuracy: 16
views: 12
interestingness: 59 out of 248

photo: 6433712833 5e2bff7bf9 7015
owner: 10290887@N03
title: KIA GT Concept
originalsecret: 1ddb951c82
originalformat: jpg
o_height: 3199
o_width: 4798
datetaken: 2011-11-27 13:19:44
dateupload: 1322700771
tags: auto show la los angeles autoshow concept kia gt 2011
license: 0
latitude: 34.040277
longitude: -118.269492
accuracy: 16
views: 8
interestingness: 60 out of 248

photo: 6433706847 f1b480d0b4 7147
owner: 10290887@N03
title: KIA GT Concept
originalsecret: 6c0c00fda4
originalformat: jpg
o_height: 2856
o_width: 4283
datetaken: 2011-11-27 13:19:37
dateupload: 1322700677
tags: auto show la los angeles autoshow concept kia gt 2011
license: 0
latitude: 34.040277
longitude: -118.269492
accuracy: 16
views: 3
interestingness: 61 out of 248

photo: 6433703401 57710e7931 7172
owner: 10290887@N03
title: KIA GT Concept
originalsecret: ee223fe3c8
originalformat: jpg
o_height: 3187
o_width: 4780
datetaken: 2011-11-27 13:19:25
dateupload: 1322700627
tags: auto show la los angeles autoshow concept kia gt 2011
license: 0
latitude: 34.040277
longitude: -118.269492
accuracy: 16
views: 5
interestingness: 62 out of 248

photo: 6433696743 c7b1fa6877 7166
owner: 10290887@N03
title: KIA GT Concept
originalsecret: 9fdd818b1c
originalformat: jpg
o_height: 3258
o_width: 4887
datetaken: 2011-11-27 13:19:11
dateupload: 1322700526
tags: auto show la los angeles autoshow concept kia gt 2011
license: 0
latitude: 34.040277
longitude: -118.269492
accuracy: 16
views: 5
interestingness: 63 out of 248

photo: 6433684081 f0bc735424 7158
owner: 10290887@N03
title: Jeep Wrangler Call of Duty: MW3 Special Edition
originalsecret: bcb8874931
originalformat: jpg
o_height: 5184
o_width: 3456
datetaken: 2011-11-27 13:14:56
dateupload: 1322700352
tags: auto show la los call jeep angeles duty autoshow special edition wrangler 2011 mw3
license: 0
latitude: 34.040277
longitude: -118.269492
accuracy: 16
views: 8
interestingness: 64 out of 248

photo: 6433678323 1eb94b801c 7144
owner: 10290887@N03
title: Jeep Wrangler Call of Duty: MW3 Special Edition
originalsecret: 04de504622
originalformat: jpg
o_height: 2866
o_width: 4299
datetaken: 2011-11-27 13:14:51
dateupload: 1322700271
tags: auto show la los call jeep angeles duty autoshow special edition wrangler 2011 mw3
license: 0
latitude: 34.040277
longitude: -118.269492
accuracy: 16
views: 11
interestingness: 65 out of 248

photo: 6433674269 faafd507d4 7149
owner: 10290887@N03
title: Jeep Wrangler Call of Duty: MW3 Special Edition
originalsecret: a9c4de54b0
originalformat: jpg
o_height: 3456
o_width: 5184
datetaken: 2011-11-27 13:14:33
dateupload: 1322700213
tags: auto show la los call jeep angeles duty autoshow special edition wrangler 2011 mw3
license: 0
latitude: 34.040277
longitude: -118.269492
accuracy: 16
views: 11
interestingness: 66 out of 248

photo: 6433668375 142fa34696 7031
owner: 10290887@N03
title: Jeep Grand Cherokee
originalsecret: ff8760b1a6
originalformat: jpg
o_height: 3095
o_width: 4643
datetaken: 2011-11-27 13:12:45
dateupload: 1322700127
tags: auto show la los jeep angeles grand autoshow cherokee 2011
license: 0
latitude: 34.040277
longitude: -118.269492
accuracy: 16
views: 7
interestingness: 67 out of 248

photo: 6433662983 f2847165ef 7166
owner: 10290887@N03
title: Jeep Grand Cherokee
originalsecret: cf047afb69
originalformat: jpg
o_height: 3262
o_width: 4894
datetaken: 2011-11-27 13:11:36
dateupload: 1322700051
tags: auto show la los jeep angeles grand autoshow cherokee 2011
license: 0
latitude: 34.040277
longitude: -118.269492
accuracy: 16
views: 10
interestingness: 68 out of 248

photo: 6433657397 925a1e7d6d 7145
owner: 69525722@N05
title: steven wilson @ pure reason revolution last ever show
originalsecret: null
originalformat: null
o_height: null
o_width: null
datetaken: 2011-11-30 23:14:07
dateupload: 1322714117
tags: london heaven reason revolution wilson steven pure yunus purereasonrevolution stevenwilson lastfm:event=2019955
license: 0
latitude: 51.508114
longitude: -0.124336
accuracy: 16
views: 99
interestingness: 69 out of 248

photo: 6433657395 1a70c4e68d 7027
owner: 10290887@N03
title: Jeep Grand Cherokee
originalsecret: cc3923c353
originalformat: jpg
o_height: 3199
o_width: 4798
datetaken: 2011-11-27 13:11:28
dateupload: 1322699968
tags: auto show la los jeep angeles grand autoshow cherokee 2011
license: 0
latitude: 34.040277
longitude: -118.269492
accuracy: 16
views: 9
interestingness: 70 out of 248

photo: 6433652549 27a5292282 7165
owner: 10290887@N03
title: Jeep Grand Cherokee
originalsecret: 64ef670bbe
originalformat: jpg
o_height: 3456
o_width: 5184
datetaken: 2011-11-27 13:11:17
dateupload: 1322699892
tags: auto show la los jeep angeles grand autoshow cherokee 2011
license: 0
latitude: 34.040277
longitude: -118.269492
accuracy: 16
views: 7
interestingness: 71 out of 248

photo: 6433646217 d106b9de9e 7019
owner: 53921762@N00
title: Two twig solution
originalsecret: 8d60ac6cb8
originalformat: jpg
o_height: 1756
o_width: 1376
datetaken: 2011-11-26 16:48:07
dateupload: 1322699791
tags: geotagged gate twig recycling tottenham haringey improvise londonn17 chesnutroad urbanenvironmentdepartment protheroehouse pedestrianisedroad departmentofspacetimeentropy geo:lat=5159089393130383 geo:lon=00686777401240306 ligneouslatchingdevice
license: 5
latitude: 51.590893
longitude: -0.068677
accuracy: 16
views: 11
interestingness: 72 out of 248

photo: 6433642755 38093e903a 7030
owner: 10290887@N03
title: Porsche 911 CT3 Cup
originalsecret: ea1b573574
originalformat: jpg
o_height: 3258
o_width: 4886
datetaken: 2011-11-27 13:05:58
dateupload: 1322699735
tags: auto show cup la los angeles 911 autoshow porsche 2011 ct3
license: 0
latitude: 34.040277
longitude: -118.269492
accuracy: 16
views: 10
interestingness: 73 out of 248

photo: 6433637811 41910bf377 7019
owner: 10290887@N03
title: Porsche 911 CT3 Cup
originalsecret: 90957500d2
originalformat: jpg
o_height: 3114
o_width: 4671
datetaken: 2011-11-27 13:05:42
dateupload: 1322699662
tags: auto show cup la los angeles 911 autoshow porsche 2011 ct3
license: 0
latitude: 34.040277
longitude: -118.269492
accuracy: 16
views: 10
interestingness: 74 out of 248

photo: 6433633145 c963cdf39b 7011
owner: 10290887@N03
title: Porsche 911 Carrera S
originalsecret: af9c9fb43c
originalformat: jpg
o_height: 3327
o_width: 4991
datetaken: 2011-11-27 13:04:59
dateupload: 1322699598
tags: auto show la los angeles 911 autoshow s porsche carrera 991 2011
license: 0
latitude: 34.040277
longitude: -118.269492
accuracy: 16
views: 19
interestingness: 75 out of 248

photo: 6433628723 d267c98575 7165
owner: 10290887@N03
title: Porsche 911 Carrera S
originalsecret: da8cee885a
originalformat: jpg
o_height: 2995
o_width: 4492
datetaken: 2011-11-27 13:04:49
dateupload: 1322699535
tags: auto show la los angeles 911 autoshow s porsche carrera 991 2011
license: 0
latitude: 34.040277
longitude: -118.269492
accuracy: 16
views: 33
interestingness: 76 out of 248

photo: 6433628367 eb8aeb7ca8 7003
owner: 8163337@N03
title: Long pineapple knot on clay pipe...
originalsecret: 5a9d1cc9e9
originalformat: jpg
o_height: 2681
o_width: 3226
datetaken: 2011-11-30 18:51:38
dateupload: 1322699530
tags: camping camp rescue history century trash found outdoors cord search fishing garbage war long sailing native box head hiking military south 4 union north pipe whiskey 18th knot pit smoking confederate civil backpacking clay american pineapple boating geocache multiple strike matches bourbon archeology dig turks tobacco survival 20th 17th 19th leads parachute scouting anywhere 550 borkum riff bight paracord tinder bushcraft stormdrane khwwnet
license: 0
latitude: 33.447314
longitude: -84.146781
accuracy: 15
views: 31
interestingness: 77 out of 248

photo: 6433626419 a6548d4339 7161
owner: 8163337@N03
title: Long pineapple knot on clay pipe...
originalsecret: e3c85d672e
originalformat: jpg
o_height: 2506
o_width: 2878
datetaken: 2011-11-30 19:45:31
dateupload: 1322699502
tags: camping camp rescue history century trash found outdoors cord search fishing garbage war long sailing native box head hiking military south 4 union north pipe whiskey 18th knot pit smoking confederate civil backpacking clay american pineapple boating geocache multiple strike matches bourbon archeology dig turks tobacco survival 20th 17th 19th leads parachute scouting anywhere 550 borkum riff bight paracord tinder bushcraft stormdrane khwwnet
license: 0
latitude: 33.447305
longitude: -84.14676
accuracy: 15
views: 33
interestingness: 78 out of 248

photo: 6433624755 38cda7cefd 7170
owner: 10290887@N03
title: Porsche 911 Carrera S
originalsecret: ca00a3ccee
originalformat: jpg
o_height: 3241
o_width: 4861
datetaken: 2011-11-27 13:04:35
dateupload: 1322699477
tags: auto show la los angeles 911 autoshow s porsche carrera 991 2011
license: 0
latitude: 34.040277
longitude: -118.269492
accuracy: 16
views: 35
interestingness: 79 out of 248

photo: 6433620351 56e79eec9c 7162
owner: 10290887@N03
title: Porsche 911 Carrera S
originalsecret: 262bf24604
originalformat: jpg
o_height: 2905
o_width: 4358
datetaken: 2011-11-27 13:04:16
dateupload: 1322699411
tags: auto show la los angeles 911 autoshow s porsche carrera 991 2011
license: 0
latitude: 34.040277
longitude: -118.269492
accuracy: 16
views: 21
interestingness: 80 out of 248

photo: 6433613095 38c04b79c3 7161
owner: 10290887@N03
title: Porsche Panamera GTS
originalsecret: d729e07c89
originalformat: jpg
o_height: 2804
o_width: 4206
datetaken: 2011-11-27 13:03:45
dateupload: 1322699302
tags: auto show la los angeles autoshow porsche gts 2011 panamera
license: 0
latitude: 34.040277
longitude: -118.269492
accuracy: 16
views: 13
interestingness: 81 out of 248

photo: 6433609855 26ed83f495 7146
owner: 10290887@N03
title: Porsche Panamera GTS
originalsecret: ebc5cf7101
originalformat: jpg
o_height: 3209
o_width: 4813
datetaken: 2011-11-27 13:03:36
dateupload: 1322699258
tags: auto show la los angeles autoshow porsche gts 2011 panamera
license: 0
latitude: 34.040277
longitude: -118.269492
accuracy: 16
views: 12
interestingness: 82 out of 248

photo: 6433606141 069106b5cc 7006
owner: 10290887@N03
title: Porsche Panamera GTS
originalsecret: f38b3961ee
originalformat: jpg
o_height: 3360
o_width: 5040
datetaken: 2011-11-27 13:03:19
dateupload: 1322699200
tags: auto show la los angeles autoshow porsche gts 2011 panamera
license: 0
latitude: 34.040277
longitude: -118.269492
accuracy: 16
views: 13
interestingness: 83 out of 248

photo: 6433604703 99274a2e73 7158
owner: 29936458@N05
title: Smith College 2011 Fall Mum Show
originalsecret: 52b22d62ae
originalformat: jpg
o_height: 1600
o_width: 1071
datetaken: 2011-11-19 00:00:12
dateupload: 1322699178
tags: flower color ma northampton massachusetts botanicgarden chrysanthemum smithcollege 2011 charleskellogg charlesgkellogg charliekellogg fallmumshow copyright2011
license: 1
latitude: 42.319113
longitude: -72.640056
accuracy: 14
views: 2
interestingness: 84 out of 248

photo: 6433603737 7726b97c38 7034
owner: 29936458@N05
title: Smith College 2011 Fall Mum Show
originalsecret: 617f58f973
originalformat: jpg
o_height: 1071
o_width: 1600
datetaken: 2011-11-19 00:00:10
dateupload: 1322699163
tags: flower color ma northampton massachusetts botanicgarden chrysanthemum smithcollege 2011 charleskellogg charlesgkellogg charliekellogg fallmumshow copyright2011
license: 1
latitude: 42.319113
longitude: -72.640056
accuracy: 14
views: 3
interestingness: 85 out of 248

photo: 6433603203 f7a5141bfb 7168
owner: 29936458@N05
title: Smith College 2011 Fall Mum Show
originalsecret: f3a42e7588
originalformat: jpg
o_height: 1143
o_width: 1600
datetaken: 2011-11-19 00:00:09
dateupload: 1322699154
tags: flower color ma northampton massachusetts botanicgarden chrysanthemum smithcollege 2011 charleskellogg charlesgkellogg charliekellogg fallmumshow copyright2011
license: 1
latitude: 42.319113
longitude: -72.640056
accuracy: 14
views: 3
interestingness: 86 out of 248

photo: 6433602099 4b27b71db7 7031
owner: 29936458@N05
title: Smith College 2011 Fall Mum Show
originalsecret: 051e1c1048
originalformat: jpg
o_height: 1071
o_width: 1600
datetaken: 2011-11-19 00:00:07
dateupload: 1322699138
tags: flower color ma northampton massachusetts botanicgarden chrysanthemum smithcollege 2011 charleskellogg charlesgkellogg charliekellogg fallmumshow copyright2011
license: 1
latitude: 42.319113
longitude: -72.640056
accuracy: 14
views: 3
interestingness: 87 out of 248

photo: 6433601691 2f158f5429 7143
owner: 10290887@N03
title: Porsche Panamera GTS
originalsecret: 056ee9b389
originalformat: jpg
o_height: 3177
o_width: 4766
datetaken: 2011-11-27 13:03:00
dateupload: 1322699132
tags: auto show la los angeles autoshow porsche gts 2011 panamera
license: 0
latitude: 34.040277
longitude: -118.269492
accuracy: 16
views: 11
interestingness: 88 out of 248

photo: 6433601527 59981b32bd 7012
owner: 29936458@N05
title: Smith College 2011 Fall Mum Show
originalsecret: ec06e9d9ac
originalformat: jpg
o_height: 1600
o_width: 1071
datetaken: 2011-11-19 00:00:06
dateupload: 1322699129
tags: flower color ma northampton massachusetts botanicgarden chrysanthemum smithcollege 2011 charleskellogg charlesgkellogg charliekellogg fallmumshow copyright2011
license: 1
latitude: 42.319113
longitude: -72.640056
accuracy: 14
views: 2
interestingness: 89 out of 248

photo: 6433600867 cc81a20cbe 7165
owner: 29936458@N05
title: Smith College 2011 Fall Mum Show
originalsecret: 826f7a1929
originalformat: jpg
o_height: 1558
o_width: 1500
datetaken: 2011-11-19 00:00:05
dateupload: 1322699120
tags: flower color ma northampton massachusetts botanicgarden chrysanthemum smithcollege 2011 charleskellogg charlesgkellogg charliekellogg fallmumshow copyright2011
license: 1
latitude: 42.319113
longitude: -72.640056
accuracy: 14
views: 2
interestingness: 90 out of 248

photo: 6433600319 45b48477db 7168
owner: 29936458@N05
title: Smith College 2011 Fall Mum Show
originalsecret: a4e37bbaf4
originalformat: jpg
o_height: 1071
o_width: 1600
datetaken: 2011-11-19 00:00:04
dateupload: 1322699112
tags: flower color ma northampton massachusetts botanicgarden chrysanthemum smithcollege 2011 charleskellogg charlesgkellogg charliekellogg fallmumshow copyright2011
license: 1
latitude: 42.319113
longitude: -72.640056
accuracy: 14
views: 0
interestingness: 91 out of 248

photo: 6433599697 4d25b25b28 7151
owner: 29936458@N05
title: Smith College 2011 Fall Mum Show
originalsecret: 6192f552a7
originalformat: jpg
o_height: 1600
o_width: 1071
datetaken: 2011-11-19 00:00:03
dateupload: 1322699102
tags: flower color ma northampton massachusetts botanicgarden chrysanthemum smithcollege 2011 charleskellogg charlesgkellogg charliekellogg fallmumshow copyright2011
license: 1
latitude: 42.319113
longitude: -72.640056
accuracy: 14
views: 0
interestingness: 92 out of 248

photo: 6433599057 e03b8b394a 7158
owner: 29936458@N05
title: Smith College 2011 Fall Mum Show
originalsecret: 4352d2872a
originalformat: jpg
o_height: 1600
o_width: 1071
datetaken: 2011-11-19 00:00:02
dateupload: 1322699093
tags: flower color ma northampton massachusetts botanicgarden chrysanthemum smithcollege 2011 charleskellogg charlesgkellogg charliekellogg fallmumshow copyright2011
license: 1
latitude: 42.319113
longitude: -72.640056
accuracy: 14
views: 0
interestingness: 93 out of 248

photo: 6433598409 1e76978cba 7032
owner: 29936458@N05
title: Smith College 2011 Fall Mum Show
originalsecret: 7c59b5c096
originalformat: jpg
o_height: 1071
o_width: 1600
datetaken: 2011-11-19 00:00:01
dateupload: 1322699083
tags: flower color ma northampton massachusetts botanicgarden chrysanthemum smithcollege 2011 charleskellogg charlesgkellogg charliekellogg fallmumshow copyright2011
license: 1
latitude: 42.319113
longitude: -72.640056
accuracy: 14
views: 0
interestingness: 94 out of 248

photo: 6433597359 6c22fcd6b1 7167
owner: 10290887@N03
title: Porsche Panamera GTS
originalsecret: 2683627e7c
originalformat: jpg
o_height: 2686
o_width: 4030
datetaken: 2011-11-27 13:02:54
dateupload: 1322699068
tags: auto show la los angeles autoshow porsche gts 2011 panamera
license: 0
latitude: 34.040277
longitude: -118.269492
accuracy: 16
views: 11
interestingness: 95 out of 248

photo: 6433582321 c35ba043f6 7029
owner: 10290887@N03
title: Morgan Aero 8
originalsecret: 4fb3029938
originalformat: jpg
o_height: 3070
o_width: 4604
datetaken: 2011-11-27 12:56:47
dateupload: 1322698852
tags: auto show la los angeles 8 autoshow morgan aero 2011
license: 0
latitude: 34.040277
longitude: -118.269492
accuracy: 16
views: 5
interestingness: 96 out of 248

photo: 6433577115 0f62c8dedc 7015
owner: 10290887@N03
title: Morgan Aero 8
originalsecret: b49020fb00
originalformat: jpg
o_height: 3315
o_width: 4973
datetaken: 2011-11-27 12:56:35
dateupload: 1322698772
tags: auto show la los angeles 8 autoshow morgan aero 2011
license: 0
latitude: 34.040277
longitude: -118.269492
accuracy: 16
views: 8
interestingness: 97 out of 248

photo: 6433569837 552699ee59 7158
owner: 10290887@N03
title: Morgan Aero 8
originalsecret: fa646897aa
originalformat: jpg
o_height: 3394
o_width: 5092
datetaken: 2011-11-27 12:56:19
dateupload: 1322698660
tags: auto show la los angeles 8 autoshow morgan aero 2011
license: 0
latitude: 34.040277
longitude: -118.269492
accuracy: 16
views: 7
interestingness: 98 out of 248

photo: 6433563495 eca3d8f260 7150
owner: 10290887@N03
title: Morgan Plus 8
originalsecret: e0fff77643
originalformat: jpg
o_height: 3227
o_width: 4840
datetaken: 2011-11-27 12:56:06
dateupload: 1322698561
tags: auto show la los angeles 8 autoshow plus morgan 2011
license: 0
latitude: 34.040277
longitude: -118.269492
accuracy: 16
views: 5
interestingness: 99 out of 248

photo: 6433558747 c5528d8ed8 7007
owner: 10290887@N03
title: Morgan Aero 8
originalsecret: 6ab14aa8bb
originalformat: jpg
o_height: 3246
o_width: 4870
datetaken: 2011-11-27 12:55:58
dateupload: 1322698477
tags: auto show la los angeles 8 autoshow morgan aero 2011
license: 0
latitude: 34.040277
longitude: -118.269492
accuracy: 16
views: 6
interestingness: 100 out of 248

photo: 6433552863 f80e49d009 7147
owner: 10290887@N03
title: Morgan Plus 8
originalsecret: 8c4d9d3520
originalformat: jpg
o_height: 3341
o_width: 5011
datetaken: 2011-11-27 12:55:52
dateupload: 1322698377
tags: auto show la los angeles 8 autoshow plus morgan 2011
license: 0
latitude: 34.040277
longitude: -118.269492
accuracy: 16
views: 4
interestingness: 101 out of 248

photo: 6433515809 46d23a577a 7015
owner: 7405828@N02
title: Frey Serra #2
originalsecret: d163761bb2
originalformat: jpg
o_height: 1919
o_width: 1279
datetaken: 2011-11-30 11:01:30
dateupload: 1322697769
tags: california statue losangeles other sangabriel mission juniperoserra serra californiamission frserra sangabrielarchangel canon40d missionsangabrielarchangel freyserra
license: 0
latitude: 34.097128
longitude: -118.106739
accuracy: 15
views: 8
interestingness: 102 out of 248

photo: 6433707349 282d601579 7174
owner: 22224184@N00
title: The Girls' Turn
originalsecret: d3753b9c2e
originalformat: jpg
o_height: 2304
o_width: 3072
datetaken: 2011-11-04 12:06:37
dateupload: 1322700684
tags: orlando florida harrypotter universalstudios hogwarts islandsofadventure
license: 0
latitude: 28.47318
longitude: -81.47278
accuracy: 16
views: 3
interestingness: 103 out of 248

photo: 6433689149 461691333c 7032
owner: 10290887@N03
title: Dodge Ram
originalsecret: 9652202bde
originalformat: jpg
o_height: 3103
o_width: 4655
datetaken: 2011-11-27 13:15:42
dateupload: 1322700422
tags: auto show la los angeles autoshow dodge ram 2011
license: 0
latitude: 34.040277
longitude: -118.269492
accuracy: 16
views: 17
interestingness: 104 out of 248

photo: 6433646935 d131cdcf0d 7006
owner: 10290887@N03
title: Nissan GTR
originalsecret: fcbef79fd7
originalformat: jpg
o_height: 3112
o_width: 4668
datetaken: 2011-11-27 13:09:59
dateupload: 1322699805
tags: auto show la los nissan angeles autoshow gtr 2011
license: 0
latitude: 34.040277
longitude: -118.269492
accuracy: 16
views: 13
interestingness: 105 out of 248

photo: 6433594449 2754557d67 7018
owner: 10290887@N03
title: Morgan 3Wheeler
originalsecret: 0be72d6c4e
originalformat: jpg
o_height: 3118
o_width: 4677
datetaken: 2011-11-27 12:57:21
dateupload: 1322699026
tags: auto show la los angeles autoshow morgan 3wheeler 2011
license: 0
latitude: 34.040277
longitude: -118.269492
accuracy: 16
views: 6
interestingness: 106 out of 248

photo: 6433588219 10ff7562b9 7167
owner: 10290887@N03
title: Morgan 3Wheeler
originalsecret: 64781f4a85
originalformat: jpg
o_height: 3140
o_width: 4710
datetaken: 2011-11-27 12:57:00
dateupload: 1322698940
tags: auto show la los angeles autoshow morgan 3wheeler 2011
license: 0
latitude: 34.040277
longitude: -118.269492
accuracy: 16
views: 5
interestingness: 107 out of 248

photo: 6433547431 fd3d6f203c 7020
owner: 10290887@N03
title: DOK-ING XD
originalsecret: 607d7c8d03
originalformat: jpg
o_height: 3061
o_width: 4591
datetaken: 2011-11-27 12:55:35
dateupload: 1322698285
tags: auto show la los angeles autoshow xd 2011 doking
license: 0
latitude: 34.040277
longitude: -118.269492
accuracy: 16
views: 4
interestingness: 108 out of 248

photo: 6433542697 b16f278632 7011
owner: 10290887@N03
title: DOK-ING XD
originalsecret: e125f70c34
originalformat: jpg
o_height: 3152
o_width: 4728
datetaken: 2011-11-27 12:55:14
dateupload: 1322698206
tags: auto show la los angeles autoshow xd 2011 doking
license: 0
latitude: 34.040277
longitude: -118.269492
accuracy: 16
views: 4
interestingness: 109 out of 248

photo: 6433535203 ded5103581 7154
owner: 10290887@N03
title: DOK-ING XD
originalsecret: 78c121596f
originalformat: jpg
o_height: 3096
o_width: 4644
datetaken: 2011-11-27 12:54:14
dateupload: 1322698083
tags: auto show la los angeles autoshow xd 2011 doking
license: 0
latitude: 34.040277
longitude: -118.269492
accuracy: 16
views: 7
interestingness: 110 out of 248

photo: 6433531109 6335330440 7006
owner: 10290887@N03
title: Mastretta MXT
originalsecret: b25c32428b
originalformat: jpg
o_height: 2580
o_width: 3869
datetaken: 2011-11-27 12:54:07
dateupload: 1322698017
tags: auto show la los angeles autoshow mastretta 2011 mxt
license: 0
latitude: 34.040277
longitude: -118.269492
accuracy: 16
views: 9
interestingness: 111 out of 248

photo: 6433527585 f44f3246c6 7035
owner: 10290887@N03
title: Mastretta MXT
originalsecret: 18faa70fb3
originalformat: jpg
o_height: 3456
o_width: 5184
datetaken: 2011-11-27 12:53:57
dateupload: 1322697960
tags: auto show la los angeles autoshow mastretta 2011 mxt
license: 0
latitude: 34.040277
longitude: -118.269492
accuracy: 16
views: 9
interestingness: 112 out of 248

photo: 6433522253 92fdb09962 7014
owner: 10290887@N03
title: Mastretta MXT
originalsecret: 6a50fdae70
originalformat: jpg
o_height: 3456
o_width: 5184
datetaken: 2011-11-27 12:53:56
dateupload: 1322697873
tags: auto show la los angeles autoshow mastretta 2011 mxt
license: 0
latitude: 34.040277
longitude: -118.269492
accuracy: 16
views: 12
interestingness: 113 out of 248

photo: 6433516867 8b2f838a1f 7021
owner: 10290887@N03
title: Mastretta MXT
originalsecret: 37eabbe62d
originalformat: jpg
o_height: 3005
o_width: 4507
datetaken: 2011-11-27 12:53:29
dateupload: 1322697786
tags: auto show la los angeles autoshow mastretta 2011 mxt
license: 0
latitude: 34.040277
longitude: -118.269492
accuracy: 16
views: 10
interestingness: 114 out of 248

photo: 6433512713 3bd7706cf1 7022
owner: 10290887@N03
title: Mastretta MXT
originalsecret: 41c5114227
originalformat: jpg
o_height: 3456
o_width: 5184
datetaken: 2011-11-27 12:53:15
dateupload: 1322697718
tags: auto show la los angeles autoshow mastretta 2011 mxt
license: 0
latitude: 34.040277
longitude: -118.269492
accuracy: 16
views: 8
interestingness: 115 out of 248

photo: 6434588953 07e6660255 7162
owner: 49832046@N05
title: IMG_8246rx
originalsecret: d708e387e3
originalformat: jpg
o_height: 1440
o_width: 2048
datetaken: 2011-11-23 12:08:16
dateupload: 1322713685
tags: autoshow laautoshow laautoshow2011
license: 0
latitude: 34.043106
longitude: -118.269478
accuracy: 15
views: 19
interestingness: 116 out of 248

photo: 6433739041 5a775e9e9c 7005
owner: 72098626@N00
title: Central Park Dance Skaters, Oct 2011 - 14
originalsecret: 540197190c
originalformat: jpg
o_height: 4431
o_width: 2795
datetaken: 2011-10-23 15:25:40
dateupload: 1322701181
tags: newyork sunglasses dancers centralpark manhattan skate centralparkdanceskaters danceskaters
license: 1
latitude: 40.773277
longitude: -73.971356
accuracy: 16
views: 18
interestingness: 117 out of 248

photo: 6433730873 42f97a7698 7006
owner: 72098626@N00
title: Central Park Dance Skaters, Oct 2011 - 12
originalsecret: 3951b8671f
originalformat: jpg
o_height: 4928
o_width: 3264
datetaken: 2011-10-23 15:22:43
dateupload: 1322701055
tags: newyork dancers centralpark manhattan helmet skate centralparkdanceskaters danceskaters
license: 1
latitude: 40.773277
longitude: -73.971356
accuracy: 16
views: 26
interestingness: 118 out of 248

photo: 6434629427 7a80608ea1 7161
owner: 20846555@N00
title: Se?orita Nellie and Mamacita killing time before the show.
originalsecret: null
originalformat: null
o_height: null
o_width: null
datetaken: 2011-11-30 20:37:58
dateupload: 1322714278
tags: square squareformat hefe iphoneography instagramapp uploaded:by=instagram foursquare:venue=4c51cb5494790f4784aba7a1
license: 0
latitude: 47.608041
longitude: -122.339013
accuracy: 16
views: 2
interestingness: 119 out of 248

photo: 6434504149 3278ed66f7 7163
owner: 85287188@N00
title: Bytemarks Show today!
originalsecret: a57ecc9f78
originalformat: jpg
o_height: 612
o_width: 612
datetaken: 2011-11-30 18:07:21
dateupload: 1322712441
tags: square squareformat normal iphoneography instagramapp uploaded:by=instagram foursquare:venue=4af22edbf964a5206ae621e3
license: 0
latitude: 21.293123
longitude: -157.839305
accuracy: 16
views: 8
interestingness: 120 out of 248

photo: 6434285381 0ecb0faef6 7002
owner: 24414018@N05
title: Homemade shampoo
originalsecret: abd1dc9a0f
originalformat: jpg
o_height: 1728
o_width: 2304
datetaken: 2011-07-18 03:05:36
dateupload: 1322709246
tags: belize homestays stanncreekdistrict mayacentre
license: 0
latitude: 16.868619
longitude: -88.378143
accuracy: 10
views: 4
interestingness: 121 out of 248

photo: 6433788071 097c8f9933 7017
owner: 56098825@N00
title: 
originalsecret: 8962049be4
originalformat: jpg
o_height: 2564
o_width: 3846
datetaken: 2010-07-18 11:47:23
dateupload: 1322701910
tags: ratrod dragraces mooneyes irwindalespeedway summershow mooneyescarshow
license: 3
latitude: 34.109033
longitude: -117.984012
accuracy: 15
views: 223
interestingness: 122 out of 248

photo: 6433746267 f70c548c7a 7026
owner: 72098626@N00
title: Central Park Dance Skaters, Oct 2011 - 16
originalsecret: 0f6f3df13d
originalformat: jpg
o_height: 2711
o_width: 4067
datetaken: 2011-10-23 15:27:50
dateupload: 1322701287
tags: newyork dancers centralpark manhattan skate centralparkdanceskaters danceskaters
license: 1
latitude: 40.773277
longitude: -73.971356
accuracy: 16
views: 27
interestingness: 123 out of 248

photo: 6433657063 4ef96d7241 7007
owner: 69525722@N05
title: pure reason revolution - heaven, london, uk
originalsecret: null
originalformat: null
o_height: null
o_width: null
datetaken: 2011-11-30 22:28:17
dateupload: 1322714116
tags: london heaven reason revolution pure purereasonrevolution lastfm:event=2019955
license: 0
latitude: 51.508058
longitude: -0.12439
accuracy: 16
views: 40
interestingness: 124 out of 248

photo: 6433656829 1ff3fc0883 7141
owner: 69525722@N05
title: pure reason revolution - heaven, london, uk
originalsecret: null
originalformat: null
o_height: null
o_width: null
datetaken: 2011-11-30 22:05:16
dateupload: 1322714115
tags: london heaven reason revolution pure purereasonrevolution lastfm:event=2019955
license: 0
latitude: 51.508047
longitude: -0.124368
accuracy: 16
views: 40
interestingness: 125 out of 248

photo: 6433656667 a6151585a4 7022
owner: 69525722@N05
title: pure reason revolution - heaven, london, uk
originalsecret: null
originalformat: null
o_height: null
o_width: null
datetaken: 2011-11-30 22:04:21
dateupload: 1322714115
tags: london heaven reason revolution pure purereasonrevolution lastfm:event=2019955
license: 0
latitude: 51.508124
longitude: -0.124497
accuracy: 16
views: 33
interestingness: 126 out of 248

photo: 6433656339 e432b6bfc2 7152
owner: 69525722@N05
title: pure reason revolution - heaven, london, uk
originalsecret: null
originalformat: null
o_height: null
o_width: null
datetaken: 2011-11-30 21:09:54
dateupload: 1322712594
tags: london heaven reason revolution pure purereasonrevolution lastfm:event=2019955
license: 0
latitude: 51.508061
longitude: -0.124454
accuracy: 16
views: 41
interestingness: 127 out of 248

photo: 6434589067 c9ca5767dc 7149
owner: 49832046@N05
title: IMG_8418rx
originalsecret: b2e4a9836e
originalformat: jpg
o_height: 1439
o_width: 2048
datetaken: 2011-11-23 12:47:44
dateupload: 1322713687
tags: autoshow laautoshow laautoshow2011
license: 0
latitude: 34.043106
longitude: -118.269478
accuracy: 15
views: 19
interestingness: 128 out of 248

photo: 6434548509 215d91b84b 7144
owner: 65568471@N00
title: thanks @postalpix ! my art show will be a success! Stop by on Friday everyone.
originalsecret: null
originalformat: null
o_height: null
o_width: null
datetaken: 2011-11-30 20:18:22
dateupload: 1322713102
tags: square squareformat lomofi iphoneography instagramapp uploaded:by=instagram
license: 0
latitude: 37.83484
longitude: -122.2632
accuracy: 16
views: 4
interestingness: 129 out of 248

photo: 6434680909 1034a5cf94 7151
owner: 25112341@N06
title: Indian Fashion Show
originalsecret: null
originalformat: null
o_height: null
o_width: null
datetaken: 2011-11-26 23:37:18
dateupload: 1322715077
tags: fashion runway indianfashionshow modeols
license: 0
latitude: 43.702947
longitude: -79.638433
accuracy: 16
views: 17
interestingness: 130 out of 248

photo: 6434678301 651dda2c26 7158
owner: 25112341@N06
title: Indian Fashion Show
originalsecret: null
originalformat: null
o_height: null
o_width: null
datetaken: 2011-11-26 22:14:03
dateupload: 1322715033
tags: fashion runway indianfashionshow modeols
license: 0
latitude: 43.702947
longitude: -79.638433
accuracy: 16
views: 10
interestingness: 131 out of 248

photo: 6434675809 f02b7c824f 7145
owner: 25112341@N06
title: Indian Fashion Show
originalsecret: null
originalformat: null
o_height: null
o_width: null
datetaken: 2011-11-26 22:03:00
dateupload: 1322714994
tags: fashion runway indianfashionshow modeols
license: 0
latitude: 43.702947
longitude: -79.638433
accuracy: 16
views: 17
interestingness: 132 out of 248

photo: 6434671259 36f593e9c4 7151
owner: 25112341@N06
title: Indian Fashion Show
originalsecret: null
originalformat: null
o_height: null
o_width: null
datetaken: 2011-11-26 21:36:17
dateupload: 1322714922
tags: fashion runway indianfashionshow modeols
license: 0
latitude: 43.702947
longitude: -79.638433
accuracy: 16
views: 11
interestingness: 133 out of 248

photo: 6434276977 ab4abd2c2b 7010
owner: 24414018@N05
title: Emilia picking fruit
originalsecret: 59d1bb5a25
originalformat: jpg
o_height: 1728
o_width: 2304
datetaken: 2011-07-17 03:41:10
dateupload: 1322709121
tags: belize homestays stanncreekdistrict mayacentre
license: 0
latitude: 16.868619
longitude: -88.378143
accuracy: 10
views: 2
interestingness: 134 out of 248

photo: 6433964807 53bd37876b 7145
owner: 46263194@N00
title: Loved the Mark Giglio show
originalsecret: null
originalformat: null
o_height: null
o_width: null
datetaken: 2011-11-30 20:55:33
dateupload: 1322704533
tags: uploaded:by=flicksquare foursquare:venue=483c33f9f964a52017501fe3 geo:lat=377591969104425 geo:lon=122421383857727
license: 0
latitude: 37.759196
longitude: -122.421383
accuracy: 16
views: 1
interestingness: 135 out of 248

photo: 6433920729 6a751e03ae 7167
owner: 76168533@N00
title: IMAG0274.jpg
originalsecret: 70f59f5ed7
originalformat: jpg
o_height: 1456
o_width: 2592
datetaken: 2011-09-24 12:57:49
dateupload: 1322703879
tags: auto shows avon 2011
license: 0
latitude: 39.759905
longitude: -86.428973
accuracy: 16
views: 2
interestingness: 136 out of 248

photo: 6433920405 3d3d591425 7141
owner: 76168533@N00
title: IMAG0273.jpg
originalsecret: 91689fc093
originalformat: jpg
o_height: 1456
o_width: 2592
datetaken: 2011-09-24 12:57:28
dateupload: 1322703874
tags: auto shows avon 2011
license: 0
latitude: 39.759941
longitude: -86.428984
accuracy: 16
views: 0
interestingness: 137 out of 248

photo: 6433919967 dcdde9c5b2 7035
owner: 76168533@N00
title: IMAG0272.jpg
originalsecret: 242ee1ceab
originalformat: jpg
o_height: 1456
o_width: 2592
datetaken: 2011-09-24 12:57:02
dateupload: 1322703867
tags: auto shows avon 2011
license: 0
latitude: 39.759966
longitude: -86.428978
accuracy: 16
views: 2
interestingness: 138 out of 248

photo: 6433919579 f2607f70d5 7165
owner: 76168533@N00
title: IMAG0271.jpg
originalsecret: 97be960cde
originalformat: jpg
o_height: 1456
o_width: 2592
datetaken: 2011-09-24 12:56:38
dateupload: 1322703861
tags: auto shows avon 2011
license: 0
latitude: 39.759972
longitude: -86.428978
accuracy: 16
views: 2
interestingness: 139 out of 248

photo: 6433918901 980d25af7c 7009
owner: 76168533@N00
title: IMAG0270.jpg
originalsecret: 8f8aa7175d
originalformat: jpg
o_height: 1456
o_width: 2592
datetaken: 2011-09-24 12:56:21
dateupload: 1322703850
tags: auto shows avon 2011
license: 0
latitude: 39.759986
longitude: -86.428962
accuracy: 16
views: 0
interestingness: 140 out of 248

photo: 6433918583 947be23364 7025
owner: 76168533@N00
title: IMAG0269.jpg
originalsecret: e333133b7f
originalformat: jpg
o_height: 2592
o_width: 1456
datetaken: 2011-09-24 12:56:13
dateupload: 1322703844
tags: auto shows avon 2011
license: 0
latitude: 39.759994
longitude: -86.428973
accuracy: 16
views: 0
interestingness: 141 out of 248

photo: 6433918041 b93ab2a6b3 7174
owner: 76168533@N00
title: IMAG0268.jpg
originalsecret: f3bbd8dfe0
originalformat: jpg
o_height: 1456
o_width: 2592
datetaken: 2011-09-24 12:55:54
dateupload: 1322703836
tags: auto shows avon 2011
license: 0
latitude: 39.760063
longitude: -86.429012
accuracy: 16
views: 0
interestingness: 142 out of 248

photo: 6433917655 cd8223486a 7165
owner: 76168533@N00
title: IMAG0267.jpg
originalsecret: d9240d2571
originalformat: jpg
o_height: 1456
o_width: 2592
datetaken: 2011-09-24 12:55:44
dateupload: 1322703830
tags: auto shows avon 2011
license: 0
latitude: 39.760063
longitude: -86.429017
accuracy: 16
views: 0
interestingness: 143 out of 248

photo: 6433917283 a1f921a7b0 7147
owner: 76168533@N00
title: IMAG0266.jpg
originalsecret: 075a778e7f
originalformat: jpg
o_height: 1456
o_width: 2592
datetaken: 2011-09-24 12:55:35
dateupload: 1322703824
tags: auto shows avon 2011
license: 0
latitude: 39.760075
longitude: -86.429023
accuracy: 16
views: 0
interestingness: 144 out of 248

photo: 6433916875 39167472cf 7161
owner: 76168533@N00
title: IMAG0265.jpg
originalsecret: 89823bdd81
originalformat: jpg
o_height: 1456
o_width: 2592
datetaken: 2011-09-24 12:55:26
dateupload: 1322703818
tags: auto shows avon 2011
license: 0
latitude: 39.760108
longitude: -86.429039
accuracy: 16
views: 2
interestingness: 145 out of 248

photo: 6433916465 d22e38de87 7152
owner: 76168533@N00
title: IMAG0264.jpg
originalsecret: 4688155551
originalformat: jpg
o_height: 1456
o_width: 2592
datetaken: 2011-09-24 12:54:58
dateupload: 1322703812
tags: auto shows avon 2011
license: 0
latitude: 39.7601
longitude: -86.429034
accuracy: 16
views: 0
interestingness: 146 out of 248

photo: 6433916069 b1afe8eb38 7161
owner: 76168533@N00
title: IMAG0263.jpg
originalsecret: 2528900255
originalformat: jpg
o_height: 1456
o_width: 2592
datetaken: 2011-09-24 12:54:46
dateupload: 1322703805
tags: auto shows avon 2011
license: 0
latitude: 39.760177
longitude: -86.429023
accuracy: 16
views: 0
interestingness: 147 out of 248

photo: 6433915611 3af83a266c 7035
owner: 76168533@N00
title: IMAG0262.jpg
originalsecret: d61b6c1078
originalformat: jpg
o_height: 1456
o_width: 2592
datetaken: 2011-09-24 12:54:30
dateupload: 1322703798
tags: auto shows avon 2011
license: 0
latitude: 39.760175
longitude: -86.429023
accuracy: 16
views: 0
interestingness: 148 out of 248

photo: 6433915053 ab806a4fa5 7151
owner: 76168533@N00
title: IMAG0261.jpg
originalsecret: 64a268dd4b
originalformat: jpg
o_height: 1456
o_width: 2592
datetaken: 2011-09-24 12:54:24
dateupload: 1322703789
tags: auto shows avon 2011
license: 0
latitude: 39.760161
longitude: -86.429012
accuracy: 16
views: 0
interestingness: 149 out of 248

photo: 6433914783 d44f77e390 7157
owner: 76168533@N00
title: IMAG0260.jpg
originalsecret: 9b6b97cda1
originalformat: jpg
o_height: 1456
o_width: 2592
datetaken: 2011-09-24 12:54:04
dateupload: 1322703784
tags: auto shows avon 2011
license: 0
latitude: 39.760125
longitude: -86.428923
accuracy: 16
views: 0
interestingness: 150 out of 248

photo: 6433914411 31fe977868 7146
owner: 76168533@N00
title: IMAG0259.jpg
originalsecret: 4fbd5b5bb8
originalformat: jpg
o_height: 1456
o_width: 2592
datetaken: 2011-09-24 12:53:45
dateupload: 1322703778
tags: auto shows avon 2011
license: 0
latitude: 39.760077
longitude: -86.428895
accuracy: 16
views: 0
interestingness: 151 out of 248

photo: 6433913913 7f691b9189 7028
owner: 76168533@N00
title: IMAG0258.jpg
originalsecret: 113aa31b80
originalformat: jpg
o_height: 1456
o_width: 2592
datetaken: 2011-09-24 12:53:37
dateupload: 1322703770
tags: auto shows avon 2011
license: 0
latitude: 39.760027
longitude: -86.4289
accuracy: 16
views: 2
interestingness: 152 out of 248

photo: 6433913371 f669d0862b 7175
owner: 76168533@N00
title: IMAG0257.jpg
originalsecret: ea0c71c7bc
originalformat: jpg
o_height: 1456
o_width: 2592
datetaken: 2011-09-24 12:53:26
dateupload: 1322703762
tags: auto shows avon 2011
license: 0
latitude: 39.760025
longitude: -86.4289
accuracy: 16
views: 2
interestingness: 153 out of 248

photo: 6433912899 628bd17b58 7144
owner: 76168533@N00
title: IMAG0256.jpg
originalsecret: c3157e94ef
originalformat: jpg
o_height: 1456
o_width: 2592
datetaken: 2011-09-24 12:53:17
dateupload: 1322703755
tags: auto shows avon 2011
license: 0
latitude: 39.760011
longitude: -86.4289
accuracy: 16
views: 2
interestingness: 154 out of 248

photo: 6433912565 0697a6f2c3 7003
owner: 76168533@N00
title: IMAG0255.jpg
originalsecret: 67ff618cf5
originalformat: jpg
o_height: 1456
o_width: 2592
datetaken: 2011-09-24 12:53:05
dateupload: 1322703749
tags: auto shows avon 2011
license: 0
latitude: 39.760011
longitude: -86.4289
accuracy: 16
views: 2
interestingness: 155 out of 248

photo: 6433912201 8e207e7daa 7004
owner: 76168533@N00
title: IMAG0254.jpg
originalsecret: 3e0a541178
originalformat: jpg
o_height: 1456
o_width: 2592
datetaken: 2011-09-24 12:52:45
dateupload: 1322703742
tags: auto shows avon 2011
license: 0
latitude: 39.759963
longitude: -86.4289
accuracy: 16
views: 2
interestingness: 156 out of 248

photo: 6433911541 2b310df5e8 7011
owner: 76168533@N00
title: IMAG0253.jpg
originalsecret: 73a827086b
originalformat: jpg
o_height: 1456
o_width: 2592
datetaken: 2011-09-24 12:52:36
dateupload: 1322703729
tags: auto shows avon 2011
license: 0
latitude: 39.759944
longitude: -86.428889
accuracy: 16
views: 0
interestingness: 157 out of 248

photo: 6433911181 cdb4817d6b 7017
owner: 76168533@N00
title: IMAG0252.jpg
originalsecret: c57c1fe1f0
originalformat: jpg
o_height: 1456
o_width: 2592
datetaken: 2011-09-24 12:52:28
dateupload: 1322703723
tags: auto shows avon 2011
license: 0
latitude: 39.75993
longitude: -86.428878
accuracy: 16
views: 2
interestingness: 158 out of 248

photo: 6433910815 ebf827370b 7021
owner: 76168533@N00
title: IMAG0251.jpg
originalsecret: ff4de8c869
originalformat: jpg
o_height: 1456
o_width: 2592
datetaken: 2011-09-24 12:52:18
dateupload: 1322703717
tags: auto shows avon 2011
license: 0
latitude: 39.759933
longitude: -86.428889
accuracy: 16
views: 1
interestingness: 159 out of 248

photo: 6433910333 e194132bca 7152
owner: 76168533@N00
title: IMAG0250.jpg
originalsecret: 59b58db34a
originalformat: jpg
o_height: 1456
o_width: 2592
datetaken: 2011-09-24 12:52:02
dateupload: 1322703710
tags: auto shows avon 2011
license: 0
latitude: 39.759869
longitude: -86.428878
accuracy: 16
views: 1
interestingness: 160 out of 248

photo: 6433909933 aac6a253ff 7144
owner: 76168533@N00
title: IMAG0249.jpg
originalsecret: 0610df0c30
originalformat: jpg
o_height: 1456
o_width: 2592
datetaken: 2011-09-24 12:51:51
dateupload: 1322703703
tags: auto shows avon 2011
license: 0
latitude: 39.759863
longitude: -86.428889
accuracy: 16
views: 0
interestingness: 161 out of 248

photo: 6433909567 cc56d9cb8f 7173
owner: 76168533@N00
title: IMAG0248.jpg
originalsecret: 7e70716f2a
originalformat: jpg
o_height: 1456
o_width: 2592
datetaken: 2011-09-24 12:51:21
dateupload: 1322703697
tags: auto shows avon 2011
license: 0
latitude: 39.759841
longitude: -86.428862
accuracy: 16
views: 0
interestingness: 162 out of 248

photo: 6433909331 f81742afe9 7027
owner: 76168533@N00
title: IMAG0247.jpg
originalsecret: 8297f053b4
originalformat: jpg
o_height: 1456
o_width: 2592
datetaken: 2011-09-24 12:50:56
dateupload: 1322703693
tags: auto shows avon 2011
license: 0
latitude: 39.759838
longitude: -86.428862
accuracy: 16
views: 2
interestingness: 163 out of 248

photo: 6433908959 4495be4b4b 7025
owner: 76168533@N00
title: IMAG0246.jpg
originalsecret: 19e0a2709f
originalformat: jpg
o_height: 1456
o_width: 2592
datetaken: 2011-09-24 12:50:49
dateupload: 1322703687
tags: auto shows avon 2011
license: 0
latitude: 39.759833
longitude: -86.428873
accuracy: 16
views: 2
interestingness: 164 out of 248

photo: 6433908621 c303abe4ce 7017
owner: 76168533@N00
title: IMAG0245.jpg
originalsecret: 775eed03a2
originalformat: jpg
o_height: 2592
o_width: 1456
datetaken: 2011-09-24 12:50:12
dateupload: 1322703682
tags: auto shows avon 2011
license: 0
latitude: 39.759822
longitude: -86.428923
accuracy: 16
views: 2
interestingness: 165 out of 248

photo: 6433908307 2b37b18f9e 7028
owner: 76168533@N00
title: IMAG0244.jpg
originalsecret: d134e7a6db
originalformat: jpg
o_height: 1456
o_width: 2592
datetaken: 2011-09-24 12:49:45
dateupload: 1322703677
tags: auto shows avon 2011
license: 0
latitude: 39.759883
longitude: -86.427789
accuracy: 16
views: 1
interestingness: 166 out of 248

photo: 6433907035 0ca825b14f 7161
owner: 76168533@N00
title: IMAG0142.jpg
originalsecret: 8c409cd2d8
originalformat: jpg
o_height: 1456
o_width: 2592
datetaken: 2011-08-21 14:21:30
dateupload: 1322703657
tags: auto shows avon 2011
license: 0
latitude: 39.763563
longitude: -86.406578
accuracy: 16
views: 0
interestingness: 167 out of 248

photo: 6433906607 ba8959b8d9 7005
owner: 76168533@N00
title: IMAG0141.jpg
originalsecret: 3b2d4c0b02
originalformat: jpg
o_height: 1456
o_width: 2592
datetaken: 2011-08-21 14:21:08
dateupload: 1322703650
tags: auto shows avon 2011
license: 0
latitude: 39.763561
longitude: -86.406573
accuracy: 16
views: 2
interestingness: 168 out of 248

photo: 6433905993 789868cefe 7021
owner: 76168533@N00
title: IMAG0140.jpg
originalsecret: 3573c89ea8
originalformat: jpg
o_height: 1456
o_width: 2592
datetaken: 2011-08-21 14:19:34
dateupload: 1322703641
tags: auto shows avon 2011
license: 0
latitude: 39.763558
longitude: -86.406378
accuracy: 16
views: 2
interestingness: 169 out of 248

photo: 6433905607 6f71ed7274 7175
owner: 76168533@N00
title: IMAG0138.jpg
originalsecret: 45a5809740
originalformat: jpg
o_height: 1456
o_width: 2592
datetaken: 2011-08-21 14:18:47
dateupload: 1322703635
tags: auto shows avon 2011
license: 0
latitude: 39.763577
longitude: -86.406428
accuracy: 16
views: 0
interestingness: 170 out of 248

photo: 6433905285 aeba669a6a 7033
owner: 76168533@N00
title: IMAG0137.jpg
originalsecret: 902e93c48e
originalformat: jpg
o_height: 1456
o_width: 2592
datetaken: 2011-08-21 14:18:25
dateupload: 1322703630
tags: auto shows avon 2011
license: 0
latitude: 39.76358
longitude: -86.406434
accuracy: 16
views: 1
interestingness: 171 out of 248

photo: 6433904763 4ab7a6e53b 7143
owner: 76168533@N00
title: IMAG0136.jpg
originalsecret: 5f23798e42
originalformat: jpg
o_height: 1456
o_width: 2592
datetaken: 2011-08-21 14:17:58
dateupload: 1322703623
tags: auto shows avon 2011
license: 0
latitude: 39.763611
longitude: -86.406617
accuracy: 16
views: 1
interestingness: 172 out of 248

photo: 6433903973 273bccdf30 7165
owner: 76168533@N00
title: IMAG0135.jpg
originalsecret: 7728cbf501
originalformat: jpg
o_height: 1456
o_width: 2592
datetaken: 2011-08-21 14:17:47
dateupload: 1322703610
tags: auto shows avon 2011
license: 0
latitude: 39.763608
longitude: -86.406617
accuracy: 16
views: 2
interestingness: 173 out of 248

photo: 6433903613 81b2ce70c9 7161
owner: 76168533@N00
title: IMAG0134.jpg
originalsecret: b4bd7e3616
originalformat: jpg
o_height: 1456
o_width: 2592
datetaken: 2011-08-21 14:17:23
dateupload: 1322703605
tags: auto shows avon 2011
license: 0
latitude: 39.763611
longitude: -86.406562
accuracy: 16
views: 1
interestingness: 174 out of 248

photo: 6433903343 ff91bff7c9 7002
owner: 76168533@N00
title: IMAG0133.jpg
originalsecret: ef167688c3
originalformat: jpg
o_height: 1456
o_width: 2592
datetaken: 2011-08-21 14:17:02
dateupload: 1322703600
tags: auto shows avon 2011
license: 0
latitude: 39.763594
longitude: -86.406573
accuracy: 16
views: 2
interestingness: 175 out of 248

photo: 6433902979 13d639f5eb 7148
owner: 76168533@N00
title: IMAG0132.jpg
originalsecret: 2d4e90af92
originalformat: jpg
o_height: 1456
o_width: 2592
datetaken: 2011-08-21 14:16:23
dateupload: 1322703595
tags: auto shows avon 2011
license: 0
latitude: 39.763741
longitude: -86.406501
accuracy: 16
views: 0
interestingness: 176 out of 248

photo: 6433902435 6c632b5f8e 7164
owner: 76168533@N00
title: IMAG0131.jpg
originalsecret: 59ef7532cb
originalformat: jpg
o_height: 1456
o_width: 2592
datetaken: 2011-08-21 14:16:01
dateupload: 1322703587
tags: auto shows avon 2011
license: 0
latitude: 39.763744
longitude: -86.406501
accuracy: 16
views: 0
interestingness: 177 out of 248

photo: 6433902035 885c314956 7011
owner: 76168533@N00
title: IMAG0130.jpg
originalsecret: b6f8ef5708
originalformat: jpg
o_height: 1456
o_width: 2592
datetaken: 2011-08-21 14:15:44
dateupload: 1322703580
tags: auto shows avon 2011
license: 0
latitude: 39.763758
longitude: -86.406501
accuracy: 16
views: 0
interestingness: 178 out of 248

photo: 6433901581 37dd363f3c 7029
owner: 76168533@N00
title: IMAG0129.jpg
originalsecret: ff026bc474
originalformat: jpg
o_height: 1456
o_width: 2592
datetaken: 2011-08-21 14:14:38
dateupload: 1322703573
tags: auto shows avon 2011
license: 0
latitude: 39.763905
longitude: -86.406784
accuracy: 16
views: 0
interestingness: 179 out of 248

photo: 6433901169 67a6c52bc5 7170
owner: 76168533@N00
title: IMAG0128.jpg
originalsecret: 3e59ebdd89
originalformat: jpg
o_height: 1456
o_width: 2592
datetaken: 2011-08-21 14:13:52
dateupload: 1322703568
tags: auto shows avon 2011
license: 0
latitude: 39.763886
longitude: -86.406823
accuracy: 16
views: 0
interestingness: 180 out of 248

photo: 6433900571 8f16728d46 7029
owner: 76168533@N00
title: IMAG0127.jpg
originalsecret: fd40b14bcf
originalformat: jpg
o_height: 1456
o_width: 2592
datetaken: 2011-08-21 14:13:35
dateupload: 1322703559
tags: auto shows avon 2011
license: 0
latitude: 39.763905
longitude: -86.406867
accuracy: 16
views: 0
interestingness: 181 out of 248

photo: 6433899767 a232f9dd9e 7156
owner: 76168533@N00
title: IMAG0126.jpg
originalsecret: b8556c4a79
originalformat: jpg
o_height: 1456
o_width: 2592
datetaken: 2011-08-21 14:13:13
dateupload: 1322703547
tags: auto shows avon 2011
license: 0
latitude: 39.763908
longitude: -86.406867
accuracy: 16
views: 0
interestingness: 182 out of 248

photo: 6433899305 5994e0f6d2 7165
owner: 76168533@N00
title: IMAG0125.jpg
originalsecret: 1d88dc74af
originalformat: jpg
o_height: 1456
o_width: 2592
datetaken: 2011-08-21 14:12:58
dateupload: 1322703540
tags: auto shows avon 2011
license: 0
latitude: 39.763958
longitude: -86.406823
accuracy: 16
views: 0
interestingness: 183 out of 248

photo: 6433898791 fef4501e30 7145
owner: 76168533@N00
title: IMAG0124.jpg
originalsecret: 15258c09d5
originalformat: jpg
o_height: 1456
o_width: 2592
datetaken: 2011-08-21 14:10:58
dateupload: 1322703532
tags: auto shows avon 2011
license: 0
latitude: 39.764366
longitude: -86.406517
accuracy: 16
views: 0
interestingness: 184 out of 248

photo: 6433898485 a579e00d99 7163
owner: 76168533@N00
title: IMAG0123.jpg
originalsecret: 49e8994590
originalformat: jpg
o_height: 1456
o_width: 2592
datetaken: 2011-08-21 14:10:49
dateupload: 1322703527
tags: auto shows avon 2011
license: 0
latitude: 39.764361
longitude: -86.406517
accuracy: 16
views: 0
interestingness: 185 out of 248

photo: 6433898109 152e5dfc08 7012
owner: 76168533@N00
title: IMAG0122.jpg
originalsecret: 002bab4bdd
originalformat: jpg
o_height: 1456
o_width: 2592
datetaken: 2011-08-21 14:10:30
dateupload: 1322703521
tags: auto shows avon 2011
license: 0
latitude: 39.764358
longitude: -86.406523
accuracy: 16
views: 0
interestingness: 186 out of 248

photo: 6433897797 09fe056c01 7156
owner: 76168533@N00
title: IMAG0121.jpg
originalsecret: 076454f211
originalformat: jpg
o_height: 1456
o_width: 2592
datetaken: 2011-08-21 14:10:08
dateupload: 1322703517
tags: auto shows avon 2011
license: 0
latitude: 39.764355
longitude: -86.406578
accuracy: 16
views: 0
interestingness: 187 out of 248

photo: 6433897439 c8dcc1efcf 7164
owner: 76168533@N00
title: IMAG0120.jpg
originalsecret: 0653b6b3e7
originalformat: jpg
o_height: 1456
o_width: 2592
datetaken: 2011-08-21 14:08:45
dateupload: 1322703512
tags: auto shows avon 2011
license: 0
latitude: 39.764361
longitude: -86.4068
accuracy: 16
views: 0
interestingness: 188 out of 248

photo: 6433897127 2d88f8bbdd 7157
owner: 76168533@N00
title: IMAG0119.jpg
originalsecret: 2c93a850b0
originalformat: jpg
o_height: 1456
o_width: 2592
datetaken: 2011-08-21 14:08:32
dateupload: 1322703507
tags: auto shows avon 2011
license: 0
latitude: 39.764338
longitude: -86.4068
accuracy: 16
views: 0
interestingness: 189 out of 248

photo: 6433896691 ccb2f9084f 7019
owner: 76168533@N00
title: IMAG0118.jpg
originalsecret: a71ba32bf6
originalformat: jpg
o_height: 1456
o_width: 2592
datetaken: 2011-08-21 14:08:15
dateupload: 1322703500
tags: auto shows avon 2011
license: 0
latitude: 39.764336
longitude: -86.406795
accuracy: 16
views: 0
interestingness: 190 out of 248

photo: 6433895921 845cae51e2 7144
owner: 76168533@N00
title: IMAG0117.jpg
originalsecret: 0e5a578952
originalformat: jpg
o_height: 1456
o_width: 2592
datetaken: 2011-08-21 14:07:45
dateupload: 1322703488
tags: auto shows avon 2011
license: 0
latitude: 39.764316
longitude: -86.406762
accuracy: 16
views: 0
interestingness: 191 out of 248

photo: 6433895575 bb4d83c66c 7163
owner: 76168533@N00
title: IMAG0116.jpg
originalsecret: 90aab52d20
originalformat: jpg
o_height: 1456
o_width: 2592
datetaken: 2011-08-21 14:07:35
dateupload: 1322703483
tags: auto shows avon 2011
license: 0
latitude: 39.764338
longitude: -86.406795
accuracy: 16
views: 0
interestingness: 192 out of 248

photo: 6433895241 af30137189 7160
owner: 76168533@N00
title: IMAG0115.jpg
originalsecret: ac4d0a1a54
originalformat: jpg
o_height: 1456
o_width: 2592
datetaken: 2011-08-21 14:07:25
dateupload: 1322703478
tags: auto shows avon 2011
license: 0
latitude: 39.764338
longitude: -86.406795
accuracy: 16
views: 0
interestingness: 193 out of 248

photo: 6433894805 43f3ec96e2 7023
owner: 76168533@N00
title: IMAG0114.jpg
originalsecret: 37e7012e2f
originalformat: jpg
o_height: 1456
o_width: 2592
datetaken: 2011-08-21 14:07:09
dateupload: 1322703471
tags: auto shows avon 2011
license: 0
latitude: 39.76435
longitude: -86.406795
accuracy: 16
views: 0
interestingness: 194 out of 248

photo: 6433894405 6930cb07d7 7150
owner: 76168533@N00
title: IMAG0113.jpg
originalsecret: f1e4e0e338
originalformat: jpg
o_height: 1456
o_width: 2592
datetaken: 2011-08-21 14:06:53
dateupload: 1322703465
tags: auto shows avon 2011
license: 0
latitude: 39.764294
longitude: -86.406706
accuracy: 16
views: 0
interestingness: 195 out of 248

photo: 6433893873 11ed8a62a0 7025
owner: 76168533@N00
title: IMAG0112.jpg
originalsecret: a2408669d4
originalformat: jpg
o_height: 1456
o_width: 2592
datetaken: 2011-08-21 14:06:15
dateupload: 1322703458
tags: auto shows avon 2011
license: 0
latitude: 39.764269
longitude: -86.406595
accuracy: 16
views: 0
interestingness: 196 out of 248

photo: 6433893381 fcd62d0c3a 7034
owner: 76168533@N00
title: IMAG0111.jpg
originalsecret: eee3957e6b
originalformat: jpg
o_height: 1456
o_width: 2592
datetaken: 2011-08-21 14:05:57
dateupload: 1322703451
tags: auto shows avon 2011
license: 0
latitude: 39.764266
longitude: -86.406573
accuracy: 16
views: 0
interestingness: 197 out of 248

photo: 6433892891 429f67db8b 7028
owner: 76168533@N00
title: IMAG0110.jpg
originalsecret: 1091dd81d1
originalformat: jpg
o_height: 1456
o_width: 2592
datetaken: 2011-08-21 14:05:29
dateupload: 1322703443
tags: auto shows avon 2011
license: 0
latitude: 39.764244
longitude: -86.406478
accuracy: 16
views: 0
interestingness: 198 out of 248

photo: 6433892395 01403d1fa0 7164
owner: 76168533@N00
title: IMAG0109.jpg
originalsecret: baaceec18d
originalformat: jpg
o_height: 1456
o_width: 2592
datetaken: 2011-08-21 14:05:09
dateupload: 1322703436
tags: auto shows avon 2011
license: 0
latitude: 39.764247
longitude: -86.406412
accuracy: 16
views: 0
interestingness: 199 out of 248

photo: 6433891547 71cc201795 7171
owner: 76168533@N00
title: IMAG0108.jpg
originalsecret: d372580696
originalformat: jpg
o_height: 1456
o_width: 2592
datetaken: 2011-08-21 14:04:52
dateupload: 1322703424
tags: auto shows avon 2011
license: 0
latitude: 39.764269
longitude: -86.4064
accuracy: 16
views: 0
interestingness: 200 out of 248

photo: 6433891005 1e9c21d4d8 7154
owner: 76168533@N00
title: IMAG0107.jpg
originalsecret: 84b128ecb4
originalformat: jpg
o_height: 1456
o_width: 2592
datetaken: 2011-08-21 14:04:11
dateupload: 1322703417
tags: auto shows avon 2011
license: 0
latitude: 39.764325
longitude: -86.406456
accuracy: 16
views: 0
interestingness: 201 out of 248

photo: 6433890511 cddacd7d63 7156
owner: 76168533@N00
title: IMAG0106.jpg
originalsecret: 52914faf04
originalformat: jpg
o_height: 1456
o_width: 2592
datetaken: 2011-08-21 14:03:56
dateupload: 1322703409
tags: auto shows avon 2011
license: 0
latitude: 39.764458
longitude: -86.406456
accuracy: 16
views: 0
interestingness: 202 out of 248

photo: 6433889985 6bd0b7ba86 7175
owner: 76168533@N00
title: IMAG0105.jpg
originalsecret: 418755b14d
originalformat: jpg
o_height: 1456
o_width: 2592
datetaken: 2011-08-21 14:03:47
dateupload: 1322703402
tags: auto shows avon 2011
license: 0
latitude: 39.764458
longitude: -86.406456
accuracy: 16
views: 0
interestingness: 203 out of 248

photo: 6433889497 19bcc114cc 7014
owner: 76168533@N00
title: IMAG0104.jpg
originalsecret: b9808858a6
originalformat: jpg
o_height: 1456
o_width: 2592
datetaken: 2011-08-21 14:03:35
dateupload: 1322703395
tags: auto shows avon 2011
license: 0
latitude: 39.764458
longitude: -86.40645
accuracy: 16
views: 1
interestingness: 204 out of 248

photo: 6433889011 499a621a89 7158
owner: 76168533@N00
title: IMAG0103.jpg
originalsecret: 7656cb595d
originalformat: jpg
o_height: 1456
o_width: 2592
datetaken: 2011-08-21 14:03:12
dateupload: 1322703388
tags: auto shows avon 2011
license: 0
latitude: 39.764469
longitude: -86.406456
accuracy: 16
views: 0
interestingness: 205 out of 248

photo: 6433888349 08a5418654 7007
owner: 76168533@N00
title: IMAG0102.jpg
originalsecret: e4cc11c9aa
originalformat: jpg
o_height: 1456
o_width: 2592
datetaken: 2011-08-21 14:02:29
dateupload: 1322703379
tags: auto shows avon 2011
license: 0
latitude: 39.764616
longitude: -86.406562
accuracy: 16
views: 0
interestingness: 206 out of 248

photo: 6433887577 cd4f01dc30 7164
owner: 76168533@N00
title: IMAG0101.jpg
originalsecret: 94638ea189
originalformat: jpg
o_height: 1456
o_width: 2592
datetaken: 2011-08-21 14:01:42
dateupload: 1322703368
tags: auto shows avon 2011
license: 0
latitude: 39.764616
longitude: -86.406562
accuracy: 16
views: 0
interestingness: 207 out of 248

photo: 6433887219 a0aedb28db 7017
owner: 76168533@N00
title: IMAG0100.jpg
originalsecret: 32565f3599
originalformat: jpg
o_height: 1456
o_width: 2592
datetaken: 2011-08-21 14:01:13
dateupload: 1322703363
tags: auto shows avon 2011
license: 0
latitude: 39.764641
longitude: -86.406573
accuracy: 16
views: 0
interestingness: 208 out of 248

photo: 6433886825 d67143250e 7153
owner: 76168533@N00
title: IMAG0099.jpg
originalsecret: ec63e5aaba
originalformat: jpg
o_height: 1456
o_width: 2592
datetaken: 2011-08-21 14:00:59
dateupload: 1322703357
tags: auto shows avon 2011
license: 0
latitude: 39.764677
longitude: -86.406551
accuracy: 16
views: 0
interestingness: 209 out of 248

photo: 6433886349 d9fa7c0355 7003
owner: 76168533@N00
title: IMAG0098.jpg
originalsecret: 5d449c3190
originalformat: jpg
o_height: 1456
o_width: 2592
datetaken: 2011-08-21 13:59:58
dateupload: 1322703351
tags: auto shows avon 2011
license: 0
latitude: 39.764702
longitude: -86.406551
accuracy: 16
views: 0
interestingness: 210 out of 248

photo: 6433885775 1beebd481d 7146
owner: 76168533@N00
title: IMAG0097.jpg
originalsecret: f5af23885a
originalformat: jpg
o_height: 1456
o_width: 2592
datetaken: 2011-08-21 13:59:29
dateupload: 1322703343
tags: auto shows avon 2011
license: 0
latitude: 39.764841
longitude: -86.406578
accuracy: 16
views: 0
interestingness: 211 out of 248

photo: 6433885421 1cb80c1823 7155
owner: 76168533@N00
title: IMAG0096.jpg
originalsecret: 3e6b188e41
originalformat: jpg
o_height: 1456
o_width: 2592
datetaken: 2011-08-21 13:58:49
dateupload: 1322703338
tags: auto shows avon 2011
license: 0
latitude: 39.764877
longitude: -86.406556
accuracy: 16
views: 0
interestingness: 212 out of 248

photo: 6433884951 8331f0a4a4 7009
owner: 76168533@N00
title: IMAG0095.jpg
originalsecret: b9288d5df8
originalformat: jpg
o_height: 1456
o_width: 2592
datetaken: 2011-08-21 13:58:31
dateupload: 1322703332
tags: auto shows avon 2011
license: 0
latitude: 39.764891
longitude: -86.406539
accuracy: 16
views: 0
interestingness: 213 out of 248

photo: 6433884565 c6e7ff6b65 7007
owner: 76168533@N00
title: IMAG0094.jpg
originalsecret: 8875730814
originalformat: jpg
o_height: 1456
o_width: 2592
datetaken: 2011-08-21 13:57:44
dateupload: 1322703327
tags: auto shows avon 2011
license: 0
latitude: 39.764927
longitude: -86.406523
accuracy: 16
views: 0
interestingness: 214 out of 248

photo: 6433884289 ac427e1e31 7152
owner: 76168533@N00
title: IMAG0093.jpg
originalsecret: 83fb57e704
originalformat: jpg
o_height: 1456
o_width: 2592
datetaken: 2011-08-21 13:57:22
dateupload: 1322703322
tags: auto shows avon 2011
license: 0
latitude: 39.764922
longitude: -86.406534
accuracy: 16
views: 0
interestingness: 215 out of 248

photo: 6433883647 38c76c64ed 7019
owner: 76168533@N00
title: IMAG0092.jpg
originalsecret: f38a0ac9bd
originalformat: jpg
o_height: 1456
o_width: 2592
datetaken: 2011-08-21 13:57:13
dateupload: 1322703314
tags: auto shows avon 2011
license: 0
latitude: 39.764938
longitude: -86.406551
accuracy: 16
views: 0
interestingness: 216 out of 248

photo: 6433883099 57bbc07b89 7033
owner: 76168533@N00
title: IMAG0091.jpg
originalsecret: b06672505e
originalformat: jpg
o_height: 1456
o_width: 2592
datetaken: 2011-08-21 13:56:02
dateupload: 1322703305
tags: auto shows avon 2011
license: 0
latitude: 39.765044
longitude: -86.406662
accuracy: 16
views: 0
interestingness: 217 out of 248

photo: 6433882593 8d853c9382 7172
owner: 76168533@N00
title: IMAG0090.jpg
originalsecret: 2ed6421351
originalformat: jpg
o_height: 1456
o_width: 2592
datetaken: 2011-08-21 13:55:49
dateupload: 1322703298
tags: auto shows avon 2011
license: 0
latitude: 39.765055
longitude: -86.406662
accuracy: 16
views: 0
interestingness: 218 out of 248

photo: 6433882157 eb285fdc9e 7166
owner: 76168533@N00
title: IMAG0089.jpg
originalsecret: 08b20fa78b
originalformat: jpg
o_height: 1456
o_width: 2592
datetaken: 2011-08-21 13:55:05
dateupload: 1322703292
tags: auto shows avon 2011
license: 0
latitude: 39.765127
longitude: -86.406656
accuracy: 16
views: 1
interestingness: 219 out of 248

photo: 6433881777 012c171758 7009
owner: 76168533@N00
title: IMAG0088.jpg
originalsecret: 26f5c743c7
originalformat: jpg
o_height: 1456
o_width: 2592
datetaken: 2011-08-21 13:54:52
dateupload: 1322703286
tags: auto shows avon 2011
license: 0
latitude: 39.765127
longitude: -86.406645
accuracy: 16
views: 0
interestingness: 220 out of 248

photo: 6433881293 cde20b7f28 7142
owner: 76168533@N00
title: IMAG0087.jpg
originalsecret: 50cf8aea3e
originalformat: jpg
o_height: 1456
o_width: 2592
datetaken: 2011-08-21 13:54:23
dateupload: 1322703279
tags: auto shows avon 2011
license: 0
latitude: 39.765197
longitude: -86.406551
accuracy: 16
views: 0
interestingness: 221 out of 248

photo: 6433880793 ea83aba513 7168
owner: 76168533@N00
title: IMAG0086.jpg
originalsecret: 87d4298f6d
originalformat: jpg
o_height: 1456
o_width: 2592
datetaken: 2011-08-21 13:54:01
dateupload: 1322703272
tags: auto shows avon 2011
license: 0
latitude: 39.765225
longitude: -86.406612
accuracy: 16
views: 0
interestingness: 222 out of 248

photo: 6433880457 9eb47d5521 7031
owner: 76168533@N00
title: IMAG0085.jpg
originalsecret: b810afe84c
originalformat: jpg
o_height: 1456
o_width: 2592
datetaken: 2011-08-21 13:53:46
dateupload: 1322703267
tags: auto shows avon 2011
license: 0
latitude: 39.765225
longitude: -86.406612
accuracy: 16
views: 0
interestingness: 223 out of 248

photo: 6433880123 5c22c2e9d3 7008
owner: 76168533@N00
title: IMAG0084.jpg
originalsecret: 57df0996e9
originalformat: jpg
o_height: 1456
o_width: 2592
datetaken: 2011-08-21 13:50:48
dateupload: 1322703263
tags: auto shows avon 2011
license: 0
latitude: 39.766363
longitude: -86.406945
accuracy: 16
views: 0
interestingness: 224 out of 248

photo: 6433879433 6d83b28ffd 7019
owner: 76168533@N00
title: IMAG0083.jpg
originalsecret: 1ecf424fb2
originalformat: jpg
o_height: 1456
o_width: 2592
datetaken: 2011-08-21 13:49:44
dateupload: 1322703253
tags: auto shows avon 2011
license: 0
latitude: 39.766466
longitude: -86.407006
accuracy: 16
views: 0
interestingness: 225 out of 248

photo: 6433878849 c20233c029 7147
owner: 76168533@N00
title: IMAG0082.jpg
originalsecret: eb65154f81
originalformat: jpg
o_height: 1456
o_width: 2592
datetaken: 2011-08-21 13:48:03
dateupload: 1322703245
tags: auto shows avon 2011
license: 0
latitude: 39.766625
longitude: -86.406962
accuracy: 16
views: 0
interestingness: 226 out of 248

photo: 6433878307 7c06cc648b 7142
owner: 76168533@N00
title: IMAG0081.jpg
originalsecret: 8b370d6fa2
originalformat: jpg
o_height: 1456
o_width: 2592
datetaken: 2011-08-21 13:47:43
dateupload: 1322703237
tags: auto shows avon 2011
license: 0
latitude: 39.766647
longitude: -86.406973
accuracy: 16
views: 1
interestingness: 227 out of 248

photo: 6433877819 8f3f75d5be 7159
owner: 76168533@N00
title: IMAG0080.jpg
originalsecret: 082449b1ea
originalformat: jpg
o_height: 1456
o_width: 2592
datetaken: 2011-08-21 13:47:30
dateupload: 1322703231
tags: auto shows avon 2011
license: 0
latitude: 39.766658
longitude: -86.406962
accuracy: 16
views: 0
interestingness: 228 out of 248

photo: 6433877379 58d8a972f8 7164
owner: 76168533@N00
title: IMAG0079.jpg
originalsecret: 4225a38552
originalformat: jpg
o_height: 1456
o_width: 2592
datetaken: 2011-08-21 13:47:11
dateupload: 1322703225
tags: auto shows avon 2011
license: 0
latitude: 39.766705
longitude: -86.406989
accuracy: 16
views: 0
interestingness: 229 out of 248

photo: 6433876985 5b7187701a 7166
owner: 76168533@N00
title: IMAG0078.jpg
originalsecret: 9540a32125
originalformat: jpg
o_height: 1456
o_width: 2592
datetaken: 2011-08-21 13:47:02
dateupload: 1322703219
tags: auto shows avon 2011
license: 0
latitude: 39.766708
longitude: -86.406989
accuracy: 16
views: 0
interestingness: 230 out of 248

photo: 6433876457 d223c972e1 7165
owner: 76168533@N00
title: IMAG0077.jpg
originalsecret: 5bbb83b3ff
originalformat: jpg
o_height: 1456
o_width: 2592
datetaken: 2011-08-21 13:45:12
dateupload: 1322703212
tags: auto shows avon 2011
license: 0
latitude: 39.767038
longitude: -86.407067
accuracy: 16
views: 0
interestingness: 231 out of 248

photo: 6433875955 a9a1a087a8 7025
owner: 76168533@N00
title: IMAG0076.jpg
originalsecret: 2ed24792e2
originalformat: jpg
o_height: 1456
o_width: 2592
datetaken: 2011-08-21 13:44:34
dateupload: 1322703206
tags: auto shows avon 2011
license: 0
latitude: 39.767038
longitude: -86.407195
accuracy: 16
views: 0
interestingness: 232 out of 248

photo: 6433875449 47efa12b29 7024
owner: 76168533@N00
title: IMAG0075.jpg
originalsecret: 60fefe5441
originalformat: jpg
o_height: 1456
o_width: 2592
datetaken: 2011-08-21 13:44:17
dateupload: 1322703199
tags: auto shows avon 2011
license: 0
latitude: 39.767038
longitude: -86.407189
accuracy: 16
views: 0
interestingness: 233 out of 248

photo: 6433874689 eb7958ab23 7149
owner: 76168533@N00
title: IMAG0074.jpg
originalsecret: 627a2771db
originalformat: jpg
o_height: 1456
o_width: 2592
datetaken: 2011-08-21 13:44:06
dateupload: 1322703188
tags: auto shows avon 2011
license: 0
latitude: 39.767027
longitude: -86.407195
accuracy: 16
views: 0
interestingness: 234 out of 248

photo: 6433874237 f0fde8e11d 7009
owner: 76168533@N00
title: IMAG0073.jpg
originalsecret: 9323c0c7a9
originalformat: jpg
o_height: 1456
o_width: 2592
datetaken: 2011-08-21 13:43:54
dateupload: 1322703182
tags: auto shows avon 2011
license: 0
latitude: 39.767025
longitude: -86.407195
accuracy: 16
views: 0
interestingness: 235 out of 248

photo: 6433873661 675ed0fae2 7158
owner: 76168533@N00
title: IMAG0072.jpg
originalsecret: ddffc3fcf4
originalformat: jpg
o_height: 1456
o_width: 2592
datetaken: 2011-08-21 13:43:05
dateupload: 1322703175
tags: auto shows avon 2011
license: 0
latitude: 39.766894
longitude: -86.407595
accuracy: 16
views: 0
interestingness: 236 out of 248

photo: 6433873321 e4a46b294b 7149
owner: 76168533@N00
title: IMAG0071.jpg
originalsecret: bb101e5c35
originalformat: jpg
o_height: 1456
o_width: 2592
datetaken: 2011-08-21 13:42:38
dateupload: 1322703170
tags: auto shows avon 2011
license: 0
latitude: 39.766911
longitude: -86.407623
accuracy: 16
views: 0
interestingness: 237 out of 248

photo: 6433872855 b5108b9245 7016
owner: 76168533@N00
title: IMAG0070.jpg
originalsecret: 0af4c06435
originalformat: jpg
o_height: 1456
o_width: 2592
datetaken: 2011-08-21 13:42:12
dateupload: 1322703164
tags: auto shows avon 2011
license: 0
latitude: 39.766919
longitude: -86.407556
accuracy: 16
views: 0
interestingness: 238 out of 248

photo: 6433872421 e3f7dd1b35 7018
owner: 76168533@N00
title: IMAG0069.jpg
originalsecret: 580e114808
originalformat: jpg
o_height: 1456
o_width: 2592
datetaken: 2011-08-21 13:41:36
dateupload: 1322703158
tags: auto shows avon 2011
license: 0
latitude: 39.76695
longitude: -86.407523
accuracy: 16
views: 1
interestingness: 239 out of 248

photo: 6433872019 987bd19cc3 7035
owner: 76168533@N00
title: IMAG0068.jpg
originalsecret: b312aa990d
originalformat: jpg
o_height: 1456
o_width: 2592
datetaken: 2011-08-21 13:41:27
dateupload: 1322703152
tags: auto shows avon 2011
license: 0
latitude: 39.766944
longitude: -86.407517
accuracy: 16
views: 0
interestingness: 240 out of 248

photo: 6433871649 0103234b3a 7167
owner: 76168533@N00
title: IMAG0067.jpg
originalsecret: 7e90b2589b
originalformat: jpg
o_height: 1456
o_width: 2592
datetaken: 2011-08-21 13:41:09
dateupload: 1322703148
tags: auto shows avon 2011
license: 0
latitude: 39.766961
longitude: -86.407523
accuracy: 16
views: 0
interestingness: 241 out of 248

photo: 6433871253 31e6bcc9a8 7008
owner: 76168533@N00
title: IMAG0066.jpg
originalsecret: c36713f0d2
originalformat: jpg
o_height: 1456
o_width: 2592
datetaken: 2011-08-21 13:40:34
dateupload: 1322703141
tags: auto shows avon 2011
license: 0
latitude: 39.7671
longitude: -86.407462
accuracy: 16
views: 2
interestingness: 242 out of 248

photo: 6433870443 7b420c507b 7001
owner: 76168533@N00
title: IMAG0065.jpg
originalsecret: 77b08686a1
originalformat: jpg
o_height: 1456
o_width: 2592
datetaken: 2011-08-21 13:39:55
dateupload: 1322703129
tags: auto shows avon 2011
license: 0
latitude: 39.767205
longitude: -86.407367
accuracy: 16
views: 0
interestingness: 243 out of 248

photo: 6433869483 3f5f429622 7165
owner: 76168533@N00
title: IMAG0063.jpg
originalsecret: 63c9abae04
originalformat: jpg
o_height: 1456
o_width: 2592
datetaken: 2011-08-21 13:39:25
dateupload: 1322703115
tags: auto shows avon 2011
license: 0
latitude: 39.767186
longitude: -86.407312
accuracy: 16
views: 0
interestingness: 244 out of 248

photo: 6433869017 78707e9528 7168
owner: 76168533@N00
title: IMAG0062.jpg
originalsecret: a83f0d1641
originalformat: jpg
o_height: 1456
o_width: 2592
datetaken: 2011-08-21 13:39:17
dateupload: 1322703108
tags: auto shows avon 2011
license: 0
latitude: 39.76718
longitude: -86.407312
accuracy: 16
views: 1
interestingness: 245 out of 248

photo: 6433868603 7ef556369b 7165
owner: 76168533@N00
title: IMAG0061.jpg
originalsecret: a217b65796
originalformat: jpg
o_height: 1456
o_width: 2592
datetaken: 2011-08-21 13:38:11
dateupload: 1322703102
tags: auto shows avon 2011
license: 0
latitude: 39.767247
longitude: -86.40725
accuracy: 16
views: 1
interestingness: 246 out of 248

photo: 6433868193 80427aaec9 7011
owner: 76168533@N00
title: IMAG0060.jpg
originalsecret: 36fcfcf7d3
originalformat: jpg
o_height: 1456
o_width: 2592
datetaken: 2011-08-21 13:37:50
dateupload: 1322703097
tags: auto shows avon 2011
license: 0
latitude: 39.767258
longitude: -86.407173
accuracy: 16
views: 1
interestingness: 247 out of 248

photo: 6433867805 041fcf112e 7033
owner: 76168533@N00
title: IMAG0059.jpg
originalsecret: 78f7ac6a09
originalformat: jpg
o_height: 1456
o_width: 2592
datetaken: 2011-08-21 13:37:37
dateupload: 1322703091
tags: auto shows avon 2011
license: 0
latitude: 39.767272
longitude: -86.40715
accuracy: 16
views: 1
interestingness: 248 out of 248

photo: 6433538665 67fb64ee46 7157
owner: 10290887@N03
title: DOK-ING XD
originalsecret: 6ae8531541
originalformat: jpg
o_height: 2860
o_width: 4290
datetaken: 2011-11-27 12:54:51
dateupload: 1322698139
tags: auto show la los angeles autoshow xd 2011 doking
license: 0
latitude: 34.040277
longitude: -118.269492
accuracy: 16
views: 4
interestingness: 249 out of 248

photo: 6433870041 835503f812 7171
owner: 76168533@N00
title: IMAG0064.jpg
originalsecret: 108f9d78c7
originalformat: jpg
o_height: 1456
o_width: 2592
datetaken: 2011-08-21 13:39:39
dateupload: 1322703123
tags: auto shows avon 2011
license: 0
latitude: 39.767216
longitude: -86.407339
accuracy: 16
views: 0
interestingness: 250 out of 248


mintime: 1322717395.08 maxtime: 1322743908.46
numimgs: 375
total pages: 2
visiting only 2 pages ( up to 500 images)
photo: 6426386739 cf6085119a 6093
owner: 16787443@N00
title: La fameuse hospitalit? Parisienne !
originalsecret: null
originalformat: null
o_height: null
o_width: null
datetaken: 2011-11-26 17:45:50
dateupload: 1322725621
tags: paris france fuji fuck doigt finepix fujifilm artforsale fujinon con streetmarket parisien x100 insultes 23mm doigtdhonneur nomsdoiseaux
license: 0
latitude: 48.857324
longitude: 2.338446
accuracy: 16
views: 877
interestingness: 1 out of 375

photo: 6425408059 4cbdda9e5a 7031
owner: 85335231@N00
title: Sodade
originalsecret: null
originalformat: null
o_height: null
o_width: null
datetaken: 2011-11-29 18:23:46
dateupload: 1322740980
tags: mer portugal noiretblanc porto dor plage evora nostalgie lota tristese m?lancolie sodade magun d?racinement smoussimou
license: 0
latitude: 41.066685
longitude: -8.657155
accuracy: 14
views: 368
interestingness: 2 out of 375

photo: 6435386387 bda772431a 7152
owner: 34096574@N06
title: Verona : Arena by night
originalsecret: b78c5e5336
originalformat: jpg
o_height: 2806
o_width: 4067
datetaken: 2011-09-25 21:23:57
dateupload: 1322730021
tags: plaza italy night square noche nikon italia place arena verona piazza amphitheater notte rawfile amphith??tre verone d90 ar?nes br? bellitalia nikonpassion nikonflickraward 1685mmf3556 ringexcellence
license: 3
latitude: 45.43898
longitude: 10.99418
accuracy: 16
views: 301
interestingness: 3 out of 375

photo: 6435184439 c6ebbd56e4 7035
owner: 23448498@N02
title: Reflecting On Winter
originalsecret: 1d1f307da8
originalformat: jpg
o_height: 3250
o_width: 4330
datetaken: 2011-11-30 17:12:15
dateupload: 1322725178
tags: winter sky snow abstract ice nature water clouds reflections nikon melting stream zoom davidsmith abigfave calgaryalbertacanada flickrstruereflection1
license: 0
latitude: 50.948951
longitude: -114.021284
accuracy: 14
views: 208
interestingness: 4 out of 375

photo: 6435467201 8f1a6ebe04 7155
owner: 47145915@N02
title: Thorpe Marsh ~ Explore
originalsecret: null
originalformat: null
o_height: null
o_width: null
datetaken: 2011-11-23 10:39:35
dateupload: 1322731961
tags: 
license: 0
latitude: 53.57625
longitude: -1.087989
accuracy: 16
views: 702
interestingness: 5 out of 375

photo: 6428015879 34e2b0a111 7156
owner: 9103928@N06
title: Florian?polis
originalsecret: null
originalformat: null
o_height: null
o_width: null
datetaken: 2011-11-27 09:15:09
dateupload: 1322740928
tags: city floripa cidade brasil canon buildings island florian?polis santacatarina ilha pr?dios am?ricadosul morrodacruz suldobrasil dircinha
license: 0
latitude: -27.588936
longitude: -48.556823
accuracy: 11
views: 307
interestingness: 6 out of 375

photo: 6435449057 e35a784e36 7142
owner: 68278382@N06
title: Damascus 2011
originalsecret: null
originalformat: null
o_height: null
o_width: null
datetaken: 2011-11-30 12:12:58
